time,slope_index,warning_index,slope_overflow,warning_overflow,slope_data_0,slope_data_1,slope_data_2,slope_data_3,attit_roll,attit_pitch,attit_yaw,gps_latitude,gps_longitude,self_gps_latitude,self_gps_longitude,max_alt,last_receive_time,receive_pack_count,rocket_state_0,rocket_state_1,rocket_state_2,rocket_state_3,rocket_state_4,rocket_state_5,rocket_state_6,rocket_state_7,rocket_state_8,rocket_state_9,rocket_state_10,rocket_state_11,local_gps_data_0,local_gps_data_1,local_gps_data_2,local_gps_data_3,local_gps_data_4,local_gps_data_5,local_gps_data_6,local_gps_data_7,local_gps_data_8,local_gps_data_9,local_gps_data_10
1131,300,100,0,0,0.000000,0.000000,0.000000,0.000000,0.000000,0.000000,0.000000,0.00000000,0.00000000,nan,nan,0,0,0,0,0,0,0,0,0,0,0,0,0,0,nan,nan,nan,nan,nan,nan,nan,nan,nan,nan,nan
2131,0,100,1,0,1355.000000,-17.622210,0.006012,0.001367,0.000000,0.000000,0.000000,nan,nan,nan,nan,1355,718,0,0,0,0,0,1,1,1,1,1,0,0,nan,nan,nan,nan,nan,nan,nan,nan,nan,nan,nan
3131,1,100,1,0,2355.000000,-17.609524,0.003465,0.000539,0.000000,0.000000,0.000000,nan,nan,nan,nan,2355,719,0,0,0,0,0,1,1,1,1,1,0,0,nan,nan,nan,nan,nan,nan,nan,nan,nan,nan,nan
4131,2,100,1,0,3356.000000,-17.607882,0.003526,-0.000402,0.000000,0.000000,0.000000,nan,nan,nan,nan,3356,720,0,0,0,0,0,1,1,1,1,1,0,0,nan,nan,nan,nan,nan,nan,nan,nan,nan,nan,nan
5131,3,100,1,0,4356.000000,-17.617647,0.005517,-0.000926,0.000000,0.000000,0.000000,nan,nan,nan,nan,4356,721,0,0,0,0,0,1,1,1,1,1,0,0,nan,nan,nan,nan,nan,nan,nan,nan,nan,nan,nan
6131,4,100,1,0,5355.000000,-17.617437,0.006091,-0.001108,0.000000,0.000000,0.000000,nan,nan,nan,nan,5355,722,0,0,0,0,0,1,1,1,1,1,0,0,nan,nan,nan,nan,nan,nan,nan,nan,nan,nan,nan
7131,5,100,1,0,6356.000000,-17.658489,0.006727,-0.000885,0.000000,0.000000,0.000000,nan,nan,nan,nan,6356,723,0,0,0,0,0,1,1,1,1,1,0,0,nan,nan,nan,nan,nan,nan,nan,nan,nan,nan,nan
8131,6,100,1,0,7358.000000,-16.083685,-0.090416,0.002150,0.000000,0.000000,0.000000,nan,nan,nan,nan,7358,724,0,0,0,0,0,0,1,0,1,1,0,0,nan,nan,nan,nan,nan,nan,nan,nan,nan,nan,nan
9131,7,100,1,0,8355.000000,-17.707636,-0.004936,-0.000599,0.000000,0.000000,0.000000,nan,nan,nan,nan,8355,725,0,0,0,0,0,1,1,1,1,1,0,0,nan,nan,nan,nan,nan,nan,nan,nan,nan,nan,nan
10131,8,100,1,0,9356.000000,-17.695578,-0.011085,-0.001254,0.000000,0.000000,0.000000,nan,nan,nan,nan,9356,726,0,0,0,0,0,1,1,1,1,1,0,0,nan,nan,nan,nan,nan,nan,nan,nan,nan,nan,nan
11131,9,100,1,0,10355.000000,-17.704535,-0.014165,-0.002030,0.000000,0.000000,0.000000,nan,nan,nan,nan,10355,727,0,0,0,0,0,1,1,1,1,1,0,0,nan,nan,nan,nan,nan,nan,nan,nan,nan,nan,nan
12131,10,100,1,0,11355.000000,-17.654566,-0.013509,-0.002698,0.000000,0.000000,0.000000,nan,nan,nan,nan,11355,728,0,0,0,0,0,1,1,1,1,1,0,0,nan,nan,nan,nan,nan,nan,nan,nan,nan,nan,nan
13131,11,100,1,0,12356.000000,-17.585289,-0.006026,-0.002857,0.000000,0.000000,0.000000,nan,nan,nan,nan,12356,729,0,0,0,0,0,1,1,1,1,1,0,0,nan,nan,nan,nan,nan,nan,nan,nan,nan,nan,nan
14131,12,100,1,0,13356.000000,-17.535280,0.006000,-0.001986,0.000000,0.000000,0.000000,nan,nan,nan,nan,13356,730,0,0,0,0,0,1,1,1,1,1,0,0,nan,nan,nan,nan,nan,nan,nan,nan,nan,nan,nan
15131,13,100,1,0,14356.000000,-17.553688,0.016617,-0.000122,0.000000,0.000000,0.000000,nan,nan,nan,nan,14356,731,0,0,0,0,0,1,1,1,1,1,0,0,nan,nan,nan,nan,nan,nan,nan,nan,nan,nan,nan
16131,14,100,1,0,15355.000000,-17.561426,0.021610,0.002192,0.000000,0.000000,0.000000,nan,nan,nan,nan,15355,732,0,0,0,0,0,1,1,1,1,1,0,0,nan,nan,nan,nan,nan,nan,nan,nan,nan,nan,nan
17131,15,100,1,0,16355.000000,-17.502697,0.025005,0.004299,0.000000,0.000000,0.000000,nan,nan,nan,nan,16355,733,0,0,0,0,0,1,1,1,1,1,0,0,nan,nan,nan,nan,nan,nan,nan,nan,nan,nan,nan
18131,16,100,1,0,17355.000000,-17.452406,0.029843,0.005854,0.000000,0.000000,0.000000,nan,nan,nan,nan,17355,734,0,0,0,0,0,1,1,1,1,1,0,0,nan,nan,nan,nan,nan,nan,nan,nan,nan,nan,nan
19131,17,100,1,0,18356.000000,-17.445551,0.030366,0.006425,0.000000,0.000000,0.000000,nan,nan,nan,nan,18356,735,0,0,0,0,0,1,1,1,1,1,0,0,nan,nan,nan,nan,nan,nan,nan,nan,nan,nan,nan
20131,18,100,1,0,19356.000000,-17.433605,0.026961,0.005850,0.000000,0.000000,0.000000,nan,nan,nan,nan,19356,736,0,0,0,0,0,1,1,1,1,1,0,0,nan,nan,nan,nan,nan,nan,nan,nan,nan,nan,nan
21131,19,100,1,0,20355.000000,-17.383131,0.023536,0.004336,0.000000,0.000000,0.000000,nan,nan,nan,nan,20355,737,0,0,0,0,0,1,1,1,1,1,0,0,nan,nan,nan,nan,nan,nan,nan,nan,nan,nan,nan
22131,20,100,1,0,21356.000000,-17.309294,0.026756,0.002615,0.000000,0.000000,0.000000,nan,nan,nan,nan,21356,738,0,0,0,0,0,1,1,1,1,1,0,0,nan,nan,nan,nan,nan,nan,nan,nan,nan,nan,nan
23131,21,100,1,0,22356.000000,-17.279812,0.032765,0.001421,0.000000,0.000000,0.000000,nan,nan,nan,nan,22356,739,0,0,0,0,0,1,1,1,1,1,0,0,nan,nan,nan,nan,nan,nan,nan,nan,nan,nan,nan
24131,22,100,1,0,23356.000000,-17.261282,0.037052,0.001148,0.000000,0.000000,0.000000,nan,nan,nan,nan,23356,740,0,0,0,0,0,1,1,1,1,1,0,0,nan,nan,nan,nan,nan,nan,nan,nan,nan,nan,nan
25131,23,100,1,0,24356.000000,-17.259596,0.034838,0.001156,0.000000,0.000000,0.000000,nan,nan,nan,nan,24356,741,0,0,0,0,0,1,1,1,1,1,0,0,nan,nan,nan,nan,nan,nan,nan,nan,nan,nan,nan
26131,24,100,1,0,25356.000000,-12.565124,-0.255561,0.007040,0.000000,0.000000,0.000000,nan,nan,nan,nan,25356,742,0,0,0,0,0,0,1,0,1,1,0,0,nan,nan,nan,nan,nan,nan,nan,nan,nan,nan,nan
27131,25,100,1,0,26356.000000,-17.236046,0.027688,0.000650,0.000000,0.000000,0.000000,nan,nan,nan,nan,26356,743,0,0,0,0,0,1,1,1,1,1,0,0,nan,nan,nan,nan,nan,nan,nan,nan,nan,nan,nan
28131,26,100,1,0,27356.000000,-17.269312,0.021949,0.000288,0.000000,0.000000,0.000000,nan,nan,nan,nan,27356,744,0,0,0,0,0,1,1,1,1,1,0,0,nan,nan,nan,nan,nan,nan,nan,nan,nan,nan,nan
29131,27,100,1,0,28356.000000,-17.213322,0.015330,-0.000582,0.000000,0.000000,0.000000,nan,nan,nan,nan,28356,745,0,0,0,0,0,1,1,1,1,1,0,0,nan,nan,nan,nan,nan,nan,nan,nan,nan,nan,nan
30131,28,100,1,0,29356.000000,-17.204605,0.011693,-0.001900,0.000000,0.000000,0.000000,nan,nan,nan,nan,29356,746,0,0,0,0,0,1,1,1,1,1,0,0,nan,nan,nan,nan,nan,nan,nan,nan,nan,nan,nan
31131,29,100,1,0,30356.000000,-17.215559,0.010183,-0.003110,0.000000,0.000000,0.000000,nan,nan,nan,nan,30356,747,0,0,0,0,0,1,1,1,1,1,0,0,nan,nan,nan,nan,nan,nan,nan,nan,nan,nan,nan
32131,30,100,1,0,31357.000000,-17.193304,0.009591,-0.003820,0.000000,0.000000,0.000000,nan,nan,nan,nan,31357,748,0,0,0,0,0,1,1,1,1,1,0,0,nan,nan,nan,nan,nan,nan,nan,nan,nan,nan,nan
33131,31,100,1,0,32356.000000,-17.211311,0.010058,-0.003683,0.000000,0.000000,0.000000,nan,nan,nan,nan,32356,749,0,0,0,0,0,1,1,1,1,1,0,0,nan,nan,nan,nan,nan,nan,nan,nan,nan,nan,nan
34131,32,100,1,0,33356.000000,-17.185303,0.008827,-0.003018,0.000000,0.000000,0.000000,nan,nan,nan,nan,33356,750,0,0,0,0,0,1,1,1,1,1,0,0,nan,nan,nan,nan,nan,nan,nan,nan,nan,nan,nan
35131,33,100,1,0,34356.000000,-17.193016,0.007129,-0.002376,0.000000,0.000000,0.000000,nan,nan,nan,nan,34356,751,0,0,0,0,0,1,1,1,1,1,0,0,nan,nan,nan,nan,nan,nan,nan,nan,nan,nan,nan
36131,34,100,1,0,35356.000000,-17.168373,0.007756,-0.001750,0.000000,0.000000,0.000000,nan,nan,nan,nan,35356,752,0,0,0,0,0,1,1,1,1,1,0,0,nan,nan,nan,nan,nan,nan,nan,nan,nan,nan,nan
37131,35,100,1,0,36357.000000,-17.221207,0.004688,-0.001106,0.000000,0.000000,0.000000,nan,nan,nan,nan,36357,753,0,0,0,0,0,1,1,1,1,1,0,0,nan,nan,nan,nan,nan,nan,nan,nan,nan,nan,nan
38131,36,100,1,0,37356.000000,-17.222221,0.000364,-0.001078,0.000000,0.000000,0.000000,nan,nan,nan,nan,37356,754,0,0,0,0,0,1,1,1,1,1,0,0,nan,nan,nan,nan,nan,nan,nan,nan,nan,nan,nan
39131,37,100,1,0,38356.000000,-17.230206,-0.001676,-0.001329,0.000000,0.000000,0.000000,nan,nan,nan,nan,38356,755,0,0,0,0,0,1,1,1,1,1,0,0,nan,nan,nan,nan,nan,nan,nan,nan,nan,nan,nan
40131,38,100,1,0,39356.000000,-17.267355,-0.004909,-0.001664,0.000000,0.000000,0.000000,nan,nan,nan,nan,39356,756,0,0,0,0,0,1,1,1,1,1,0,0,nan,nan,nan,nan,nan,nan,nan,nan,nan,nan,nan
41131,39,100,1,0,40357.000000,-17.269897,-0.009338,-0.002217,0.000000,0.000000,0.000000,nan,nan,nan,nan,40357,757,0,0,0,0,0,1,1,1,1,1,0,0,nan,nan,nan,nan,nan,nan,nan,nan,nan,nan,nan
42131,40,100,1,0,41357.000000,-17.295876,-0.012076,-0.002616,0.000000,0.000000,0.000000,nan,nan,nan,nan,41357,758,0,0,0,0,0,1,1,1,1,1,0,0,nan,nan,nan,nan,nan,nan,nan,nan,nan,nan,nan
43131,41,100,1,0,42356.000000,-17.360041,-0.017209,-0.002979,0.000000,0.000000,0.000000,nan,nan,nan,nan,42356,759,0,0,0,0,0,1,1,1,1,1,0,0,nan,nan,nan,nan,nan,nan,nan,nan,nan,nan,nan
44131,41,100,1,0,42356.000000,-17.360041,-0.017209,-0.002979,0.000000,0.000000,0.000000,nan,nan,nan,nan,42356,759,0,0,0,0,0,1,1,1,1,1,0,0,nan,nan,nan,nan,nan,nan,nan,nan,nan,nan,nan
45131,41,100,1,0,42356.000000,-17.360041,-0.017209,-0.002979,0.000000,0.000000,0.000000,nan,nan,nan,nan,42356,759,0,0,0,0,0,1,1,1,1,1,0,0,nan,nan,nan,nan,nan,nan,nan,nan,nan,nan,nan
560,300,100,0,0,0.000000,0.000000,0.000000,0.000000,0.000000,0.000000,0.000000,0.00000000,0.00000000,nan,nan,0,0,0,0,0,0,0,0,0,0,0,0,0,0,nan,nan,nan,nan,nan,nan,nan,nan,nan,nan,nan
564,300,100,0,0,0.000000,0.000000,0.000000,0.000000,0.000000,0.000000,0.000000,0.00000000,0.00000000,nan,nan,0,0,0,0,0,0,0,0,0,0,0,0,0,0,nan,nan,nan,nan,nan,nan,nan,nan,nan,nan,nan
561,300,100,0,0,0.000000,0.000000,0.000000,0.000000,0.000000,0.000000,0.000000,0.00000000,0.00000000,nan,nan,0,0,0,0,0,0,0,0,0,0,0,0,0,0,nan,nan,nan,nan,nan,nan,nan,nan,nan,nan,nan
1561,0,100,1,0,742.000000,-17.152534,0.012022,0.002684,0.000000,0.000000,0.000000,nan,nan,nan,nan,742,785,0,0,0,0,0,1,1,1,1,1,0,0,nan,nan,nan,nan,nan,nan,nan,nan,nan,nan,nan
2561,1,100,1,0,1741.000000,-17.193424,0.012140,0.002483,0.000000,0.000000,0.000000,nan,nan,nan,nan,1741,786,0,0,0,0,0,1,1,1,1,1,0,0,nan,nan,nan,nan,nan,nan,nan,nan,nan,nan,nan
3561,2,100,1,0,2741.000000,-17.232807,0.010821,0.002027,0.000000,0.000000,0.000000,nan,nan,nan,nan,2741,787,0,0,0,0,0,1,1,1,1,1,0,0,nan,nan,nan,nan,nan,nan,nan,nan,nan,nan,nan
560,300,100,0,0,0.000000,0.000000,0.000000,0.000000,0.000000,0.000000,0.000000,0.00000000,0.00000000,nan,nan,0,0,0,0,0,0,0,0,0,0,0,0,0,0,nan,nan,nan,nan,nan,nan,nan,nan,nan,nan,nan
1560,0,100,1,0,1010.000000,-17.043964,0.015888,0.000213,0.000000,0.000000,0.000000,nan,nan,nan,nan,1010,790,0,0,0,0,0,1,1,1,1,1,0,0,nan,nan,nan,nan,nan,nan,nan,nan,nan,nan,nan
2560,1,100,1,0,2010.000000,-16.983543,0.022172,0.000607,0.000000,0.000000,0.000000,nan,nan,nan,nan,2010,791,0,0,0,0,0,1,1,1,1,1,0,0,nan,nan,nan,nan,nan,nan,nan,nan,nan,nan,nan
3560,2,100,1,0,3010.000000,-16.941046,0.027869,0.001387,0.000000,0.000000,0.000000,nan,nan,nan,nan,3010,792,0,0,0,0,0,1,1,1,1,1,0,0,nan,nan,nan,nan,nan,nan,nan,nan,nan,nan,nan
4560,3,100,1,0,4012.000000,-16.858585,0.036046,0.002363,0.000000,0.000000,0.000000,nan,nan,nan,nan,4012,793,0,0,0,0,0,1,1,1,1,1,0,0,nan,nan,nan,nan,nan,nan,nan,nan,nan,nan,nan
5560,4,100,1,0,5010.000000,-16.756361,0.051433,0.003921,0.000000,0.000000,0.000000,nan,nan,nan,nan,5010,794,0,0,0,0,0,1,1,1,1,1,0,0,nan,nan,nan,nan,nan,nan,nan,nan,nan,nan,nan
6560,5,100,1,0,6010.000000,-16.717751,0.063894,0.006094,0.000000,0.000000,0.000000,nan,nan,nan,nan,6010,795,0,0,0,0,0,1,1,1,1,1,0,0,nan,nan,nan,nan,nan,nan,nan,nan,nan,nan,nan
7560,6,100,1,0,7010.000000,-3.021935,-0.182625,0.003565,0.000000,0.000000,0.000000,nan,nan,nan,nan,7010,796,0,0,0,0,0,0,0,0,0,1,0,0,nan,nan,nan,nan,nan,nan,nan,nan,nan,nan,nan
8560,7,100,1,0,8010.000000,-16.612185,0.064532,0.008026,0.000000,0.000000,0.000000,nan,nan,nan,nan,8010,797,0,0,0,0,0,1,1,1,1,1,0,0,nan,nan,nan,nan,nan,nan,nan,nan,nan,nan,nan
9560,8,100,1,0,9010.000000,-16.523010,0.063072,0.007302,0.000000,0.000000,0.000000,nan,nan,nan,nan,9010,798,0,0,0,0,0,1,1,1,1,1,0,0,nan,nan,nan,nan,nan,nan,nan,nan,nan,nan,nan
10560,9,100,1,0,10010.000000,-16.437208,0.065813,0.006331,0.000000,0.000000,0.000000,nan,nan,nan,nan,10010,799,0,0,0,0,0,1,1,1,1,1,0,0,nan,nan,nan,nan,nan,nan,nan,nan,nan,nan,nan
11560,9,100,1,0,10010.000000,-16.437208,0.065813,0.006331,0.000000,0.000000,0.000000,nan,nan,nan,nan,10010,799,0,0,0,0,0,1,1,1,1,1,0,0,nan,nan,nan,nan,nan,nan,nan,nan,nan,nan,nan
12560,10,100,1,0,12010.000000,-16.462202,0.056061,0.003047,0.000000,0.000000,0.000000,nan,nan,nan,nan,12010,801,0,0,0,0,0,1,1,1,1,1,0,0,nan,nan,nan,nan,nan,nan,nan,nan,nan,nan,nan
13560,11,100,1,0,13010.000000,-16.414343,0.047567,0.000346,0.000000,0.000000,0.000000,nan,nan,nan,nan,13010,802,0,0,0,0,0,1,1,1,1,1,0,0,nan,nan,nan,nan,nan,nan,nan,nan,nan,nan,nan
14560,11,100,1,0,13010.000000,-16.414343,0.047567,0.000346,0.000000,0.000000,0.000000,nan,nan,nan,nan,13010,802,0,0,0,0,0,1,1,1,1,1,0,0,nan,nan,nan,nan,nan,nan,nan,nan,nan,nan,nan
15560,12,100,1,0,15011.000000,-16.419594,0.033863,-0.003464,0.000000,0.000000,0.000000,nan,nan,nan,nan,15011,804,0,0,0,0,0,1,1,1,1,1,0,0,nan,nan,nan,nan,nan,nan,nan,nan,nan,nan,nan
16560,13,100,1,0,16011.000000,-16.451036,0.024673,-0.004654,0.000000,0.000000,0.000000,nan,nan,nan,nan,16011,805,0,0,0,0,0,1,1,1,1,1,0,0,nan,nan,nan,nan,nan,nan,nan,nan,nan,nan,nan
17560,14,100,1,0,17010.000000,-16.495214,0.011015,-0.006148,0.000000,0.000000,0.000000,nan,nan,nan,nan,17010,806,0,0,0,0,0,1,1,1,1,1,0,0,nan,nan,nan,nan,nan,nan,nan,nan,nan,nan,nan
18560,15,100,1,0,18011.000000,-16.524242,-0.001942,-0.007919,0.000000,0.000000,0.000000,nan,nan,nan,nan,18011,807,0,0,0,0,0,1,1,1,1,1,0,0,nan,nan,nan,nan,nan,nan,nan,nan,nan,nan,nan
19560,16,100,1,0,19011.000000,-16.506123,-0.007509,-0.009260,0.000000,0.000000,0.000000,nan,nan,nan,nan,19011,808,0,0,0,0,0,1,1,1,1,1,0,0,nan,nan,nan,nan,nan,nan,nan,nan,nan,nan,nan
20560,17,100,1,0,20010.000000,-16.491699,-0.011838,-0.009270,0.000000,0.000000,0.000000,nan,nan,nan,nan,20010,809,0,0,0,0,0,1,1,1,1,1,0,0,nan,nan,nan,nan,nan,nan,nan,nan,nan,nan,nan
21560,18,100,1,0,21011.000000,-16.446724,-0.013958,-0.008988,0.000000,0.000000,0.000000,nan,nan,nan,nan,21011,810,0,0,0,0,0,1,1,1,1,1,0,0,nan,nan,nan,nan,nan,nan,nan,nan,nan,nan,nan
22560,19,100,1,0,22011.000000,-16.409824,-0.008192,-0.007985,0.000000,0.000000,0.000000,nan,nan,nan,nan,22011,811,0,0,0,0,0,1,1,1,1,1,0,0,nan,nan,nan,nan,nan,nan,nan,nan,nan,nan,nan
23560,20,100,1,0,23011.000000,-16.457518,-0.000891,-0.005885,0.000000,0.000000,0.000000,nan,nan,nan,nan,23011,812,0,0,0,0,0,1,1,1,1,1,0,0,nan,nan,nan,nan,nan,nan,nan,nan,nan,nan,nan
24560,21,100,1,0,24011.000000,-16.506624,0.002963,-0.003359,0.000000,0.000000,0.000000,nan,nan,nan,nan,24011,813,0,0,0,0,0,1,1,0,0,1,0,0,nan,nan,nan,nan,nan,nan,nan,nan,nan,nan,nan
25560,22,100,1,0,25011.000000,-16.564497,0.001897,-0.000987,0.000000,0.000000,0.000000,nan,nan,nan,nan,25011,814,0,0,0,0,0,1,1,1,1,1,0,0,nan,nan,nan,nan,nan,nan,nan,nan,nan,nan,nan
26560,23,100,1,0,26012.000000,-16.585995,-0.004990,0.000656,0.000000,0.000000,0.000000,nan,nan,nan,nan,26012,815,0,0,0,0,0,1,1,1,1,1,0,0,nan,nan,nan,nan,nan,nan,nan,nan,nan,nan,nan
27560,24,100,1,0,27011.000000,-16.617937,-0.014159,0.000884,0.000000,0.000000,0.000000,nan,nan,nan,nan,27011,816,0,0,0,0,0,1,1,1,1,1,0,0,nan,nan,nan,nan,nan,nan,nan,nan,nan,nan,nan
28560,25,100,1,0,28011.000000,-16.679140,-0.023146,0.000003,0.000000,0.000000,0.000000,nan,nan,nan,nan,28011,817,0,0,0,0,0,1,1,1,1,1,0,0,nan,nan,nan,nan,nan,nan,nan,nan,nan,nan,nan
29560,26,100,1,0,29011.000000,-16.775984,-0.036685,-0.001757,0.000000,0.000000,0.000000,nan,nan,nan,nan,29011,818,0,0,0,0,0,1,1,1,1,1,0,0,nan,nan,nan,nan,nan,nan,nan,nan,nan,nan,nan
30560,27,100,1,0,30011.000000,-16.789692,-0.047314,-0.004568,0.000000,0.000000,0.000000,nan,nan,nan,nan,30011,819,0,0,0,0,0,1,1,1,1,1,0,0,nan,nan,nan,nan,nan,nan,nan,nan,nan,nan,nan
31560,28,100,1,0,31012.000000,-16.829607,-0.050485,-0.007234,0.000000,0.000000,0.000000,nan,nan,nan,nan,31012,820,0,0,0,0,0,1,1,1,1,1,0,0,nan,nan,nan,nan,nan,nan,nan,nan,nan,nan,nan
32560,29,100,1,0,32011.000000,-16.904547,-0.052295,-0.008514,0.000000,0.000000,0.000000,nan,nan,nan,nan,32011,821,0,0,0,0,0,1,1,1,1,1,0,0,nan,nan,nan,nan,nan,nan,nan,nan,nan,nan,nan
33560,30,100,1,0,33011.000000,-16.954245,-0.052802,-0.008305,0.000000,0.000000,0.000000,nan,nan,nan,nan,33011,822,0,0,0,0,0,1,1,1,1,1,0,0,nan,nan,nan,nan,nan,nan,nan,nan,nan,nan,nan
34560,31,100,1,0,34011.000000,-16.995178,-0.052728,-0.006937,0.000000,0.000000,0.000000,nan,nan,nan,nan,34011,823,0,0,0,0,0,1,1,1,1,1,0,0,nan,nan,nan,nan,nan,nan,nan,nan,nan,nan,nan
35560,32,100,1,0,35011.000000,-17.057018,-0.054232,-0.005484,0.000000,0.000000,0.000000,nan,nan,nan,nan,35011,824,0,0,0,0,0,1,1,1,1,1,0,0,nan,nan,nan,nan,nan,nan,nan,nan,nan,nan,nan
36560,33,100,1,0,36012.000000,-17.125792,-0.053776,-0.003841,0.000000,0.000000,0.000000,nan,nan,nan,nan,36012,825,0,0,0,0,0,1,1,1,1,1,0,0,nan,nan,nan,nan,nan,nan,nan,nan,nan,nan,nan
37560,34,100,1,0,37011.000000,-17.184845,-0.053311,-0.002146,0.000000,0.000000,0.000000,nan,nan,nan,nan,37011,826,0,0,0,0,0,1,1,1,1,1,0,0,nan,nan,nan,nan,nan,nan,nan,nan,nan,nan,nan
38560,35,100,1,0,38012.000000,-17.176949,-0.050944,-0.000822,0.000000,0.000000,0.000000,nan,nan,nan,nan,38012,827,0,0,0,0,0,1,1,1,1,1,0,0,nan,nan,nan,nan,nan,nan,nan,nan,nan,nan,nan
39560,36,100,1,0,39011.000000,-17.221457,-0.049224,-0.000088,0.000000,0.000000,0.000000,nan,nan,nan,nan,39011,828,0,0,0,0,0,1,1,1,1,1,0,0,nan,nan,nan,nan,nan,nan,nan,nan,nan,nan,nan
40560,37,100,1,0,40012.000000,-17.266579,-0.046779,0.000419,0.000000,0.000000,0.000000,nan,nan,nan,nan,40012,829,0,0,0,0,0,1,1,1,1,1,0,0,nan,nan,nan,nan,nan,nan,nan,nan,nan,nan,nan
41560,38,100,1,0,41012.000000,-17.318283,-0.045134,0.000868,0.000000,0.000000,0.000000,nan,nan,nan,nan,41012,830,0,0,0,0,0,1,1,1,1,1,0,0,nan,nan,nan,nan,nan,nan,nan,nan,nan,nan,nan
42560,39,100,1,0,42011.000000,-14.156271,-0.219443,0.005481,0.000000,0.000000,0.000000,nan,nan,nan,nan,42011,831,0,0,0,0,0,1,1,0,0,1,0,0,nan,nan,nan,nan,nan,nan,nan,nan,nan,nan,nan
43560,40,100,1,0,43012.000000,-17.353521,-0.036590,0.001876,0.000000,0.000000,0.000000,nan,nan,nan,nan,43012,832,0,0,0,0,0,1,1,1,1,1,0,0,nan,nan,nan,nan,nan,nan,nan,nan,nan,nan,nan
44560,41,100,1,0,44012.000000,-17.361181,-0.032147,0.002484,0.000000,0.000000,0.000000,nan,nan,nan,nan,44012,833,0,0,0,0,0,1,1,1,1,1,0,0,nan,nan,nan,nan,nan,nan,nan,nan,nan,nan,nan
45560,42,100,1,0,45012.000000,-17.360085,-0.027460,0.003000,0.000000,0.000000,0.000000,nan,nan,nan,nan,45012,834,0,0,0,0,0,1,1,1,1,1,0,0,nan,nan,nan,nan,nan,nan,nan,nan,nan,nan,nan
46560,43,100,1,0,46012.000000,-17.298845,-0.022779,0.003360,0.000000,0.000000,0.000000,nan,nan,nan,nan,46012,835,0,0,0,0,0,1,1,1,1,1,0,0,nan,nan,nan,nan,nan,nan,nan,nan,nan,nan,nan
47560,44,100,1,0,47013.000000,-17.274015,-0.011687,0.004000,0.000000,0.000000,0.000000,nan,nan,nan,nan,47013,836,0,0,0,0,0,1,1,1,1,1,0,0,nan,nan,nan,nan,nan,nan,nan,nan,nan,nan,nan
48560,45,100,1,0,48012.000000,-17.310057,-0.002881,0.004905,0.000000,0.000000,0.000000,nan,nan,nan,nan,48012,837,0,0,0,0,0,1,1,1,1,1,0,0,nan,nan,nan,nan,nan,nan,nan,nan,nan,nan,nan
49560,46,100,1,0,49012.000000,-17.360817,0.001479,0.005785,0.000000,0.000000,0.000000,nan,nan,nan,nan,49012,838,0,0,0,0,0,1,1,1,1,1,0,0,nan,nan,nan,nan,nan,nan,nan,nan,nan,nan,nan
50560,47,100,1,0,50012.000000,-17.396320,-0.000093,0.005947,0.000000,0.000000,0.000000,nan,nan,nan,nan,50012,839,0,0,0,0,0,1,1,1,1,1,0,0,nan,nan,nan,nan,nan,nan,nan,nan,nan,nan,nan
51560,48,100,1,0,51011.000000,-17.433424,-0.004728,0.005297,0.000000,0.000000,0.000000,nan,nan,nan,nan,51011,840,0,0,0,0,0,1,1,1,1,1,0,0,nan,nan,nan,nan,nan,nan,nan,nan,nan,nan,nan
52560,49,100,1,0,52013.000000,-17.449192,-0.010982,0.003983,0.000000,0.000000,0.000000,nan,nan,nan,nan,52013,841,0,0,0,0,0,1,1,1,1,1,0,0,nan,nan,nan,nan,nan,nan,nan,nan,nan,nan,nan
53560,50,100,1,0,53013.000000,-17.540478,-0.021090,0.002171,0.000000,0.000000,0.000000,nan,nan,nan,nan,53013,842,0,0,0,0,0,1,1,1,1,1,0,0,nan,nan,nan,nan,nan,nan,nan,nan,nan,nan,nan
54560,51,100,1,0,54012.000000,-17.600170,-0.033003,-0.000325,0.000000,0.000000,0.000000,nan,nan,nan,nan,54012,843,0,0,0,0,0,1,1,1,1,1,0,0,nan,nan,nan,nan,nan,nan,nan,nan,nan,nan,nan
55560,52,100,1,0,55012.000000,-17.647446,-0.042814,-0.003203,0.000000,0.000000,0.000000,nan,nan,nan,nan,55012,844,0,0,0,0,0,1,1,1,1,1,0,0,nan,nan,nan,nan,nan,nan,nan,nan,nan,nan,nan
56560,53,100,1,0,56013.000000,-17.650867,-0.044938,-0.005637,0.000000,0.000000,0.000000,nan,nan,nan,nan,56013,845,0,0,0,0,0,1,1,1,1,1,0,0,nan,nan,nan,nan,nan,nan,nan,nan,nan,nan,nan
57560,54,100,1,0,57012.000000,-17.714361,-0.044460,-0.006765,0.000000,0.000000,0.000000,nan,nan,nan,nan,57012,846,0,0,0,0,0,1,1,1,1,1,0,0,nan,nan,nan,nan,nan,nan,nan,nan,nan,nan,nan
58560,55,100,1,0,58012.000000,-17.739901,-0.046232,-0.006804,0.000000,0.000000,0.000000,nan,nan,nan,nan,58012,847,0,0,0,0,0,1,1,1,1,1,0,0,nan,nan,nan,nan,nan,nan,nan,nan,nan,nan,nan
59560,56,100,1,0,59013.000000,-17.724840,-0.041762,-0.005789,0.000000,0.000000,0.000000,nan,nan,nan,nan,59013,848,0,0,0,0,0,1,1,1,1,1,0,0,nan,nan,nan,nan,nan,nan,nan,nan,nan,nan,nan
60560,57,100,1,0,60012.000000,-11.296489,-0.364322,-0.141846,0.000000,0.000000,0.000000,nan,nan,nan,nan,60012,849,0,0,0,0,0,0,1,0,0,1,0,0,nan,nan,nan,nan,nan,nan,nan,nan,nan,nan,nan
61560,58,100,1,0,61012.000000,-17.731596,-0.028674,-0.001768,0.000000,0.000000,0.000000,nan,nan,nan,nan,61012,850,0,0,0,0,0,1,1,1,1,1,0,0,nan,nan,nan,nan,nan,nan,nan,nan,nan,nan,nan
62560,59,100,1,0,62013.000000,-17.719915,-0.019540,0.000948,0.000000,0.000000,0.000000,nan,nan,nan,nan,62013,851,0,0,0,0,0,1,1,1,1,1,0,0,nan,nan,nan,nan,nan,nan,nan,nan,nan,nan,nan
63560,60,100,1,0,63013.000000,-17.735064,-0.012580,0.003212,0.000000,0.000000,0.000000,nan,nan,nan,nan,63013,852,0,0,0,0,0,1,1,1,1,1,0,0,nan,nan,nan,nan,nan,nan,nan,nan,nan,nan,nan
64560,61,100,1,0,64012.000000,-17.735611,-0.008199,0.004745,0.000000,0.000000,0.000000,nan,nan,nan,nan,64012,853,0,0,0,0,0,1,1,1,1,1,0,0,nan,nan,nan,nan,nan,nan,nan,nan,nan,nan,nan
65560,62,100,1,0,65013.000000,-17.696581,-0.001637,0.005688,0.000000,0.000000,0.000000,nan,nan,nan,nan,65013,854,0,0,0,0,0,1,1,1,1,1,0,0,nan,nan,nan,nan,nan,nan,nan,nan,nan,nan,nan
66560,63,100,1,0,66013.000000,-17.737574,0.001901,0.006380,0.000000,0.000000,0.000000,nan,nan,nan,nan,66013,855,0,0,0,0,0,1,1,1,1,1,0,0,nan,nan,nan,nan,nan,nan,nan,nan,nan,nan,nan
67560,64,100,1,0,67013.000000,-17.771935,-0.000814,0.006101,0.000000,0.000000,0.000000,nan,nan,nan,nan,67013,856,0,0,0,0,0,1,1,1,1,1,0,0,nan,nan,nan,nan,nan,nan,nan,nan,nan,nan,nan
68560,65,100,1,0,68013.000000,-17.787041,-0.003572,0.005034,0.000000,0.000000,0.000000,nan,nan,nan,nan,68013,857,0,0,0,0,0,1,1,1,1,1,0,0,nan,nan,nan,nan,nan,nan,nan,nan,nan,nan,nan
69560,66,100,1,0,69013.000000,-17.736208,-0.005117,0.003613,0.000000,0.000000,0.000000,nan,nan,nan,nan,69013,858,0,0,0,0,0,1,1,1,1,1,0,0,nan,nan,nan,nan,nan,nan,nan,nan,nan,nan,nan
70560,66,100,1,0,69013.000000,-17.736208,-0.005117,0.003613,0.000000,0.000000,0.000000,nan,nan,nan,nan,69013,858,0,0,0,0,0,1,1,1,1,1,0,0,nan,nan,nan,nan,nan,nan,nan,nan,nan,nan,nan
71560,67,100,1,0,71013.000000,-17.697874,-0.002613,0.000888,0.000000,0.000000,0.000000,nan,nan,nan,nan,71013,860,0,0,0,0,0,1,1,1,1,1,0,0,nan,nan,nan,nan,nan,nan,nan,nan,nan,nan,nan
72560,68,100,1,0,72014.000000,-17.753410,-0.001101,0.000275,0.000000,0.000000,0.000000,nan,nan,nan,nan,72014,861,0,0,0,0,0,1,1,1,1,1,0,0,nan,nan,nan,nan,nan,nan,nan,nan,nan,nan,nan
73560,69,100,1,0,73013.000000,-17.726759,-0.001200,-0.000136,0.000000,0.000000,0.000000,nan,nan,nan,nan,73013,862,0,0,0,0,0,1,1,1,1,1,0,0,nan,nan,nan,nan,nan,nan,nan,nan,nan,nan,nan
74560,70,100,1,0,74013.000000,-17.475756,0.011163,0.000160,0.000000,0.000000,0.000000,nan,nan,nan,nan,74013,863,0,0,0,0,0,1,1,1,1,1,0,0,nan,nan,nan,nan,nan,nan,nan,nan,nan,nan,nan
75560,71,100,1,0,75013.000000,-17.275890,0.035158,0.002060,0.000000,0.000000,0.000000,nan,nan,nan,nan,75013,864,0,0,0,0,0,1,1,1,1,1,0,0,nan,nan,nan,nan,nan,nan,nan,nan,nan,nan,nan
76560,72,100,1,0,76014.000000,-17.097496,0.062974,0.005071,0.000000,0.000000,0.000000,nan,nan,nan,nan,76014,865,0,0,0,0,0,1,1,1,1,1,0,0,nan,nan,nan,nan,nan,nan,nan,nan,nan,nan,nan
77560,72,100,1,0,76014.000000,-17.097496,0.062974,0.005071,0.000000,0.000000,0.000000,nan,nan,nan,nan,76014,865,0,0,0,0,0,1,1,1,1,1,0,0,nan,nan,nan,nan,nan,nan,nan,nan,nan,nan,nan
78560,73,100,1,0,78014.000000,-7.650442,-0.102819,0.426001,0.000000,0.000000,0.000000,nan,nan,nan,nan,78014,867,0,0,0,0,0,0,0,0,0,1,0,0,nan,nan,nan,nan,nan,nan,nan,nan,nan,nan,nan
79560,74,100,1,0,79013.000000,-16.939539,0.113441,0.015725,0.000000,0.000000,0.000000,nan,nan,nan,nan,79013,868,0,0,0,0,0,1,1,1,1,1,0,0,nan,nan,nan,nan,nan,nan,nan,nan,nan,nan,nan
80560,74,100,1,0,79013.000000,-16.939539,0.113441,0.015725,0.000000,0.000000,0.000000,nan,nan,nan,nan,79013,868,0,0,0,0,0,1,1,1,1,1,0,0,nan,nan,nan,nan,nan,nan,nan,nan,nan,nan,nan
81560,75,100,1,0,81013.000000,-16.904222,0.104872,0.016859,0.000000,0.000000,0.000000,nan,nan,nan,nan,81013,870,0,0,0,0,0,1,1,1,1,1,0,0,nan,nan,nan,nan,nan,nan,nan,nan,nan,nan,nan
82560,76,100,1,0,82012.000000,-16.897060,0.079979,0.013041,0.000000,0.000000,0.000000,nan,nan,nan,nan,82012,871,0,0,0,0,0,1,1,1,1,1,0,0,nan,nan,nan,nan,nan,nan,nan,nan,nan,nan,nan
83560,77,100,1,0,83014.000000,-16.895864,0.052924,0.006143,0.000000,0.000000,0.000000,nan,nan,nan,nan,83014,872,0,0,0,0,0,1,1,1,1,1,0,0,nan,nan,nan,nan,nan,nan,nan,nan,nan,nan,nan
84560,78,100,1,0,84015.000000,-16.932795,0.030352,-0.001753,0.000000,0.000000,0.000000,nan,nan,nan,nan,84015,873,0,0,0,0,0,1,1,1,1,1,0,0,nan,nan,nan,nan,nan,nan,nan,nan,nan,nan,nan
85560,79,100,1,0,85013.000000,-16.924625,0.017932,-0.008583,0.000000,0.000000,0.000000,nan,nan,nan,nan,85013,874,0,0,0,0,0,1,1,1,1,1,0,0,nan,nan,nan,nan,nan,nan,nan,nan,nan,nan,nan
86560,80,100,1,0,86013.000000,-16.976830,0.008622,-0.013561,0.000000,0.000000,0.000000,nan,nan,nan,nan,86013,875,0,0,0,0,0,1,1,1,1,1,0,0,nan,nan,nan,nan,nan,nan,nan,nan,nan,nan,nan
87560,81,100,1,0,87013.000000,-16.949080,-0.001563,-0.016473,0.000000,0.000000,0.000000,nan,nan,nan,nan,87013,876,0,0,0,0,0,1,1,1,1,1,0,0,nan,nan,nan,nan,nan,nan,nan,nan,nan,nan,nan
88560,82,100,1,0,88013.000000,-16.915680,-0.005673,-0.016529,0.000000,0.000000,0.000000,nan,nan,nan,nan,88013,877,0,0,0,0,0,1,1,1,1,1,0,0,nan,nan,nan,nan,nan,nan,nan,nan,nan,nan,nan
89560,83,100,1,0,89014.000000,-16.909975,-0.004907,-0.014716,0.000000,0.000000,0.000000,nan,nan,nan,nan,89014,878,0,0,0,0,0,1,1,1,1,1,0,0,nan,nan,nan,nan,nan,nan,nan,nan,nan,nan,nan
90560,84,100,1,0,90013.000000,-16.835312,0.000011,-0.011624,0.000000,0.000000,0.000000,nan,nan,nan,nan,90013,879,0,0,0,0,0,1,1,1,1,1,0,0,nan,nan,nan,nan,nan,nan,nan,nan,nan,nan,nan
91560,85,100,1,0,91014.000000,-16.816875,0.008072,-0.007573,0.000000,0.000000,0.000000,nan,nan,nan,nan,91014,880,0,0,0,0,0,1,1,1,1,1,0,0,nan,nan,nan,nan,nan,nan,nan,nan,nan,nan,nan
92560,86,100,1,0,92014.000000,-16.838303,0.014583,-0.003275,0.000000,0.000000,0.000000,nan,nan,nan,nan,92014,881,0,0,0,0,0,1,1,1,1,1,0,0,nan,nan,nan,nan,nan,nan,nan,nan,nan,nan,nan
93560,87,100,1,0,93014.000000,-16.925219,0.014613,-0.000256,0.000000,0.000000,0.000000,nan,nan,nan,nan,93014,882,0,0,0,0,0,1,1,1,1,1,0,0,nan,nan,nan,nan,nan,nan,nan,nan,nan,nan,nan
94560,88,100,1,0,94014.000000,-16.988470,0.007992,0.001313,0.000000,0.000000,0.000000,nan,nan,nan,nan,94014,883,0,0,0,0,0,1,1,1,1,1,0,0,nan,nan,nan,nan,nan,nan,nan,nan,nan,nan,nan
95560,89,100,1,0,95013.000000,-16.972269,-0.000707,0.001756,0.000000,0.000000,0.000000,nan,nan,nan,nan,95013,884,0,0,0,0,0,1,1,1,1,1,0,0,nan,nan,nan,nan,nan,nan,nan,nan,nan,nan,nan
96560,90,100,1,0,96014.000000,-4.041463,0.139461,0.178647,0.000000,0.000000,0.000000,nan,nan,nan,nan,96014,885,0,0,0,0,0,0,0,0,0,1,0,0,nan,nan,nan,nan,nan,nan,nan,nan,nan,nan,nan
97560,91,100,1,0,97014.000000,-16.760651,-0.002287,-0.000236,0.000000,0.000000,0.000000,nan,nan,nan,nan,97014,886,0,0,0,0,0,1,1,1,1,1,0,0,nan,nan,nan,nan,nan,nan,nan,nan,nan,nan,nan
98560,92,100,1,0,98014.000000,-16.637426,0.008323,-0.000942,0.000000,0.000000,0.000000,nan,nan,nan,nan,98014,887,0,0,0,0,0,1,1,1,1,1,0,0,nan,nan,nan,nan,nan,nan,nan,nan,nan,nan,nan
99560,93,100,1,0,99014.000000,-16.545235,0.027764,-0.000518,0.000000,0.000000,0.000000,nan,nan,nan,nan,99014,888,0,0,0,0,0,1,1,1,1,1,0,0,nan,nan,nan,nan,nan,nan,nan,nan,nan,nan,nan
100560,94,100,1,0,100015.000000,-16.574673,0.046658,0.001509,0.000000,0.000000,0.000000,nan,nan,nan,nan,100015,889,0,0,0,0,0,1,1,1,1,1,0,0,nan,nan,nan,nan,nan,nan,nan,nan,nan,nan,nan
101560,95,100,1,0,101014.000000,-16.687445,0.054193,0.004540,0.000000,0.000000,0.000000,nan,nan,nan,nan,101014,890,0,0,0,0,0,1,1,1,1,1,0,0,nan,nan,nan,nan,nan,nan,nan,nan,nan,nan,nan
102560,96,100,1,0,102014.000000,-16.683111,0.052764,0.007408,0.000000,0.000000,0.000000,nan,nan,nan,nan,102014,891,0,0,0,0,0,1,1,1,1,1,0,0,nan,nan,nan,nan,nan,nan,nan,nan,nan,nan,nan
103560,97,100,1,0,103014.000000,-16.802954,0.033403,0.008190,0.000000,0.000000,0.000000,nan,nan,nan,nan,103014,892,0,0,0,0,0,1,1,1,1,1,0,0,nan,nan,nan,nan,nan,nan,nan,nan,nan,nan,nan
104560,98,100,1,0,104014.000000,-16.771740,0.009487,0.006529,0.000000,0.000000,0.000000,nan,nan,nan,nan,104014,893,0,0,0,0,0,1,1,1,1,1,0,0,nan,nan,nan,nan,nan,nan,nan,nan,nan,nan,nan
105560,99,100,1,0,105015.000000,-16.729322,-0.009347,0.001956,0.000000,0.000000,0.000000,nan,nan,nan,nan,105015,894,0,0,0,0,0,1,1,1,1,1,0,0,nan,nan,nan,nan,nan,nan,nan,nan,nan,nan,nan
106560,100,100,1,0,106014.000000,-16.792732,-0.022555,-0.003505,0.000000,0.000000,0.000000,nan,nan,nan,nan,106014,895,0,0,0,0,0,1,1,1,1,1,0,0,nan,nan,nan,nan,nan,nan,nan,nan,nan,nan,nan
107560,101,100,1,0,107014.000000,-16.812540,-0.030920,-0.008652,0.000000,0.000000,0.000000,nan,nan,nan,nan,107014,896,0,0,0,0,0,1,1,1,1,1,0,0,nan,nan,nan,nan,nan,nan,nan,nan,nan,nan,nan
108560,102,100,1,0,108014.000000,-16.832529,-0.027871,-0.012000,0.000000,0.000000,0.000000,nan,nan,nan,nan,108014,897,0,0,0,0,0,1,1,1,1,1,0,0,nan,nan,nan,nan,nan,nan,nan,nan,nan,nan,nan
109560,103,100,1,0,109014.000000,-16.780226,-0.019441,-0.012570,0.000000,0.000000,0.000000,nan,nan,nan,nan,109014,898,0,0,0,0,0,1,1,1,1,1,0,0,nan,nan,nan,nan,nan,nan,nan,nan,nan,nan,nan
110560,104,100,1,0,110014.000000,-16.749193,-0.009571,-0.010027,0.000000,0.000000,0.000000,nan,nan,nan,nan,110014,899,0,0,0,0,0,1,1,1,1,1,0,0,nan,nan,nan,nan,nan,nan,nan,nan,nan,nan,nan
111560,105,100,1,0,111014.000000,-16.798298,-0.003184,-0.005701,0.000000,0.000000,0.000000,nan,nan,nan,nan,111014,900,0,0,0,0,0,1,1,1,1,1,0,0,nan,nan,nan,nan,nan,nan,nan,nan,nan,nan,nan
112560,106,100,1,0,112014.000000,-16.776894,-0.002297,-0.001303,0.000000,0.000000,0.000000,nan,nan,nan,nan,112014,901,0,0,0,0,0,1,1,1,1,1,0,0,nan,nan,nan,nan,nan,nan,nan,nan,nan,nan,nan
113560,107,100,1,0,113014.000000,-16.754166,-0.000884,0.001749,0.000000,0.000000,0.000000,nan,nan,nan,nan,113014,902,0,0,0,0,0,1,1,1,1,1,0,0,nan,nan,nan,nan,nan,nan,nan,nan,nan,nan,nan
114560,108,100,1,0,114015.000000,85.274773,90.309784,85.274773,0.000000,0.000000,0.000000,nan,nan,nan,nan,114015,903,0,0,0,0,0,0,0,0,0,1,0,0,nan,nan,nan,nan,nan,nan,nan,nan,nan,nan,nan
115560,109,100,1,0,115015.000000,-16.785294,0.008888,0.004891,0.000000,0.000000,0.000000,nan,nan,nan,nan,115015,904,0,0,0,0,0,1,1,1,1,1,0,0,nan,nan,nan,nan,nan,nan,nan,nan,nan,nan,nan
116560,110,100,1,0,116014.000000,-16.867762,0.003744,0.004618,0.000000,0.000000,0.000000,nan,nan,nan,nan,116014,905,0,0,0,0,0,1,1,1,1,1,0,0,nan,nan,nan,nan,nan,nan,nan,nan,nan,nan,nan
117560,111,100,1,0,117014.000000,-16.920382,-0.008422,0.002945,0.000000,0.000000,0.000000,nan,nan,nan,nan,117014,906,0,0,0,0,0,1,1,1,1,1,0,0,nan,nan,nan,nan,nan,nan,nan,nan,nan,nan,nan
118560,112,100,1,0,118015.000000,-16.881184,-0.016985,0.000487,0.000000,0.000000,0.000000,nan,nan,nan,nan,118015,907,0,0,0,0,0,1,1,1,1,1,0,0,nan,nan,nan,nan,nan,nan,nan,nan,nan,nan,nan
119560,113,100,1,0,119015.000000,-16.851698,-0.017032,-0.001435,0.000000,0.000000,0.000000,nan,nan,nan,nan,119015,908,0,0,0,0,0,1,1,1,1,1,0,0,nan,nan,nan,nan,nan,nan,nan,nan,nan,nan,nan
120560,114,100,1,0,120017.000000,-16.793552,-0.015062,-0.002563,0.000000,0.000000,0.000000,nan,nan,nan,nan,120017,909,0,0,0,0,0,1,1,1,1,1,0,0,nan,nan,nan,nan,nan,nan,nan,nan,nan,nan,nan
121560,115,100,1,0,121015.000000,-16.779680,-0.010696,-0.002908,0.000000,0.000000,0.000000,nan,nan,nan,nan,121015,910,0,0,0,0,0,1,1,1,1,1,0,0,nan,nan,nan,nan,nan,nan,nan,nan,nan,nan,nan
122560,116,100,1,0,122016.000000,-16.829378,-0.004233,-0.002689,0.000000,0.000000,0.000000,nan,nan,nan,nan,122016,911,0,0,0,0,0,1,1,1,1,1,0,0,nan,nan,nan,nan,nan,nan,nan,nan,nan,nan,nan
123560,117,100,1,0,123015.000000,-16.841438,0.001828,-0.001624,0.000000,0.000000,0.000000,nan,nan,nan,nan,123015,912,0,0,0,0,0,1,1,1,1,1,0,0,nan,nan,nan,nan,nan,nan,nan,nan,nan,nan,nan
124560,118,100,1,0,124015.000000,-16.832939,0.008627,0.000491,0.000000,0.000000,0.000000,nan,nan,nan,nan,124015,913,0,0,0,0,0,1,1,1,1,1,0,0,nan,nan,nan,nan,nan,nan,nan,nan,nan,nan,nan
125560,119,100,1,0,125016.000000,-16.826641,0.010782,0.002748,0.000000,0.000000,0.000000,nan,nan,nan,nan,125016,914,0,0,0,0,0,1,1,1,1,1,0,0,nan,nan,nan,nan,nan,nan,nan,nan,nan,nan,nan
126560,120,100,1,0,126015.000000,-16.910158,0.003086,0.003808,0.000000,0.000000,0.000000,nan,nan,nan,nan,126015,915,0,0,0,0,0,1,1,1,1,1,0,0,nan,nan,nan,nan,nan,nan,nan,nan,nan,nan,nan
127560,121,100,1,0,127015.000000,-16.947866,-0.007870,0.003074,0.000000,0.000000,0.000000,nan,nan,nan,nan,127015,916,0,0,0,0,0,1,1,1,1,1,0,0,nan,nan,nan,nan,nan,nan,nan,nan,nan,nan,nan
128560,122,100,1,0,128015.000000,-16.953968,-0.018473,0.001173,0.000000,0.000000,0.000000,nan,nan,nan,nan,128015,917,0,0,0,0,0,1,1,1,1,1,0,0,nan,nan,nan,nan,nan,nan,nan,nan,nan,nan,nan
129560,123,100,1,0,129016.000000,-16.957666,-0.022531,-0.001055,0.000000,0.000000,0.000000,nan,nan,nan,nan,129016,918,0,0,0,0,0,1,1,1,1,1,0,0,nan,nan,nan,nan,nan,nan,nan,nan,nan,nan,nan
130560,124,100,1,0,130015.000000,-16.972273,-0.023015,-0.003018,0.000000,0.000000,0.000000,nan,nan,nan,nan,130015,919,0,0,0,0,0,1,1,1,1,1,0,0,nan,nan,nan,nan,nan,nan,nan,nan,nan,nan,nan
131560,125,100,1,0,131016.000000,-15.406656,0.038982,0.066896,0.000000,0.000000,0.000000,nan,nan,nan,nan,131016,920,0,0,0,0,0,0,1,0,0,1,0,0,nan,nan,nan,nan,nan,nan,nan,nan,nan,nan,nan
132560,126,100,1,0,132016.000000,-16.919878,-0.016593,-0.004628,0.000000,0.000000,0.000000,nan,nan,nan,nan,132016,921,0,0,0,0,0,1,1,1,1,1,0,0,nan,nan,nan,nan,nan,nan,nan,nan,nan,nan,nan
133560,127,100,1,0,133015.000000,-16.961138,-0.011656,-0.003793,0.000000,0.000000,0.000000,nan,nan,nan,nan,133015,922,0,0,0,0,0,1,1,1,1,1,0,0,nan,nan,nan,nan,nan,nan,nan,nan,nan,nan,nan
134560,128,100,1,0,134015.000000,-17.011244,-0.007682,-0.001810,0.000000,0.000000,0.000000,nan,nan,nan,nan,134015,923,0,0,0,0,0,1,1,1,1,1,0,0,nan,nan,nan,nan,nan,nan,nan,nan,nan,nan,nan
135560,129,100,1,0,135015.000000,-17.062950,-0.007511,0.000328,0.000000,0.000000,0.000000,nan,nan,nan,nan,135015,924,0,0,0,0,0,1,1,1,1,1,0,0,nan,nan,nan,nan,nan,nan,nan,nan,nan,nan,nan
136560,130,100,1,0,136016.000000,-17.085249,-0.012493,0.001615,0.000000,0.000000,0.000000,nan,nan,nan,nan,136016,925,0,0,0,0,0,1,1,1,1,1,0,0,nan,nan,nan,nan,nan,nan,nan,nan,nan,nan,nan
137560,131,100,1,0,137016.000000,-17.120453,-0.019667,0.001664,0.000000,0.000000,0.000000,nan,nan,nan,nan,137016,926,0,0,0,0,0,1,1,1,1,1,0,0,nan,nan,nan,nan,nan,nan,nan,nan,nan,nan,nan
138560,132,100,1,0,138016.000000,-17.162941,-0.026526,0.000649,0.000000,0.000000,0.000000,nan,nan,nan,nan,138016,927,0,0,0,0,0,1,1,1,1,1,0,0,nan,nan,nan,nan,nan,nan,nan,nan,nan,nan,nan
139560,133,100,1,0,139016.000000,-17.183840,-0.033792,-0.000929,0.000000,0.000000,0.000000,nan,nan,nan,nan,139016,928,0,0,0,0,0,1,1,1,1,1,0,0,nan,nan,nan,nan,nan,nan,nan,nan,nan,nan,nan
140560,134,100,1,0,140016.000000,-17.198719,-0.036331,-0.002602,0.000000,0.000000,0.000000,nan,nan,nan,nan,140016,929,0,0,0,0,0,1,1,1,1,1,0,0,nan,nan,nan,nan,nan,nan,nan,nan,nan,nan,nan
141560,135,100,1,0,141016.000000,-17.152390,-0.030648,-0.003539,0.000000,0.000000,0.000000,nan,nan,nan,nan,141016,930,0,0,0,0,0,1,1,1,1,1,0,0,nan,nan,nan,nan,nan,nan,nan,nan,nan,nan,nan
142560,136,100,1,0,142016.000000,-17.157188,-0.021789,-0.003365,0.000000,0.000000,0.000000,nan,nan,nan,nan,142016,931,0,0,0,0,0,1,1,1,1,1,0,0,nan,nan,nan,nan,nan,nan,nan,nan,nan,nan,nan
143560,137,100,1,0,143015.000000,-17.111372,-0.014175,-0.002231,0.000000,0.000000,0.000000,nan,nan,nan,nan,143015,932,0,0,0,0,0,1,1,1,1,1,0,0,nan,nan,nan,nan,nan,nan,nan,nan,nan,nan,nan
144560,138,100,1,0,144016.000000,-16.885561,0.002236,0.000088,0.000000,0.000000,0.000000,nan,nan,nan,nan,144016,933,0,0,0,0,0,1,1,1,1,1,0,0,nan,nan,nan,nan,nan,nan,nan,nan,nan,nan,nan
145560,139,100,1,0,145016.000000,-16.547049,0.037239,0.004047,0.000000,0.000000,0.000000,nan,nan,nan,nan,145016,934,0,0,0,0,0,1,1,1,1,1,0,0,nan,nan,nan,nan,nan,nan,nan,nan,nan,nan,nan
146560,140,100,1,0,146016.000000,-16.295134,0.086549,0.010250,0.000000,0.000000,0.000000,nan,nan,nan,nan,146016,935,0,0,0,0,0,1,1,1,1,1,0,0,nan,nan,nan,nan,nan,nan,nan,nan,nan,nan,nan
147560,141,100,1,0,147016.000000,-16.244881,0.128520,0.017630,0.000000,0.000000,0.000000,nan,nan,nan,nan,147016,936,0,0,0,0,0,1,1,1,1,1,0,0,nan,nan,nan,nan,nan,nan,nan,nan,nan,nan,nan
148560,142,100,1,0,148015.000000,-16.272541,0.147665,0.023518,0.000000,0.000000,0.000000,nan,nan,nan,nan,148015,937,0,0,0,0,0,1,1,1,1,1,0,0,nan,nan,nan,nan,nan,nan,nan,nan,nan,nan,nan
149560,143,100,1,0,149016.000000,-10.853042,0.222553,0.312765,0.000000,0.000000,0.000000,nan,nan,nan,nan,149016,938,0,0,0,0,0,0,1,0,0,1,0,0,nan,nan,nan,nan,nan,nan,nan,nan,nan,nan,nan
150560,144,100,1,0,150016.000000,-16.280846,0.129736,0.025353,0.000000,0.000000,0.000000,nan,nan,nan,nan,150016,939,0,0,0,0,0,1,1,1,1,1,0,0,nan,nan,nan,nan,nan,nan,nan,nan,nan,nan,nan
151560,145,100,1,0,151016.000000,-16.357201,0.104784,0.021645,0.000000,0.000000,0.000000,nan,nan,nan,nan,151016,940,0,0,0,0,0,1,1,1,1,1,0,0,nan,nan,nan,nan,nan,nan,nan,nan,nan,nan,nan
152560,146,100,1,0,152017.000000,-16.365326,0.060510,0.013259,0.000000,0.000000,0.000000,nan,nan,nan,nan,152017,941,0,0,0,0,0,1,1,1,1,1,0,0,nan,nan,nan,nan,nan,nan,nan,nan,nan,nan,nan
153560,147,100,1,0,153017.000000,-16.433464,0.016621,0.001864,0.000000,0.000000,0.000000,nan,nan,nan,nan,153017,942,0,0,0,0,0,1,1,1,1,1,0,0,nan,nan,nan,nan,nan,nan,nan,nan,nan,nan,nan
154560,148,100,1,0,154016.000000,-16.493872,-0.016734,-0.011060,0.000000,0.000000,0.000000,nan,nan,nan,nan,154016,943,0,0,0,0,0,1,1,1,1,1,0,0,nan,nan,nan,nan,nan,nan,nan,nan,nan,nan,nan
155560,149,100,1,0,155017.000000,-16.546513,-0.033218,-0.021634,0.000000,0.000000,0.000000,nan,nan,nan,nan,155017,944,0,0,0,0,0,1,1,1,1,1,0,0,nan,nan,nan,nan,nan,nan,nan,nan,nan,nan,nan
156560,150,100,1,0,156017.000000,-16.650843,-0.042529,-0.027215,0.000000,0.000000,0.000000,nan,nan,nan,nan,156017,945,0,0,0,0,0,1,1,1,1,1,0,0,nan,nan,nan,nan,nan,nan,nan,nan,nan,nan,nan
157560,151,100,1,0,157016.000000,-16.687717,-0.048594,-0.028000,0.000000,0.000000,0.000000,nan,nan,nan,nan,157016,946,0,0,0,0,0,1,1,1,1,1,0,0,nan,nan,nan,nan,nan,nan,nan,nan,nan,nan,nan
158560,152,100,1,0,158017.000000,-16.707403,-0.054929,-0.025645,0.000000,0.000000,0.000000,nan,nan,nan,nan,158017,947,0,0,0,0,0,1,1,1,1,1,0,0,nan,nan,nan,nan,nan,nan,nan,nan,nan,nan,nan
159560,153,100,1,0,159016.000000,-16.669329,-0.052077,-0.020792,0.000000,0.000000,0.000000,nan,nan,nan,nan,159016,948,0,0,0,0,0,1,1,1,1,1,0,0,nan,nan,nan,nan,nan,nan,nan,nan,nan,nan,nan
160560,154,100,1,0,160017.000000,-16.678591,-0.045107,-0.014627,0.000000,0.000000,0.000000,nan,nan,nan,nan,160017,949,0,0,0,0,0,1,1,1,1,1,0,0,nan,nan,nan,nan,nan,nan,nan,nan,nan,nan,nan
161560,155,100,1,0,161017.000000,-16.629757,-0.033898,-0.007989,0.000000,0.000000,0.000000,nan,nan,nan,nan,161017,950,0,0,0,0,0,1,1,1,1,1,0,0,nan,nan,nan,nan,nan,nan,nan,nan,nan,nan,nan
162560,156,100,1,0,162017.000000,-16.638428,-0.020296,-0.002503,0.000000,0.000000,0.000000,nan,nan,nan,nan,162017,951,0,0,0,0,0,1,1,1,1,1,0,0,nan,nan,nan,nan,nan,nan,nan,nan,nan,nan,nan
163560,157,100,1,0,163017.000000,-16.593233,-0.006153,0.002012,0.000000,0.000000,0.000000,nan,nan,nan,nan,163017,952,0,0,0,0,0,1,1,1,1,1,0,0,nan,nan,nan,nan,nan,nan,nan,nan,nan,nan,nan
164560,158,100,1,0,164016.000000,-16.519859,0.010422,0.005682,0.000000,0.000000,0.000000,nan,nan,nan,nan,164016,953,0,0,0,0,0,1,1,1,1,1,0,0,nan,nan,nan,nan,nan,nan,nan,nan,nan,nan,nan
165560,159,100,1,0,165017.000000,-16.468565,0.022580,0.008730,0.000000,0.000000,0.000000,nan,nan,nan,nan,165017,954,0,0,0,0,0,1,1,1,1,1,0,0,nan,nan,nan,nan,nan,nan,nan,nan,nan,nan,nan
166560,160,100,1,0,166016.000000,-16.480156,0.030496,0.011345,0.000000,0.000000,0.000000,nan,nan,nan,nan,166016,955,0,0,0,0,0,1,1,1,1,1,0,0,nan,nan,nan,nan,nan,nan,nan,nan,nan,nan,nan
167560,161,100,1,0,167017.000000,-8.239087,0.332641,0.387499,0.000000,0.000000,0.000000,nan,nan,nan,nan,167017,956,0,0,0,0,0,0,0,0,0,1,0,0,nan,nan,nan,nan,nan,nan,nan,nan,nan,nan,nan
168560,162,100,1,0,168017.000000,-16.413933,0.031688,0.010889,0.000000,0.000000,0.000000,nan,nan,nan,nan,168017,957,0,0,0,0,0,1,1,1,1,1,0,0,nan,nan,nan,nan,nan,nan,nan,nan,nan,nan,nan
169560,163,100,1,0,169017.000000,-16.259167,0.035697,0.009159,0.000000,0.000000,0.000000,nan,nan,nan,nan,169017,958,0,0,0,0,0,1,1,1,1,1,0,0,nan,nan,nan,nan,nan,nan,nan,nan,nan,nan,nan
170560,164,100,1,0,170016.000000,-16.205128,0.046209,0.007930,0.000000,0.000000,0.000000,nan,nan,nan,nan,170016,959,0,0,0,0,0,1,1,1,1,1,0,0,nan,nan,nan,nan,nan,nan,nan,nan,nan,nan,nan
171560,165,100,1,0,171017.000000,-16.164286,0.052622,0.006759,0.000000,0.000000,0.000000,nan,nan,nan,nan,171017,960,0,0,0,0,0,1,1,1,1,1,0,0,nan,nan,nan,nan,nan,nan,nan,nan,nan,nan,nan
172560,166,100,1,0,172017.000000,-16.137947,0.054128,0.005504,0.000000,0.000000,0.000000,nan,nan,nan,nan,172017,961,0,0,0,0,0,1,1,1,1,1,0,0,nan,nan,nan,nan,nan,nan,nan,nan,nan,nan,nan
173560,167,100,1,0,173017.000000,-16.128771,0.054567,0.004605,0.000000,0.000000,0.000000,nan,nan,nan,nan,173017,962,0,0,0,0,0,1,1,1,1,1,0,0,nan,nan,nan,nan,nan,nan,nan,nan,nan,nan,nan
174560,168,100,1,0,174019.000000,-16.171402,0.050725,0.003889,0.000000,0.000000,0.000000,nan,nan,nan,nan,174019,963,0,0,0,0,0,1,1,1,1,1,0,0,nan,nan,nan,nan,nan,nan,nan,nan,nan,nan,nan
175560,169,100,1,0,175018.000000,-16.133154,0.043110,0.003089,0.000000,0.000000,0.000000,nan,nan,nan,nan,175018,964,0,0,0,0,0,1,1,1,1,1,0,0,nan,nan,nan,nan,nan,nan,nan,nan,nan,nan,nan
176560,170,100,1,0,176017.000000,-16.123535,0.030133,0.001346,0.000000,0.000000,0.000000,nan,nan,nan,nan,176017,965,0,0,0,0,0,1,1,1,1,1,0,0,nan,nan,nan,nan,nan,nan,nan,nan,nan,nan,nan
177560,171,100,1,0,177018.000000,-16.103943,0.019210,-0.001154,0.000000,0.000000,0.000000,nan,nan,nan,nan,177018,966,0,0,0,0,0,1,1,1,1,1,0,0,nan,nan,nan,nan,nan,nan,nan,nan,nan,nan,nan
178560,172,100,1,0,178018.000000,-16.034431,0.013602,-0.003920,0.000000,0.000000,0.000000,nan,nan,nan,nan,178018,967,0,0,0,0,0,1,1,1,1,1,0,0,nan,nan,nan,nan,nan,nan,nan,nan,nan,nan,nan
179560,173,100,1,0,179016.000000,-15.995866,0.016811,-0.005641,0.000000,0.000000,0.000000,nan,nan,nan,nan,179016,968,0,0,0,0,0,1,1,1,1,1,0,0,nan,nan,nan,nan,nan,nan,nan,nan,nan,nan,nan
180560,174,100,1,0,180017.000000,-16.052830,0.016538,-0.005978,0.000000,0.000000,0.000000,nan,nan,nan,nan,180017,969,0,0,0,0,0,1,1,1,1,1,0,0,nan,nan,nan,nan,nan,nan,nan,nan,nan,nan,nan
181560,175,100,1,0,181017.000000,-16.009972,0.018433,-0.005648,0.000000,0.000000,0.000000,nan,nan,nan,nan,181017,970,0,0,0,0,0,1,1,1,1,1,0,0,nan,nan,nan,nan,nan,nan,nan,nan,nan,nan,nan
182560,176,100,1,0,182017.000000,-15.986828,0.022465,-0.004395,0.000000,0.000000,0.000000,nan,nan,nan,nan,182017,971,0,0,0,0,0,1,1,1,1,1,0,0,nan,nan,nan,nan,nan,nan,nan,nan,nan,nan,nan
183560,177,100,1,0,183018.000000,-15.957070,0.022261,-0.002512,0.000000,0.000000,0.000000,nan,nan,nan,nan,183018,972,0,0,0,0,0,1,1,1,1,1,0,0,nan,nan,nan,nan,nan,nan,nan,nan,nan,nan,nan
184560,178,100,1,0,184018.000000,-15.981262,0.018934,-0.000829,0.000000,0.000000,0.000000,nan,nan,nan,nan,184018,973,0,0,0,0,0,1,1,1,1,1,0,0,nan,nan,nan,nan,nan,nan,nan,nan,nan,nan,nan
185560,179,100,1,0,185017.000000,-5.339232,0.368019,-0.021925,0.000000,0.000000,0.000000,nan,nan,nan,nan,185017,974,0,0,0,0,0,0,1,0,0,1,0,0,nan,nan,nan,nan,nan,nan,nan,nan,nan,nan,nan
186560,180,100,1,0,186018.000000,-15.870443,0.019277,0.000608,0.000000,0.000000,0.000000,nan,nan,nan,nan,186018,975,0,0,0,0,0,1,1,1,1,1,0,0,nan,nan,nan,nan,nan,nan,nan,nan,nan,nan,nan
187560,181,100,1,0,187018.000000,-15.874187,0.020633,0.000426,0.000000,0.000000,0.000000,nan,nan,nan,nan,187018,976,0,0,0,0,0,1,1,1,1,1,0,0,nan,nan,nan,nan,nan,nan,nan,nan,nan,nan,nan
188560,182,100,1,0,188017.000000,-15.892900,0.022433,0.000303,0.000000,0.000000,0.000000,nan,nan,nan,nan,188017,977,0,0,0,0,0,1,1,1,1,1,0,0,nan,nan,nan,nan,nan,nan,nan,nan,nan,nan,nan
189560,183,100,1,0,189018.000000,-16.013168,0.014546,0.000038,0.000000,0.000000,0.000000,nan,nan,nan,nan,189018,978,0,0,0,0,0,1,1,1,1,1,0,0,nan,nan,nan,nan,nan,nan,nan,nan,nan,nan,nan
190560,184,100,1,0,190018.000000,-16.111706,-0.001390,-0.001110,0.000000,0.000000,0.000000,nan,nan,nan,nan,190018,979,0,0,0,0,0,1,1,1,1,1,0,0,nan,nan,nan,nan,nan,nan,nan,nan,nan,nan,nan
191560,185,100,1,0,191017.000000,-16.213482,-0.018688,-0.002826,0.000000,0.000000,0.000000,nan,nan,nan,nan,191017,980,0,0,0,0,0,1,1,1,1,1,0,0,nan,nan,nan,nan,nan,nan,nan,nan,nan,nan,nan
192560,186,100,1,0,192018.000000,-16.283903,-0.037801,-0.005154,0.000000,0.000000,0.000000,nan,nan,nan,nan,192018,981,0,0,0,0,0,1,1,1,1,1,0,0,nan,nan,nan,nan,nan,nan,nan,nan,nan,nan,nan
193560,187,100,1,0,193018.000000,-16.268799,-0.055973,-0.008410,0.000000,0.000000,0.000000,nan,nan,nan,nan,193018,982,0,0,0,0,0,1,1,1,1,1,0,0,nan,nan,nan,nan,nan,nan,nan,nan,nan,nan,nan
194560,188,100,1,0,194019.000000,-16.270216,-0.064293,-0.011495,0.000000,0.000000,0.000000,nan,nan,nan,nan,194019,983,0,0,0,0,0,1,1,1,1,1,0,0,nan,nan,nan,nan,nan,nan,nan,nan,nan,nan,nan
195560,189,100,1,0,195018.000000,-16.281210,-0.061969,-0.013196,0.000000,0.000000,0.000000,nan,nan,nan,nan,195018,984,0,0,0,0,0,1,1,1,1,1,0,0,nan,nan,nan,nan,nan,nan,nan,nan,nan,nan,nan
196560,190,100,1,0,196018.000000,-16.331097,-0.052968,-0.012502,0.000000,0.000000,0.000000,nan,nan,nan,nan,196018,985,0,0,0,0,0,1,1,1,1,1,0,0,nan,nan,nan,nan,nan,nan,nan,nan,nan,nan,nan
197560,191,100,1,0,197018.000000,-16.333197,-0.040039,-0.009676,0.000000,0.000000,0.000000,nan,nan,nan,nan,197018,986,0,0,0,0,0,1,1,1,1,1,0,0,nan,nan,nan,nan,nan,nan,nan,nan,nan,nan,nan
198560,192,100,1,0,198018.000000,-16.289003,-0.025686,-0.005155,0.000000,0.000000,0.000000,nan,nan,nan,nan,198018,987,0,0,0,0,0,1,1,1,1,1,0,0,nan,nan,nan,nan,nan,nan,nan,nan,nan,nan,nan
199560,193,100,1,0,199019.000000,-16.218367,-0.010865,-0.000121,0.000000,0.000000,0.000000,nan,nan,nan,nan,199019,988,0,0,0,0,0,1,1,1,1,1,0,0,nan,nan,nan,nan,nan,nan,nan,nan,nan,nan,nan
200560,194,100,1,0,200018.000000,-16.207685,0.002491,0.004831,0.000000,0.000000,0.000000,nan,nan,nan,nan,200018,989,0,0,0,0,0,1,1,1,1,1,0,0,nan,nan,nan,nan,nan,nan,nan,nan,nan,nan,nan
201560,195,100,1,0,201018.000000,-16.168846,0.010476,0.008852,0.000000,0.000000,0.000000,nan,nan,nan,nan,201018,990,0,0,0,0,0,1,1,1,1,1,0,0,nan,nan,nan,nan,nan,nan,nan,nan,nan,nan,nan
202560,196,100,1,0,202018.000000,-16.110987,0.019091,0.011250,0.000000,0.000000,0.000000,nan,nan,nan,nan,202018,991,0,0,0,0,0,1,1,1,1,1,0,0,nan,nan,nan,nan,nan,nan,nan,nan,nan,nan,nan
203560,197,100,1,0,203018.000000,2.360273,100.019531,94.588448,0.000000,0.000000,0.000000,nan,nan,nan,nan,203018,992,0,0,0,0,0,0,0,0,0,1,0,0,nan,nan,nan,nan,nan,nan,nan,nan,nan,nan,nan
204560,198,100,1,0,204019.000000,-16.166655,0.028728,0.011336,0.000000,0.000000,0.000000,nan,nan,nan,nan,204019,993,0,0,0,0,0,1,1,1,1,1,0,0,nan,nan,nan,nan,nan,nan,nan,nan,nan,nan,nan
205560,199,100,1,0,205018.000000,-16.170305,0.024499,0.009363,0.000000,0.000000,0.000000,nan,nan,nan,nan,205018,994,0,0,0,0,0,1,1,1,1,1,0,0,nan,nan,nan,nan,nan,nan,nan,nan,nan,nan,nan
206560,200,100,1,0,206019.000000,-16.198193,0.015909,0.006697,0.000000,0.000000,0.000000,nan,nan,nan,nan,206019,995,0,0,0,0,0,1,1,1,1,1,0,0,nan,nan,nan,nan,nan,nan,nan,nan,nan,nan,nan
207560,201,100,1,0,207018.000000,-16.217962,0.003720,0.003503,0.000000,0.000000,0.000000,nan,nan,nan,nan,207018,996,0,0,0,0,0,1,1,1,1,1,0,0,nan,nan,nan,nan,nan,nan,nan,nan,nan,nan,nan
208560,202,100,1,0,208019.000000,-16.220968,-0.004863,0.000231,0.000000,0.000000,0.000000,nan,nan,nan,nan,208019,997,0,0,0,0,0,1,1,1,1,1,0,0,nan,nan,nan,nan,nan,nan,nan,nan,nan,nan,nan
209560,203,100,1,0,209019.000000,-16.208645,-0.009168,-0.002554,0.000000,0.000000,0.000000,nan,nan,nan,nan,209019,998,0,0,0,0,0,1,1,1,1,1,0,0,nan,nan,nan,nan,nan,nan,nan,nan,nan,nan,nan
210560,204,100,1,0,210018.000000,-16.238035,-0.012123,-0.004687,0.000000,0.000000,0.000000,nan,nan,nan,nan,210018,999,0,0,0,0,0,1,1,1,1,1,0,0,nan,nan,nan,nan,nan,nan,nan,nan,nan,nan,nan
211560,205,100,1,0,211018.000000,-16.245741,-0.012293,-0.005796,0.000000,0.000000,0.000000,nan,nan,nan,nan,211018,1000,0,0,0,0,0,1,1,1,1,1,0,0,nan,nan,nan,nan,nan,nan,nan,nan,nan,nan,nan
212560,206,100,1,0,212018.000000,-16.240364,-0.010459,-0.005764,0.000000,0.000000,0.000000,nan,nan,nan,nan,212018,1001,0,0,0,0,0,1,1,1,1,1,0,0,nan,nan,nan,nan,nan,nan,nan,nan,nan,nan,nan
213560,207,100,1,0,213019.000000,-16.246296,-0.007535,-0.004695,0.000000,0.000000,0.000000,nan,nan,nan,nan,213019,1002,0,0,0,0,0,1,1,1,1,1,0,0,nan,nan,nan,nan,nan,nan,nan,nan,nan,nan,nan
214560,208,100,1,0,214019.000000,-16.292530,-0.008118,-0.003018,0.000000,0.000000,0.000000,nan,nan,nan,nan,214019,1003,0,0,0,0,0,1,1,1,1,1,0,0,nan,nan,nan,nan,nan,nan,nan,nan,nan,nan,nan
215560,209,100,1,0,215019.000000,-16.250177,-0.006675,-0.001395,0.000000,0.000000,0.000000,nan,nan,nan,nan,215019,1004,0,0,0,0,0,1,1,1,1,1,0,0,nan,nan,nan,nan,nan,nan,nan,nan,nan,nan,nan
216560,210,100,1,0,216019.000000,-16.244320,-0.005496,-0.000101,0.000000,0.000000,0.000000,nan,nan,nan,nan,216019,1005,0,0,0,0,0,1,1,1,1,1,0,0,nan,nan,nan,nan,nan,nan,nan,nan,nan,nan,nan
217560,211,100,1,0,217018.000000,-16.298967,-0.006768,0.000608,0.000000,0.000000,0.000000,nan,nan,nan,nan,217018,1006,0,0,0,0,0,1,1,1,1,1,0,0,nan,nan,nan,nan,nan,nan,nan,nan,nan,nan,nan
218560,212,100,1,0,218019.000000,-16.302662,-0.007304,0.000818,0.000000,0.000000,0.000000,nan,nan,nan,nan,218019,1007,0,0,0,0,0,1,1,1,1,1,0,0,nan,nan,nan,nan,nan,nan,nan,nan,nan,nan,nan
219560,213,100,1,0,219018.000000,-16.306681,-0.007584,0.000698,0.000000,0.000000,0.000000,nan,nan,nan,nan,219018,1008,0,0,0,0,0,1,1,1,1,1,0,0,nan,nan,nan,nan,nan,nan,nan,nan,nan,nan,nan
220560,214,100,1,0,220019.000000,-12.225955,0.033457,0.074021,0.000000,0.000000,0.000000,nan,nan,nan,nan,220019,1009,0,0,0,0,0,0,0,0,0,1,0,0,nan,nan,nan,nan,nan,nan,nan,nan,nan,nan,nan
221560,215,100,1,0,221020.000000,-16.306175,-0.008054,-0.000069,0.000000,0.000000,0.000000,nan,nan,nan,nan,221020,1010,0,0,0,0,0,1,1,1,1,1,0,0,nan,nan,nan,nan,nan,nan,nan,nan,nan,nan,nan
222560,216,100,1,0,222018.000000,-16.255016,-0.004266,-0.000075,0.000000,0.000000,0.000000,nan,nan,nan,nan,222018,1011,0,0,0,0,0,1,1,1,1,1,0,0,nan,nan,nan,nan,nan,nan,nan,nan,nan,nan,nan
223560,217,100,1,0,223019.000000,-16.225531,-0.000763,0.000209,0.000000,0.000000,0.000000,nan,nan,nan,nan,223019,1012,0,0,0,0,0,1,1,1,1,1,0,0,nan,nan,nan,nan,nan,nan,nan,nan,nan,nan,nan
224560,218,100,1,0,224019.000000,-16.262684,0.002745,0.000662,0.000000,0.000000,0.000000,nan,nan,nan,nan,224019,1013,0,0,0,0,0,1,1,1,1,1,0,0,nan,nan,nan,nan,nan,nan,nan,nan,nan,nan,nan
225560,219,100,1,0,225020.000000,-16.248125,0.008047,0.001434,0.000000,0.000000,0.000000,nan,nan,nan,nan,225020,1014,0,0,0,0,0,1,1,1,1,1,0,0,nan,nan,nan,nan,nan,nan,nan,nan,nan,nan,nan
226560,220,100,1,0,226019.000000,-16.243420,0.009512,0.002280,0.000000,0.000000,0.000000,nan,nan,nan,nan,226019,1015,0,0,0,0,0,1,1,1,1,1,0,0,nan,nan,nan,nan,nan,nan,nan,nan,nan,nan,nan
227560,221,100,1,0,227019.000000,-16.203260,0.011150,0.002703,0.000000,0.000000,0.000000,nan,nan,nan,nan,227019,1016,0,0,0,0,0,1,1,1,1,1,0,0,nan,nan,nan,nan,nan,nan,nan,nan,nan,nan,nan
228560,222,100,1,0,228019.000000,-16.257845,0.009563,0.002863,0.000000,0.000000,0.000000,nan,nan,nan,nan,228019,1017,0,0,0,0,0,1,1,1,1,1,0,0,nan,nan,nan,nan,nan,nan,nan,nan,nan,nan,nan
229560,223,100,1,0,229019.000000,-16.263483,0.005465,0.002326,0.000000,0.000000,0.000000,nan,nan,nan,nan,229019,1018,0,0,0,0,0,1,1,1,1,1,0,0,nan,nan,nan,nan,nan,nan,nan,nan,nan,nan,nan
230560,224,100,1,0,230020.000000,-16.220192,0.002099,0.001460,0.000000,0.000000,0.000000,nan,nan,nan,nan,230020,1019,0,0,0,0,0,1,1,1,1,1,0,0,nan,nan,nan,nan,nan,nan,nan,nan,nan,nan,nan
231560,225,100,1,0,231019.000000,-16.149813,0.003434,0.000462,0.000000,0.000000,0.000000,nan,nan,nan,nan,231019,1020,0,0,0,0,0,1,1,1,1,1,0,0,nan,nan,nan,nan,nan,nan,nan,nan,nan,nan,nan
232560,226,100,1,0,232019.000000,-16.107185,0.012632,0.000025,0.000000,0.000000,0.000000,nan,nan,nan,nan,232019,1021,0,0,0,0,0,1,1,1,1,1,0,0,nan,nan,nan,nan,nan,nan,nan,nan,nan,nan,nan
233560,227,100,1,0,233020.000000,-16.099813,0.019637,0.000354,0.000000,0.000000,0.000000,nan,nan,nan,nan,233020,1022,0,0,0,0,0,1,1,1,1,1,0,0,nan,nan,nan,nan,nan,nan,nan,nan,nan,nan,nan
234560,228,100,1,0,234019.000000,-16.100067,0.021679,0.001037,0.000000,0.000000,0.000000,nan,nan,nan,nan,234019,1023,0,0,0,0,0,1,1,1,1,1,0,0,nan,nan,nan,nan,nan,nan,nan,nan,nan,nan,nan
235560,229,100,1,0,235020.000000,-16.103535,0.021491,0.001706,0.000000,0.000000,0.000000,nan,nan,nan,nan,235020,1024,0,0,0,0,0,1,1,1,1,1,0,0,nan,nan,nan,nan,nan,nan,nan,nan,nan,nan,nan
236560,230,100,1,0,236020.000000,-16.083361,0.023837,0.002471,0.000000,0.000000,0.000000,nan,nan,nan,nan,236020,1025,0,0,0,0,0,1,1,1,1,1,0,0,nan,nan,nan,nan,nan,nan,nan,nan,nan,nan,nan
237560,231,100,1,0,237020.000000,-16.007187,0.024259,0.002941,0.000000,0.000000,0.000000,nan,nan,nan,nan,237020,1026,0,0,0,0,0,1,1,1,1,1,0,0,nan,nan,nan,nan,nan,nan,nan,nan,nan,nan,nan
238560,232,100,1,0,238020.000000,-11.976808,0.110350,0.234283,0.000000,0.000000,0.000000,nan,nan,nan,nan,238020,1027,0,0,0,0,0,0,1,0,1,1,0,0,nan,nan,nan,nan,nan,nan,nan,nan,nan,nan,nan
239560,233,100,1,0,239020.000000,-15.973639,0.021341,0.002353,0.000000,0.000000,0.000000,nan,nan,nan,nan,239020,1028,0,0,0,0,0,1,1,1,1,1,0,0,nan,nan,nan,nan,nan,nan,nan,nan,nan,nan,nan
240560,234,100,1,0,240020.000000,-15.966199,0.021209,0.001234,0.000000,0.000000,0.000000,nan,nan,nan,nan,240020,1029,0,0,0,0,0,1,1,1,1,1,0,0,nan,nan,nan,nan,nan,nan,nan,nan,nan,nan,nan
241560,235,100,1,0,241019.000000,-16.005316,0.019542,0.000277,0.000000,0.000000,0.000000,nan,nan,nan,nan,241019,1030,0,0,0,0,0,1,1,1,1,1,0,0,nan,nan,nan,nan,nan,nan,nan,nan,nan,nan,nan
242560,236,100,1,0,242020.000000,-15.975640,0.016952,-0.000357,0.000000,0.000000,0.000000,nan,nan,nan,nan,242020,1031,0,0,0,0,0,1,1,1,1,1,0,0,nan,nan,nan,nan,nan,nan,nan,nan,nan,nan,nan
243560,237,100,1,0,243019.000000,-15.965195,0.015387,-0.000798,0.000000,0.000000,0.000000,nan,nan,nan,nan,243019,1032,0,0,0,0,0,1,1,1,1,1,0,0,nan,nan,nan,nan,nan,nan,nan,nan,nan,nan,nan
244560,238,100,1,0,244020.000000,-15.939453,0.011404,-0.001321,0.000000,0.000000,0.000000,nan,nan,nan,nan,244020,1033,0,0,0,0,0,1,1,1,1,1,0,0,nan,nan,nan,nan,nan,nan,nan,nan,nan,nan,nan
245560,239,100,1,0,245020.000000,-15.863962,0.011282,-0.001736,0.000000,0.000000,0.000000,nan,nan,nan,nan,245020,1034,0,0,0,0,0,1,1,1,1,1,0,0,nan,nan,nan,nan,nan,nan,nan,nan,nan,nan,nan
246560,240,100,1,0,246021.000000,-15.775556,0.016729,-0.001711,0.000000,0.000000,0.000000,nan,nan,nan,nan,246021,1035,0,0,0,0,0,1,1,1,1,1,0,0,nan,nan,nan,nan,nan,nan,nan,nan,nan,nan,nan
247560,241,100,1,0,247020.000000,-15.795567,0.025698,-0.000800,0.000000,0.000000,0.000000,nan,nan,nan,nan,247020,1036,0,0,0,0,0,1,1,1,1,1,0,0,nan,nan,nan,nan,nan,nan,nan,nan,nan,nan,nan
248560,242,100,1,0,248020.000000,-15.850361,0.026738,0.000298,0.000000,0.000000,0.000000,nan,nan,nan,nan,248020,1037,0,0,0,0,0,1,1,1,1,1,0,0,nan,nan,nan,nan,nan,nan,nan,nan,nan,nan,nan
249560,243,100,1,0,249020.000000,-15.701247,0.029744,0.001192,0.000000,0.000000,0.000000,nan,nan,nan,nan,249020,1038,0,0,0,0,0,1,1,1,1,1,0,0,nan,nan,nan,nan,nan,nan,nan,nan,nan,nan,nan
250560,244,100,1,0,250020.000000,-15.330489,0.048055,0.002634,0.000000,0.000000,0.000000,nan,nan,nan,nan,250020,1039,0,0,0,0,0,1,1,1,1,1,0,0,nan,nan,nan,nan,nan,nan,nan,nan,nan,nan,nan
251560,245,100,1,0,251020.000000,-14.930142,0.085257,0.005614,0.000000,0.000000,0.000000,nan,nan,nan,nan,251020,1040,0,0,0,0,0,1,1,1,1,1,0,0,nan,nan,nan,nan,nan,nan,nan,nan,nan,nan,nan
252560,246,100,1,0,252023.000000,-14.640783,0.133716,0.010730,0.000000,0.000000,0.000000,nan,nan,nan,nan,252023,1041,0,0,0,0,0,1,1,1,1,1,0,0,nan,nan,nan,nan,nan,nan,nan,nan,nan,nan,nan
253560,247,100,1,0,253020.000000,-14.354160,0.171842,0.015887,0.000000,0.000000,0.000000,nan,nan,nan,nan,253020,1042,0,0,0,0,0,1,1,1,1,1,0,0,nan,nan,nan,nan,nan,nan,nan,nan,nan,nan,nan
254560,248,100,1,0,254020.000000,-14.184071,0.207784,0.021165,0.000000,0.000000,0.000000,nan,nan,nan,nan,254020,1043,0,0,0,0,0,1,1,1,1,1,0,0,nan,nan,nan,nan,nan,nan,nan,nan,nan,nan,nan
255560,249,100,1,0,255021.000000,-14.095510,0.243010,0.027142,0.000000,0.000000,0.000000,nan,nan,nan,nan,255021,1044,0,0,0,0,0,1,1,1,1,1,0,0,nan,nan,nan,nan,nan,nan,nan,nan,nan,nan,nan
256560,250,100,1,0,256020.000000,-8.227396,0.340160,0.090255,0.000000,0.000000,0.000000,nan,nan,nan,nan,256020,1045,0,0,0,0,0,0,1,0,0,1,0,0,nan,nan,nan,nan,nan,nan,nan,nan,nan,nan,nan
257560,251,100,1,0,257020.000000,-13.907572,0.242925,0.034178,0.000000,0.000000,0.000000,nan,nan,nan,nan,257020,1046,0,0,0,0,0,1,1,1,1,1,0,0,nan,nan,nan,nan,nan,nan,nan,nan,nan,nan,nan
258560,252,100,1,0,258021.000000,-13.979015,0.194983,0.028269,0.000000,0.000000,0.000000,nan,nan,nan,nan,258021,1047,0,0,0,0,0,1,1,1,1,1,0,0,nan,nan,nan,nan,nan,nan,nan,nan,nan,nan,nan
259560,253,100,1,0,259020.000000,-13.938931,0.134437,0.015354,0.000000,0.000000,0.000000,nan,nan,nan,nan,259020,1048,0,0,0,0,0,1,1,1,1,1,0,0,nan,nan,nan,nan,nan,nan,nan,nan,nan,nan,nan
260560,254,100,1,0,260021.000000,-14.108459,0.084157,0.000544,0.000000,0.000000,0.000000,nan,nan,nan,nan,260021,1049,0,0,0,0,0,1,1,1,1,1,0,0,nan,nan,nan,nan,nan,nan,nan,nan,nan,nan,nan
261560,255,100,1,0,261021.000000,-14.123269,0.040879,-0.014203,0.000000,0.000000,0.000000,nan,nan,nan,nan,261021,1050,0,0,0,0,0,1,1,1,1,1,0,0,nan,nan,nan,nan,nan,nan,nan,nan,nan,nan,nan
262560,256,100,1,0,262021.000000,-14.132034,0.010879,-0.026950,0.000000,0.000000,0.000000,nan,nan,nan,nan,262021,1051,0,0,0,0,0,1,1,1,1,1,0,0,nan,nan,nan,nan,nan,nan,nan,nan,nan,nan,nan
263560,257,100,1,0,263021.000000,-14.096518,-0.007291,-0.036688,0.000000,0.000000,0.000000,nan,nan,nan,nan,263021,1052,0,0,0,0,0,1,1,1,1,1,0,0,nan,nan,nan,nan,nan,nan,nan,nan,nan,nan,nan
264560,257,100,1,0,263021.000000,-14.096518,-0.007291,-0.036688,0.000000,0.000000,0.000000,nan,nan,nan,nan,263021,1052,0,0,0,0,0,1,1,1,1,1,0,0,nan,nan,nan,nan,nan,nan,nan,nan,nan,nan,nan
265560,258,100,1,0,265021.000000,-14.119297,-0.021703,-0.036250,0.000000,0.000000,0.000000,nan,nan,nan,nan,265021,1054,0,0,0,0,0,1,1,1,1,1,0,0,nan,nan,nan,nan,nan,nan,nan,nan,nan,nan,nan
266560,259,100,1,0,266021.000000,-14.157825,-0.020817,-0.029417,0.000000,0.000000,0.000000,nan,nan,nan,nan,266021,1055,0,0,0,0,0,1,1,1,1,1,0,0,nan,nan,nan,nan,nan,nan,nan,nan,nan,nan,nan
267560,260,100,1,0,267021.000000,-14.254189,-0.020305,-0.021645,0.000000,0.000000,0.000000,nan,nan,nan,nan,267021,1056,0,0,0,0,0,1,1,1,1,1,0,0,nan,nan,nan,nan,nan,nan,nan,nan,nan,nan,nan
268560,261,100,1,0,268021.000000,-14.309927,-0.020091,-0.014090,0.000000,0.000000,0.000000,nan,nan,nan,nan,268021,1057,0,0,0,0,0,1,1,1,1,1,0,0,nan,nan,nan,nan,nan,nan,nan,nan,nan,nan,nan
269560,262,100,1,0,269020.000000,-14.379444,-0.028000,-0.008264,0.000000,0.000000,0.000000,nan,nan,nan,nan,269020,1058,0,0,0,0,0,1,1,1,1,1,0,0,nan,nan,nan,nan,nan,nan,nan,nan,nan,nan,nan
270560,263,100,1,0,270021.000000,-14.339919,-0.037801,-0.005217,0.000000,0.000000,0.000000,nan,nan,nan,nan,270021,1059,0,0,0,0,0,1,1,1,1,1,0,0,nan,nan,nan,nan,nan,nan,nan,nan,nan,nan,nan
