# Time (s),Altitude (m),Vertical velocity (m/s),Vertical acceleration (m/s²),Total velocity (m/s),Total acceleration (m/s²),Position East of launch (m),Position North of launch (m),Lateral distance (m),Lateral direction (°),Lateral velocity (m/s),Lateral acceleration (m/s²),Latitude (°),Longitude (°),Gravitational acceleration (m/s²),Angle of attack (°),Roll rate (°/s),Pitch rate (°/s),Yaw rate (°/s),Mass (g),Motor mass (g),Longitudinal moment of inertia (kg·m²),Rotational moment of inertia (kg·m²),CP location (mm),CG location (mm),Stability margin calibers (​),Mach number (​),Reynolds number (​),Thrust (N),Drag force (N),Drag coefficient (​),Axial drag coefficient (​),Friction drag coefficient (​),Pressure drag coefficient (​),Base drag coefficient (​),Normal force coefficient (​),Pitch moment coefficient (​),Yaw moment coefficient (​),Side force coefficient (​),Roll moment coefficient (​),Roll forcing coefficient (​),Roll damping coefficient (​),Pitch damping coefficient (​),Coriolis acceleration (m/s²),Reference length (mm),Reference area (cm²),Vertical orientation (zenith) (°),Lateral orientation (azimuth) (°),Wind velocity (m/s),Air temperature (°C),Air pressure (mbar),Speed of sound (m/s),Simulation time step (s),Computation time (s)
0.01,-4.757e-4,-0.095,-9.511,0.096,9.563,-5e-5,0,5e-5,180,0.01,1,22.175,120.893,9.788,180,0,0,0,2.8e4,1.35e4,19.963,0.106,NaN,2019.994,NaN,2.809e-4,1.876e4,4.784,-1.512e-4,1.262,-1.262,0.927,0.215,0.12,NaN,NaN,NaN,NaN,NaN,NaN,NaN,NaN,1.293e-5,165,213.825,84,0,0,15,1013.25,340.389,0.01,0.003
0.02,-4.761e-4,-0.095,-9.522,0.096,9.575,-5.004e-5,0,5.004e-5,180,0.01,1.001,22.175,120.893,9.788,180,0,0,0,2.8e4,1.35e4,19.963,0.106,NaN,2019.992,NaN,2.813e-4,1.878e4,4.461,-1.515e-4,1.262,-1.262,0.927,0.215,0.12,NaN,NaN,NaN,NaN,NaN,NaN,NaN,NaN,1.294e-5,165,213.825,84,0,0,15,1013.25,340.389,0.01,0.004
0.03,-4.763e-4,-0.095,-9.526,0.096,9.579,-5.006e-5,0,5.006e-5,180,0.01,1.001,22.175,120.893,9.788,180,0,0,0,2.8e4,1.35e4,19.963,0.106,NaN,2019.991,NaN,2.814e-4,1.879e4,4.343,-1.516e-4,1.262,-1.262,0.927,0.215,0.12,NaN,NaN,NaN,NaN,NaN,NaN,NaN,NaN,1.295e-5,165,213.825,84,0,0,15,1013.25,340.389,0.01,0.005
0.04,-4.765e-4,-0.095,-9.53,0.096,9.582,-5.008e-5,0,5.008e-5,180,0.01,1.002,22.175,120.893,9.788,180,0,0,0,2.8e4,1.35e4,19.963,0.106,NaN,2019.989,NaN,2.815e-4,1.879e4,4.249,-1.517e-4,1.262,-1.262,0.927,0.215,0.12,NaN,NaN,NaN,NaN,NaN,NaN,NaN,NaN,1.295e-5,165,213.825,84,0,0,15,1013.25,340.389,0.01,0.005
0.05,-4.761e-4,-0.095,-9.523,0.096,9.575,-5.005e-5,0,5.005e-5,180,0.01,1.001,22.175,120.893,9.788,180,0,0,0,2.8e4,1.35e4,19.963,0.106,NaN,2019.988,NaN,2.813e-4,1.878e4,4.443,-1.515e-4,1.262,-1.262,0.927,0.215,0.12,NaN,NaN,NaN,NaN,NaN,NaN,NaN,NaN,1.294e-5,165,213.825,84,0,0,15,1013.25,340.389,0.01,0.015
0.06,-4.757e-4,-0.095,-9.514,0.096,9.567,-5e-5,0,5e-5,180,0.01,1,22.175,120.893,9.788,180,0,0,0,2.8e4,1.35e4,19.963,0.106,NaN,2019.986,NaN,2.811e-4,1.876e4,4.681,-1.513e-4,1.262,-1.262,0.927,0.215,0.12,NaN,NaN,NaN,NaN,NaN,NaN,NaN,NaN,1.293e-5,165,213.825,84,0,0,15,1013.25,340.389,0.01,0.016
0.07,-4.762e-4,-0.095,-9.523,0.096,9.576,-5.005e-5,0,5.005e-5,180,0.01,1.001,22.175,120.893,9.788,180,0,0,0,2.8e4,1.35e4,19.963,0.106,NaN,2019.984,NaN,2.813e-4,1.878e4,4.438,-1.515e-4,1.262,-1.262,0.927,0.215,0.12,NaN,NaN,NaN,NaN,NaN,NaN,NaN,NaN,1.294e-5,165,213.825,84,0,0,15,1013.25,340.389,0.01,0.016
0.08,-4.761e-4,-0.095,-9.522,0.096,9.574,-5.004e-5,0,5.004e-5,180,0.01,1.001,22.175,120.893,9.788,180,0,0,0,2.8e4,1.35e4,19.963,0.106,NaN,2019.982,NaN,2.813e-4,1.878e4,4.479,-1.515e-4,1.262,-1.262,0.927,0.215,0.12,NaN,NaN,NaN,NaN,NaN,NaN,NaN,NaN,1.294e-5,165,213.825,84,0,0,15,1013.25,340.389,0.01,0.016
0.09,-4.759e-4,-0.095,-9.517,0.096,9.57,-5.002e-5,0,5.002e-5,180,0.01,1,22.175,120.893,9.788,180,0,0,0,2.8e4,1.35e4,19.963,0.106,NaN,2019.981,NaN,2.811e-4,1.877e4,4.603,-1.514e-4,1.262,-1.262,0.927,0.215,0.12,NaN,NaN,NaN,NaN,NaN,NaN,NaN,NaN,1.294e-5,165,213.825,84,0,0,15,1013.25,340.389,0.01,0.016
0.1,-4.764e-4,-0.095,-9.527,0.096,9.58,-5.007e-5,0,5.007e-5,180,0.01,1.001,22.175,120.893,9.788,180,0,0,0,2.8e4,1.35e4,19.963,0.106,NaN,2019.979,NaN,2.814e-4,1.879e4,4.315,-1.517e-4,1.262,-1.262,0.927,0.215,0.12,NaN,NaN,NaN,NaN,NaN,NaN,NaN,NaN,1.295e-5,165,213.825,84,0,0,15,1013.25,340.389,0.01,0.017
0.11,-4.762e-4,-0.095,-9.523,0.096,9.576,-5.005e-5,0,5.005e-5,180,0.01,1.001,22.175,120.893,9.788,180,0,0,0,2.8e4,1.35e4,19.963,0.106,NaN,2019.977,NaN,2.813e-4,1.878e4,4.431,-1.516e-4,1.262,-1.262,0.927,0.215,0.12,NaN,NaN,NaN,NaN,NaN,NaN,NaN,NaN,1.294e-5,165,213.825,84,0,0,15,1013.25,340.389,0.01,0.017
0.12,-4.762e-4,-0.095,-9.523,0.096,9.576,-5.005e-5,0,5.005e-5,180,0.01,1.001,22.175,120.893,9.788,180,0,0,0,2.8e4,1.35e4,19.962,0.106,NaN,2019.976,NaN,2.813e-4,1.878e4,4.436,-1.516e-4,1.262,-1.262,0.927,0.215,0.12,NaN,NaN,NaN,NaN,NaN,NaN,NaN,NaN,1.294e-5,165,213.825,84,0,0,15,1013.25,340.389,0.01,0.017
0.13,-4.758e-4,-0.095,-9.517,0.096,9.569,-5.001e-5,0,5.001e-5,180,0.01,1,22.175,120.893,9.788,180,0,0,0,2.8e4,1.35e4,19.962,0.106,NaN,2019.974,NaN,2.811e-4,1.877e4,4.62,-1.514e-4,1.262,-1.262,0.927,0.215,0.12,NaN,NaN,NaN,NaN,NaN,NaN,NaN,NaN,1.294e-5,165,213.825,84,0,0,15,1013.25,340.389,0.01,0.017
0.14,-4.762e-4,-0.095,-9.524,0.096,9.577,-5.005e-5,0,5.005e-5,180,0.01,1.001,22.175,120.893,9.788,180,0,0,0,2.8e4,1.35e4,19.962,0.106,NaN,2019.972,NaN,2.813e-4,1.878e4,4.404,-1.516e-4,1.262,-1.262,0.927,0.215,0.12,NaN,NaN,NaN,NaN,NaN,NaN,NaN,NaN,1.295e-5,165,213.825,84,0,0,15,1013.25,340.389,0.01,0.018
0.15,-4.761e-4,-0.095,-9.523,0.096,9.575,-5.004e-5,0,5.004e-5,180,0.01,1.001,22.175,120.893,9.788,180,0,0,0,2.8e4,1.35e4,19.962,0.106,NaN,2019.97,NaN,2.813e-4,1.878e4,4.444,-1.515e-4,1.262,-1.262,0.927,0.215,0.12,NaN,NaN,NaN,NaN,NaN,NaN,NaN,NaN,1.294e-5,165,213.825,84,0,0,15,1013.25,340.389,0.01,0.018
0.16,-4.758e-4,-0.095,-9.516,0.096,9.568,-5.001e-5,0,5.001e-5,180,0.01,1,22.175,120.893,9.788,180,0,0,0,2.8e4,1.35e4,19.962,0.106,NaN,2019.969,NaN,2.811e-4,1.876e4,4.651,-1.513e-4,1.262,-1.262,0.927,0.215,0.12,NaN,NaN,NaN,NaN,NaN,NaN,NaN,NaN,1.293e-5,165,213.825,84,0,0,15,1013.25,340.389,0.01,0.018
0.17,-4.765e-4,-0.095,-9.531,0.096,9.583,-5.009e-5,0,5.009e-5,180,0.01,1.002,22.175,120.893,9.788,180,0,0,0,2.8e4,1.35e4,19.962,0.106,NaN,2019.967,NaN,2.815e-4,1.879e4,4.218,-1.518e-4,1.262,-1.262,0.927,0.215,0.12,NaN,NaN,NaN,NaN,NaN,NaN,NaN,NaN,1.295e-5,165,213.825,84,0,0,15,1013.25,340.389,0.01,0.018
0.18,-4.765e-4,-0.095,-9.531,0.096,9.583,-5.009e-5,0,5.009e-5,180,0.01,1.002,22.175,120.893,9.788,180,0,0,0,2.8e4,1.35e4,19.962,0.106,NaN,2019.965,NaN,2.815e-4,1.879e4,4.225,-1.518e-4,1.262,-1.262,0.927,0.215,0.12,NaN,NaN,NaN,NaN,NaN,NaN,NaN,NaN,1.295e-5,165,213.825,84,0,0,15,1013.25,340.389,0.01,0.018
0.19,-4.764e-4,-0.095,-9.527,0.096,9.58,-5.007e-5,0,5.007e-5,180,0.01,1.001,22.175,120.893,9.788,180,0,0,0,2.8e4,1.35e4,19.962,0.106,NaN,2019.964,NaN,2.814e-4,1.879e4,4.321,-1.517e-4,1.262,-1.262,0.927,0.215,0.12,NaN,NaN,NaN,NaN,NaN,NaN,NaN,NaN,1.295e-5,165,213.825,84,0,0,15,1013.25,340.389,0.01,0.019
0.2,-4.766e-4,-0.095,-9.532,0.096,9.585,-5.01e-5,0,5.01e-5,180,0.01,1.002,22.175,120.893,9.788,180,0,0,0,2.8e4,1.35e4,19.962,0.106,NaN,2019.962,NaN,2.816e-4,1.88e4,4.174,-1.518e-4,1.262,-1.262,0.927,0.215,0.12,NaN,NaN,NaN,NaN,NaN,NaN,NaN,NaN,1.296e-5,165,213.825,84,0,0,15,1013.25,340.389,0.01,0.019
0.21,-4.763e-4,-0.095,-9.525,0.096,9.578,-5.006e-5,0,5.006e-5,180,0.01,1.001,22.175,120.893,9.788,180,0,0,0,2.8e4,1.35e4,19.962,0.106,NaN,2019.961,NaN,2.814e-4,1.878e4,4.381,-1.516e-4,1.262,-1.262,0.927,0.215,0.12,NaN,NaN,NaN,NaN,NaN,NaN,NaN,NaN,1.295e-5,165,213.825,84,0,0,15,1013.25,340.389,0.01,0.019
0.22,-4.758e-4,-0.095,-9.515,0.096,9.568,-5.001e-5,0,5.001e-5,180,0.01,1,22.175,120.893,9.788,180,0,0,0,2.8e4,1.35e4,19.962,0.106,NaN,2019.959,NaN,2.811e-4,1.876e4,4.657,-1.513e-4,1.262,-1.262,0.927,0.215,0.12,NaN,NaN,NaN,NaN,NaN,NaN,NaN,NaN,1.293e-5,165,213.825,84,0,0,15,1013.25,340.389,0.01,0.019
0.23,-4.762e-4,-0.095,-9.525,0.096,9.577,-5.005e-5,0,5.005e-5,180,0.01,1.001,22.175,120.893,9.788,180,0,0,0,2.8e4,1.35e4,19.962,0.106,NaN,2019.957,NaN,2.814e-4,1.878e4,4.392,-1.516e-4,1.262,-1.262,0.927,0.215,0.12,NaN,NaN,NaN,NaN,NaN,NaN,NaN,NaN,1.295e-5,165,213.825,84,0,0,15,1013.25,340.389,0.01,0.02
0.24,-4.76e-4,-0.095,-9.52,0.096,9.573,-5.003e-5,0,5.003e-5,180,0.01,1.001,22.175,120.893,9.788,180,0,0,0,2.8e4,1.35e4,19.962,0.106,NaN,2019.955,NaN,2.812e-4,1.877e4,4.513,-1.515e-4,1.262,-1.262,0.927,0.215,0.12,NaN,NaN,NaN,NaN,NaN,NaN,NaN,NaN,1.294e-5,165,213.825,84,0,0,15,1013.25,340.389,0.01,0.02
0.25,-4.759e-4,-0.095,-9.518,0.096,9.57,-5.002e-5,0,5.002e-5,180,0.01,1,22.175,120.893,9.788,180,0,0,0,2.8e4,1.35e4,19.962,0.106,NaN,2019.954,NaN,2.812e-4,1.877e4,4.587,-1.514e-4,1.262,-1.262,0.927,0.215,0.12,NaN,NaN,NaN,NaN,NaN,NaN,NaN,NaN,1.294e-5,165,213.825,84,0,0,15,1013.25,340.389,0.01,0.02
0.26,-4.762e-4,-0.095,-9.523,0.096,9.576,-5.005e-5,0,5.005e-5,180,0.01,1.001,22.175,120.893,9.788,180,0,0,0,2.8e4,1.35e4,19.962,0.106,NaN,2019.952,NaN,2.813e-4,1.878e4,4.429,-1.516e-4,1.262,-1.262,0.927,0.215,0.12,NaN,NaN,NaN,NaN,NaN,NaN,NaN,NaN,1.294e-5,165,213.825,84,0,0,15,1013.25,340.389,0.01,0.02
0.27,-4.76e-4,-0.095,-9.52,0.096,9.572,-5.003e-5,0,5.003e-5,180,0.01,1.001,22.175,120.893,9.788,180,0,0,0,2.8e4,1.35e4,19.962,0.106,NaN,2019.95,NaN,2.812e-4,1.877e4,4.527,-1.515e-4,1.262,-1.262,0.927,0.215,0.12,NaN,NaN,NaN,NaN,NaN,NaN,NaN,NaN,1.294e-5,165,213.825,84,0,0,15,1013.25,340.389,0.01,0.02
0.28,-4.761e-4,-0.095,-9.521,0.096,9.574,-5.004e-5,0,5.004e-5,180,0.01,1.001,22.175,120.893,9.788,180,0,0,0,2.8e4,1.35e4,19.962,0.106,NaN,2019.949,NaN,2.813e-4,1.878e4,4.488,-1.515e-4,1.262,-1.262,0.927,0.215,0.12,NaN,NaN,NaN,NaN,NaN,NaN,NaN,NaN,1.294e-5,165,213.825,84,0,0,15,1013.25,340.389,0.01,0.021
0.29,-4.758e-4,-0.095,-9.517,0.096,9.569,-5.001e-5,0,5.001e-5,180,0.01,1,22.175,120.893,9.788,180,0,0,0,2.8e4,1.35e4,19.962,0.106,NaN,2019.947,NaN,2.811e-4,1.877e4,4.616,-1.514e-4,1.262,-1.262,0.927,0.215,0.12,NaN,NaN,NaN,NaN,NaN,NaN,NaN,NaN,1.294e-5,165,213.825,84,0,0,15,1013.25,340.389,0.01,0.021
0.3,-4.76e-4,-0.095,-9.519,0.096,9.572,-5.003e-5,0,5.003e-5,180,0.01,1.001,22.175,120.893,9.788,180,0,0,0,2.8e4,1.35e4,19.962,0.106,NaN,2019.945,NaN,2.812e-4,1.877e4,4.548,-1.514e-4,1.262,-1.262,0.927,0.215,0.12,NaN,NaN,NaN,NaN,NaN,NaN,NaN,NaN,1.294e-5,165,213.825,84,0,0,15,1013.25,340.389,0.01,0.021
0.31,-4.757e-4,-0.095,-9.514,0.096,9.566,-5e-5,0,5e-5,180,0.01,1,22.175,120.893,9.788,180,0,0,0,2.8e4,1.35e4,19.962,0.106,NaN,2019.943,NaN,2.81e-4,1.876e4,4.706,-1.513e-4,1.262,-1.262,0.927,0.215,0.12,NaN,NaN,NaN,NaN,NaN,NaN,NaN,NaN,1.293e-5,165,213.825,84,0,0,15,1013.25,340.389,0.01,0.022
0.32,-4.763e-4,-0.095,-9.527,0.096,9.579,-5.007e-5,0,5.007e-5,180,0.01,1.001,22.175,120.893,9.788,180,0,0,0,2.8e4,1.35e4,19.962,0.106,NaN,2019.942,NaN,2.814e-4,1.879e4,4.332,-1.517e-4,1.262,-1.262,0.927,0.215,0.12,NaN,NaN,NaN,NaN,NaN,NaN,NaN,NaN,1.295e-5,165,213.825,84,0,0,15,1013.25,340.389,0.01,0.022
0.33,-4.761e-4,-0.095,-9.521,0.096,9.574,-5.004e-5,0,5.004e-5,180,0.01,1.001,22.175,120.893,9.788,180,0,0,0,2.8e4,1.35e4,19.962,0.106,NaN,2019.94,NaN,2.813e-4,1.878e4,4.483,-1.515e-4,1.262,-1.262,0.927,0.215,0.12,NaN,NaN,NaN,NaN,NaN,NaN,NaN,NaN,1.294e-5,165,213.825,84,0,0,15,1013.25,340.389,0.01,0.022
0.34,-4.759e-4,-0.095,-9.518,0.096,9.571,-5.002e-5,0,5.002e-5,180,0.01,1,22.175,120.893,9.788,180,0,0,0,2.8e4,1.35e4,19.962,0.106,NaN,2019.938,NaN,2.812e-4,1.877e4,4.57,-1.514e-4,1.262,-1.262,0.927,0.215,0.12,NaN,NaN,NaN,NaN,NaN,NaN,NaN,NaN,1.294e-5,165,213.825,84,0,0,15,1013.25,340.389,0.01,0.023
0.35,-4.762e-4,-0.095,-9.524,0.096,9.576,-5.005e-5,0,5.005e-5,180,0.01,1.001,22.175,120.893,9.788,180,0,0,0,2.8e4,1.35e4,19.962,0.106,NaN,2019.936,NaN,2.813e-4,1.878e4,4.419,-1.516e-4,1.262,-1.262,0.927,0.215,0.12,NaN,NaN,NaN,NaN,NaN,NaN,NaN,NaN,1.294e-5,165,213.825,84,0,0,15,1013.25,340.389,0.01,0.023
0.36,-4.764e-4,-0.095,-9.527,0.096,9.58,-5.007e-5,0,5.007e-5,180,0.01,1.001,22.175,120.893,9.788,180,0,0,0,2.8e4,1.35e4,19.962,0.106,NaN,2019.935,NaN,2.814e-4,1.879e4,4.317,-1.517e-4,1.262,-1.262,0.927,0.215,0.12,NaN,NaN,NaN,NaN,NaN,NaN,NaN,NaN,1.295e-5,165,213.825,84,0,0,15,1013.25,340.389,0.01,0.023
0.37,-4.76e-4,-0.095,-9.52,0.096,9.573,-5.003e-5,0,5.003e-5,180,0.01,1.001,22.175,120.893,9.788,180,0,0,0,2.8e4,1.35e4,19.962,0.106,NaN,2019.933,NaN,2.812e-4,1.877e4,4.522,-1.515e-4,1.262,-1.262,0.927,0.215,0.12,NaN,NaN,NaN,NaN,NaN,NaN,NaN,NaN,1.294e-5,165,213.825,84,0,0,15,1013.25,340.389,0.01,0.024
0.38,-4.762e-4,-0.095,-9.523,0.096,9.576,-5.005e-5,0,5.005e-5,180,0.01,1.001,22.175,120.893,9.788,180,0,0,0,2.8e4,1.35e4,19.962,0.106,NaN,2019.931,NaN,2.813e-4,1.878e4,4.433,-1.516e-4,1.262,-1.262,0.927,0.215,0.12,NaN,NaN,NaN,NaN,NaN,NaN,NaN,NaN,1.294e-5,165,213.825,84,0,0,15,1013.25,340.389,0.01,0.024
0.39,-4.757e-4,-0.095,-9.515,0.096,9.567,-5e-5,0,5e-5,180,0.01,1,22.175,120.893,9.788,180,0,0,0,2.8e4,1.35e4,19.962,0.106,NaN,2019.93,NaN,2.811e-4,1.876e4,4.673,-1.513e-4,1.262,-1.262,0.927,0.215,0.12,NaN,NaN,NaN,NaN,NaN,NaN,NaN,NaN,1.293e-5,165,213.825,84,0,0,15,1013.25,340.389,0.01,0.024
0.4,-4.755e-4,-0.095,-9.51,0.096,9.562,-4.998e-5,0,4.998e-5,180,0.01,1,22.175,120.893,9.788,180,0,0,0,2.8e4,1.35e4,19.962,0.106,NaN,2019.928,NaN,2.809e-4,1.875e4,4.812,-1.512e-4,1.262,-1.262,0.927,0.215,0.12,NaN,NaN,NaN,NaN,NaN,NaN,NaN,NaN,1.293e-5,165,213.825,84,0,0,15,1013.25,340.389,0.01,0.025
0.41,-4.759e-4,-0.095,-9.518,0.096,9.57,-5.002e-5,0,5.002e-5,180,0.01,1,22.175,120.893,9.788,180,0,0,0,2.8e4,1.35e4,19.962,0.106,NaN,2019.926,NaN,2.811e-4,1.877e4,4.595,-1.514e-4,1.262,-1.262,0.927,0.215,0.12,NaN,NaN,NaN,NaN,NaN,NaN,NaN,NaN,1.294e-5,165,213.825,84,0,0,15,1013.25,340.389,0.01,0.025
0.42,-4.758e-4,-0.095,-9.516,0.096,9.568,-5.001e-5,0,5.001e-5,180,0.01,1,22.175,120.893,9.788,180,0,0,0,2.8e4,1.35e4,19.962,0.106,NaN,2019.924,NaN,2.811e-4,1.877e4,4.638,-1.513e-4,1.262,-1.262,0.927,0.215,0.12,NaN,NaN,NaN,NaN,NaN,NaN,NaN,NaN,1.293e-5,165,213.825,84,0,0,15,1013.25,340.389,0.01,0.025
0.43,-4.755e-4,-0.095,-9.51,0.096,9.562,-4.998e-5,0,4.998e-5,180,0.01,1,22.175,120.893,9.788,180,0,0,0,2.8e4,1.35e4,19.962,0.106,NaN,2019.922,NaN,2.809e-4,1.875e4,4.811,-1.512e-4,1.262,-1.262,0.927,0.215,0.12,NaN,NaN,NaN,NaN,NaN,NaN,NaN,NaN,1.293e-5,165,213.825,84,0,0,15,1013.25,340.389,0.01,0.026
0.44,-4.753e-4,-0.095,-9.506,0.096,9.558,-4.996e-5,0,4.996e-5,180,0.01,0.999,22.175,120.893,9.788,180,0,0,0,2.8e4,1.35e4,19.962,0.106,NaN,2019.921,NaN,2.808e-4,1.875e4,4.919,-1.511e-4,1.263,-1.263,0.927,0.215,0.12,NaN,NaN,NaN,NaN,NaN,NaN,NaN,NaN,1.292e-5,165,213.825,84,0,0,15,1013.25,340.389,0.01,0.026
0.45,-4.759e-4,-0.095,-9.518,0.096,9.57,-5.002e-5,0,5.002e-5,180,0.01,1,22.175,120.893,9.788,180,0,0,0,2.8e4,1.35e4,19.961,0.106,NaN,2019.919,NaN,2.812e-4,1.877e4,4.583,-1.514e-4,1.262,-1.262,0.927,0.215,0.12,NaN,NaN,NaN,NaN,NaN,NaN,NaN,NaN,1.294e-5,165,213.825,84,0,0,15,1013.25,340.389,0.01,0.026
0.46,-4.762e-4,-0.095,-9.523,0.096,9.576,-5.005e-5,0,5.005e-5,180,0.01,1.001,22.175,120.893,9.788,180,0,0,0,2.8e4,1.35e4,19.961,0.106,NaN,2019.917,NaN,2.813e-4,1.878e4,4.429,-1.516e-4,1.262,-1.262,0.927,0.215,0.12,NaN,NaN,NaN,NaN,NaN,NaN,NaN,NaN,1.294e-5,165,213.825,84,0,0,15,1013.25,340.389,0.01,0.027
0.47,-4.761e-4,-0.095,-9.523,0.096,9.575,-5.004e-5,0,5.004e-5,180,0.01,1.001,22.175,120.893,9.788,180,0,0,0,2.8e4,1.35e4,19.961,0.106,NaN,2019.915,NaN,2.813e-4,1.878e4,4.45,-1.515e-4,1.262,-1.262,0.927,0.215,0.12,NaN,NaN,NaN,NaN,NaN,NaN,NaN,NaN,1.294e-5,165,213.825,84,0,0,15,1013.25,340.389,0.01,0.027
0.48,-4.753e-4,-0.095,-9.507,0.096,9.559,-4.996e-5,0,4.996e-5,180,0.01,0.999,22.175,120.893,9.788,180,0,0,0,2.8e4,1.35e4,19.961,0.106,NaN,2019.914,NaN,2.808e-4,1.875e4,4.905,-1.511e-4,1.263,-1.263,0.927,0.215,0.12,NaN,NaN,NaN,NaN,NaN,NaN,NaN,NaN,1.292e-5,165,213.825,84,0,0,15,1013.25,340.389,0.01,0.027
0.49,-4.756e-4,-0.095,-9.512,0.096,9.565,-4.999e-5,0,4.999e-5,180,0.01,1,22.175,120.893,9.788,180,0,0,0,2.8e4,1.35e4,19.961,0.106,NaN,2019.912,NaN,2.81e-4,1.876e4,4.746,-1.512e-4,1.262,-1.262,0.927,0.215,0.12,NaN,NaN,NaN,NaN,NaN,NaN,NaN,NaN,1.293e-5,165,213.825,84,0,0,15,1013.25,340.389,0.01,0.028
0.5,-4.761e-4,-0.095,-9.522,0.096,9.574,-5.004e-5,0,5.004e-5,180,0.01,1.001,22.175,120.893,9.788,180,0,0,0,2.8e4,1.35e4,19.961,0.106,NaN,2019.91,NaN,2.813e-4,1.878e4,4.47,-1.515e-4,1.262,-1.262,0.927,0.215,0.12,NaN,NaN,NaN,NaN,NaN,NaN,NaN,NaN,1.294e-5,165,213.825,84,0,0,15,1013.25,340.389,0.01,0.028
0.51,-4.758e-4,-0.095,-9.515,0.096,9.568,-5.001e-5,0,5.001e-5,180,0.01,1,22.175,120.893,9.788,180,0,0,0,2.8e4,1.35e4,19.961,0.106,NaN,2019.908,NaN,2.811e-4,1.876e4,4.657,-1.513e-4,1.262,-1.262,0.927,0.215,0.12,NaN,NaN,NaN,NaN,NaN,NaN,NaN,NaN,1.293e-5,165,213.825,84,0,0,15,1013.25,340.389,0.01,0.028
0.52,-4.75e-4,-0.095,-9.499,0.096,9.551,-4.992e-5,0,4.992e-5,180,0.01,0.998,22.175,120.893,9.788,180,0,0,0,2.8e4,1.35e4,19.961,0.106,NaN,2019.906,NaN,2.806e-4,1.873e4,5.115,-1.509e-4,1.263,-1.263,0.928,0.215,0.12,NaN,NaN,NaN,NaN,NaN,NaN,NaN,NaN,1.291e-5,165,213.825,84,0,0,15,1013.25,340.389,0.01,0.028
0.53,-4.746e-4,-0.095,-9.491,0.095,9.543,-4.988e-5,0,4.988e-5,180,0.01,0.998,22.175,120.893,9.788,180,0,0,0,2.8e4,1.35e4,19.961,0.106,NaN,2019.904,NaN,2.804e-4,1.872e4,5.339,-1.507e-4,1.263,-1.263,0.928,0.215,0.12,NaN,NaN,NaN,NaN,NaN,NaN,NaN,NaN,1.29e-5,165,213.825,84,0,0,15,1013.25,340.389,0.01,0.029
0.54,-4.758e-4,-0.095,-9.516,0.096,9.568,-5.001e-5,0,5.001e-5,180,0.01,1,22.175,120.893,9.788,180,0,0,0,2.8e4,1.35e4,19.961,0.106,NaN,2019.903,NaN,2.811e-4,1.877e4,4.638,-1.513e-4,1.262,-1.262,0.927,0.215,0.12,NaN,NaN,NaN,NaN,NaN,NaN,NaN,NaN,1.293e-5,165,213.825,84,0,0,15,1013.25,340.389,0.01,0.029
0.55,-4.755e-4,-0.095,-9.509,0.096,9.562,-4.997e-5,0,4.997e-5,180,0.01,0.999,22.175,120.893,9.788,180,0,0,0,2.8e4,1.35e4,19.961,0.106,NaN,2019.901,NaN,2.809e-4,1.875e4,4.82,-1.512e-4,1.262,-1.262,0.927,0.215,0.12,NaN,NaN,NaN,NaN,NaN,NaN,NaN,NaN,1.293e-5,165,213.825,84,0,0,15,1013.25,340.389,0.01,0.029
0.56,-4.749e-4,-0.095,-9.498,0.096,9.55,-4.991e-5,0,4.991e-5,180,0.01,0.998,22.175,120.893,9.788,180,0,0,0,2.8e4,1.35e4,19.961,0.106,NaN,2019.899,NaN,2.806e-4,1.873e4,5.14,-1.509e-4,1.263,-1.263,0.928,0.215,0.12,NaN,NaN,NaN,NaN,NaN,NaN,NaN,NaN,1.291e-5,165,213.825,84,0,0,15,1013.25,340.389,0.01,0.03
0.57,-4.749e-4,-0.095,-9.497,0.095,9.55,-4.991e-5,0,4.991e-5,180,0.01,0.998,22.175,120.893,9.788,180,0,0,0,2.8e4,1.35e4,19.961,0.106,NaN,2019.897,NaN,2.806e-4,1.873e4,5.164,-1.508e-4,1.263,-1.263,0.928,0.215,0.12,NaN,NaN,NaN,NaN,NaN,NaN,NaN,NaN,1.291e-5,165,213.825,84,0,0,15,1013.25,340.389,0.01,0.03
0.58,-4.749e-4,-0.095,-9.499,0.096,9.551,-4.992e-5,0,4.992e-5,180,0.01,0.998,22.175,120.893,9.788,180,0,0,0,2.8e4,1.35e4,19.961,0.106,NaN,2019.895,NaN,2.806e-4,1.873e4,5.125,-1.509e-4,1.263,-1.263,0.928,0.215,0.12,NaN,NaN,NaN,NaN,NaN,NaN,NaN,NaN,1.291e-5,165,213.825,84,0,0,15,1013.25,340.389,0.01,0.03
0.59,-4.746e-4,-0.095,-9.493,0.095,9.545,-4.989e-5,0,4.989e-5,180,0.01,0.998,22.175,120.893,9.788,180,0,0,0,2.8e4,1.35e4,19.961,0.106,NaN,2019.893,NaN,2.804e-4,1.872e4,5.296,-1.507e-4,1.263,-1.263,0.928,0.215,0.12,NaN,NaN,NaN,NaN,NaN,NaN,NaN,NaN,1.29e-5,165,213.825,84,0,0,15,1013.25,340.389,0.01,0.03
0.6,-4.741e-4,-0.095,-9.483,0.095,9.535,-4.984e-5,0,4.984e-5,180,0.01,0.997,22.175,120.893,9.788,180,0,0,0,2.8e4,1.349e4,19.961,0.106,NaN,2019.891,NaN,2.801e-4,1.87e4,5.567,-1.504e-4,1.263,-1.263,0.928,0.215,0.12,NaN,NaN,NaN,NaN,NaN,NaN,NaN,NaN,1.289e-5,165,213.825,84,0,0,15,1013.25,340.389,0.01,0.031
0.61,-4.739e-4,-0.095,-9.478,0.095,9.53,-4.981e-5,0,4.981e-5,180,0.01,0.996,22.175,120.893,9.788,180,0,0,0,2.8e4,1.349e4,19.961,0.106,NaN,2019.889,NaN,2.8e-4,1.869e4,5.717,-1.503e-4,1.263,-1.263,0.928,0.215,0.12,NaN,NaN,NaN,NaN,NaN,NaN,NaN,NaN,1.288e-5,165,213.825,84,0,0,15,1013.25,340.389,0.01,0.031
0.62,-4.745e-4,-0.095,-9.49,0.095,9.542,-4.987e-5,0,4.987e-5,180,0.01,0.997,22.175,120.893,9.788,180,0,0,0,2.8e4,1.349e4,19.961,0.106,NaN,2019.887,NaN,2.803e-4,1.871e4,5.366,-1.506e-4,1.263,-1.263,0.928,0.215,0.12,NaN,NaN,NaN,NaN,NaN,NaN,NaN,NaN,1.29e-5,165,213.825,84,0,0,15,1013.25,340.389,0.01,0.031
0.63,-4.737e-4,-0.095,-9.473,0.095,9.525,-4.978e-5,0,4.978e-5,180,0.01,0.996,22.175,120.893,9.788,180,0,0,0,2.799e4,1.349e4,19.961,0.106,NaN,2019.884,NaN,2.798e-4,1.868e4,5.844,-1.502e-4,1.264,-1.264,0.929,0.215,0.12,NaN,NaN,NaN,NaN,NaN,NaN,NaN,NaN,1.288e-5,165,213.825,84,0,0,15,1013.25,340.389,0.01,0.031
0.64,-4.738e-4,-0.095,-9.475,0.095,9.527,-4.979e-5,0,4.979e-5,180,0.01,0.996,22.175,120.893,9.788,180,0,0,0,2.799e4,1.349e4,19.961,0.106,NaN,2019.882,NaN,2.799e-4,1.868e4,5.786,-1.502e-4,1.264,-1.264,0.928,0.215,0.12,NaN,NaN,NaN,NaN,NaN,NaN,NaN,NaN,1.288e-5,165,213.825,84,0,0,15,1013.25,340.389,0.01,0.031
0.65,-4.734e-4,-0.095,-9.469,0.095,9.521,-4.976e-5,0,4.976e-5,180,0.01,0.995,22.175,120.893,9.788,180,0,0,0,2.799e4,1.349e4,19.961,0.106,NaN,2019.88,NaN,2.797e-4,1.867e4,5.968,-1.5e-4,1.264,-1.264,0.929,0.215,0.12,NaN,NaN,NaN,NaN,NaN,NaN,NaN,NaN,1.287e-5,165,213.825,84,0,0,15,1013.25,340.389,0.01,0.032
0.66,-4.724e-4,-0.094,-9.448,0.095,9.5,-4.965e-5,0,4.965e-5,180,0.01,0.993,22.175,120.893,9.788,180,0,0,0,2.799e4,1.349e4,19.961,0.106,NaN,2019.877,NaN,2.791e-4,1.863e4,6.551,-1.495e-4,1.264,-1.264,0.929,0.215,0.12,NaN,NaN,NaN,NaN,NaN,NaN,NaN,NaN,1.284e-5,165,213.825,84,0,0,15,1013.25,340.389,0.01,0.032
0.67,-4.721e-4,-0.094,-9.442,0.095,9.494,-4.962e-5,0,4.962e-5,180,0.01,0.992,22.175,120.893,9.788,180,0,0,0,2.799e4,1.349e4,19.961,0.106,NaN,2019.875,NaN,2.789e-4,1.862e4,6.72,-1.493e-4,1.265,-1.265,0.93,0.215,0.12,NaN,NaN,NaN,NaN,NaN,NaN,NaN,NaN,1.283e-5,165,213.825,84,0,0,15,1013.25,340.389,0.01,0.032
0.68,-4.711e-4,-0.094,-9.421,0.095,9.473,-4.951e-5,0,4.951e-5,180,0.01,0.99,22.175,120.893,9.788,180,0,0,0,2.799e4,1.349e4,19.961,0.106,NaN,2019.872,NaN,2.783e-4,1.858e4,7.299,-1.487e-4,1.265,-1.265,0.93,0.215,0.12,NaN,NaN,NaN,NaN,NaN,NaN,NaN,NaN,1.281e-5,165,213.825,84,0,0,15,1013.25,340.389,0.01,0.032
0.69,-4.708e-4,-0.094,-9.415,0.095,9.467,-4.948e-5,0,4.948e-5,180,0.01,0.99,22.175,120.893,9.788,180,0,0,0,2.799e4,1.349e4,19.961,0.106,NaN,2019.869,NaN,2.781e-4,1.857e4,7.467,-1.485e-4,1.265,-1.265,0.93,0.215,0.12,NaN,NaN,NaN,NaN,NaN,NaN,NaN,NaN,1.28e-5,165,213.825,84,0,0,15,1013.25,340.389,0.01,0.037
0.7,-4.699e-4,-0.094,-9.398,0.095,9.45,-4.939e-5,0,4.939e-5,180,0.01,0.988,22.175,120.893,9.788,180,0,0,0,2.799e4,1.349e4,19.961,0.106,NaN,2019.866,NaN,2.776e-4,1.853e4,7.951,-1.481e-4,1.266,-1.266,0.931,0.215,0.12,NaN,NaN,NaN,NaN,NaN,NaN,NaN,NaN,1.277e-5,165,213.825,84,0,0,15,1013.25,340.389,0.01,0.037
0.71,-4.682e-4,-0.094,-9.363,0.094,9.415,-4.921e-5,0,4.921e-5,180,0.01,0.984,22.175,120.893,9.788,180,0,0,0,2.799e4,1.349e4,19.96,0.106,NaN,2019.863,NaN,2.766e-4,1.846e4,8.938,-1.471e-4,1.267,-1.267,0.932,0.215,0.12,NaN,NaN,NaN,NaN,NaN,NaN,NaN,NaN,1.273e-5,165,213.825,84,0,0,15,1013.25,340.389,0.01,0.038
0.72,-4.676e-4,-0.094,-9.352,0.094,9.403,-4.915e-5,0,4.915e-5,180,0.01,0.983,22.175,120.893,9.788,180,0,0,0,2.799e4,1.349e4,19.96,0.106,NaN,2019.859,NaN,2.763e-4,1.844e4,9.255,-1.468e-4,1.268,-1.268,0.932,0.215,0.12,NaN,NaN,NaN,NaN,NaN,NaN,NaN,NaN,1.271e-5,165,213.825,84,0,0,15,1013.25,340.389,0.01,0.038
0.73,-4.659e-4,-0.093,-9.319,0.094,9.37,-4.897e-5,0,4.897e-5,180,0.01,0.979,22.175,120.893,9.788,180,0,0,0,2.799e4,1.349e4,19.96,0.106,NaN,2019.855,NaN,2.753e-4,1.838e4,10.185,-1.459e-4,1.269,-1.269,0.934,0.215,0.12,NaN,NaN,NaN,NaN,NaN,NaN,NaN,NaN,1.267e-5,165,213.825,84,0,0,15,1013.25,340.389,0.01,0.038
0.74,-4.64e-4,-0.093,-9.28,0.093,9.331,-4.877e-5,0,4.877e-5,180,0.01,0.975,22.175,120.893,9.788,180,0,0,0,2.799e4,1.349e4,19.96,0.106,NaN,2019.851,NaN,2.741e-4,1.83e4,11.275,-1.448e-4,1.27,-1.27,0.935,0.215,0.12,NaN,NaN,NaN,NaN,NaN,NaN,NaN,NaN,1.261e-5,165,213.825,84,0,0,15,1013.25,340.389,0.01,0.038
0.75,-4.621e-4,-0.092,-9.243,0.093,9.294,-4.857e-5,0,4.857e-5,180,0.01,0.971,22.175,120.893,9.788,180,0,0,0,2.799e4,1.349e4,19.96,0.106,NaN,2019.846,NaN,2.73e-4,1.823e4,12.322,-1.438e-4,1.271,-1.271,0.936,0.215,0.12,NaN,NaN,NaN,NaN,NaN,NaN,NaN,NaN,1.256e-5,165,213.825,84,0,0,15,1013.25,340.389,0.01,0.039
0.76,-4.598e-4,-0.092,-9.195,0.092,9.246,-4.832e-5,0,4.832e-5,180,0.01,0.966,22.175,120.893,9.788,180,0,0,0,2.799e4,1.349e4,19.96,0.106,NaN,2019.841,NaN,2.716e-4,1.813e4,13.663,-1.425e-4,1.273,-1.273,0.938,0.215,0.12,NaN,NaN,NaN,NaN,NaN,NaN,NaN,NaN,1.25e-5,165,213.825,84,0,0,15,1013.25,340.389,0.01,0.039
0.77,-4.586e-4,-0.092,-9.173,0.092,9.223,-4.82e-5,0,4.82e-5,180,0.01,0.964,22.175,120.893,9.788,180,0,0,0,2.799e4,1.349e4,19.96,0.106,NaN,2019.836,NaN,2.71e-4,1.809e4,14.302,-1.419e-4,1.273,-1.273,0.938,0.215,0.12,NaN,NaN,NaN,NaN,NaN,NaN,NaN,NaN,1.247e-5,165,213.825,84,0,0,15,1013.25,340.389,0.01,0.039
0.78,-4.56e-4,-0.091,-9.12,0.092,9.171,-4.793e-5,0,4.793e-5,180,0.01,0.959,22.175,120.893,9.788,180,0,0,0,2.799e4,1.349e4,19.96,0.106,NaN,2019.83,NaN,2.694e-4,1.799e4,15.77,-1.405e-4,1.275,-1.275,0.94,0.215,0.12,NaN,NaN,NaN,NaN,NaN,NaN,NaN,NaN,1.24e-5,165,213.825,84,0,0,15,1013.25,340.389,0.01,0.04
0.79,-4.54e-4,-0.091,-9.079,0.091,9.129,-4.771e-5,0,4.771e-5,180,0.01,0.954,22.175,120.893,9.788,180,0,0,0,2.799e4,1.349e4,19.96,0.106,NaN,2019.823,NaN,2.682e-4,1.79e4,16.927,-1.394e-4,1.277,-1.277,0.942,0.215,0.12,NaN,NaN,NaN,NaN,NaN,NaN,NaN,NaN,1.234e-5,165,213.825,84,0,0,15,1013.25,340.389,0.01,0.04
0.8,-4.518e-4,-0.09,-9.037,0.091,9.087,-4.749e-5,0,4.749e-5,180,0.009,0.95,22.175,120.893,9.788,180,0,0,0,2.799e4,1.349e4,19.96,0.106,NaN,2019.816,NaN,2.67e-4,1.782e4,18.121,-1.382e-4,1.278,-1.278,0.943,0.215,0.12,NaN,NaN,NaN,NaN,NaN,NaN,NaN,NaN,1.228e-5,165,213.825,84,0,0,15,1013.25,340.389,0.01,0.04
0.81,-4.495e-4,-0.09,-8.99,0.09,9.04,-4.725e-5,0,4.725e-5,180,0.009,0.945,22.175,120.893,9.788,180,0,0,0,2.799e4,1.349e4,19.96,0.106,NaN,2019.809,NaN,2.656e-4,1.773e4,19.438,-1.37e-4,1.28,-1.28,0.945,0.215,0.12,NaN,NaN,NaN,NaN,NaN,NaN,NaN,NaN,1.222e-5,165,213.825,84,0,0,15,1013.25,340.389,0.01,0.041
0.82,-4.482e-4,-0.09,-8.965,0.09,9.014,-4.711e-5,0,4.711e-5,180,0.009,0.942,22.175,120.893,9.788,180,0,0,0,2.799e4,1.349e4,19.959,0.106,NaN,2019.801,NaN,2.648e-4,1.768e4,20.155,-1.363e-4,1.281,-1.281,0.946,0.215,0.12,NaN,NaN,NaN,NaN,NaN,NaN,NaN,NaN,1.218e-5,165,213.825,84,0,0,15,1013.25,340.389,0.01,0.041
0.83,-4.434e-4,-0.089,-8.867,0.089,8.916,-4.66e-5,0,4.66e-5,180,0.009,0.932,22.175,120.893,9.788,180,0,0,0,2.799e4,1.349e4,19.959,0.106,NaN,2019.793,NaN,2.619e-4,1.749e4,22.899,-1.337e-4,1.284,-1.284,0.949,0.215,0.12,NaN,NaN,NaN,NaN,NaN,NaN,NaN,NaN,1.205e-5,165,213.825,84,0,0,15,1013.25,340.389,0.01,0.041
0.84,-4.345e-4,-0.087,-8.69,0.087,8.738,-4.567e-5,0,4.567e-5,180,0.009,0.913,22.175,120.893,9.788,180,0,0,0,2.799e4,1.349e4,19.959,0.106,NaN,2019.782,NaN,2.567e-4,1.714e4,27.886,-1.29e-4,1.29,-1.29,0.955,0.215,0.12,NaN,NaN,NaN,NaN,NaN,NaN,NaN,NaN,1.181e-5,165,213.825,84,0,0,15,1013.25,340.389,0.01,0.041
0.85,-4.271e-4,-0.085,-8.542,0.086,8.589,-4.489e-5,0,4.489e-5,180,0.009,0.898,22.175,120.893,9.788,180,0,0,0,2.799e4,1.349e4,19.959,0.106,NaN,2019.77,NaN,2.523e-4,1.685e4,32.036,-1.252e-4,1.296,-1.296,0.961,0.215,0.12,NaN,NaN,NaN,NaN,NaN,NaN,NaN,NaN,1.161e-5,165,213.825,84,0,0,15,1013.25,340.389,0.01,0.041
0.86,-4.194e-4,-0.084,-8.388,0.084,8.434,-4.408e-5,0,4.408e-5,180,0.009,0.882,22.175,120.893,9.788,180,0,0,0,2.799e4,1.349e4,19.959,0.106,NaN,2019.756,NaN,2.478e-4,1.654e4,36.392,-1.213e-4,1.302,-1.302,0.967,0.215,0.12,NaN,NaN,NaN,NaN,NaN,NaN,NaN,NaN,1.14e-5,165,213.825,84,0,0,15,1013.25,340.389,0.01,0.041
0.87,-4.119e-4,-0.082,-8.239,0.083,8.284,-4.33e-5,0,4.33e-5,180,0.009,0.866,22.175,120.893,9.788,180,0,0,0,2.799e4,1.349e4,19.958,0.106,NaN,2019.74,NaN,2.434e-4,1.625e4,40.581,-1.175e-4,1.308,-1.308,0.973,0.215,0.12,NaN,NaN,NaN,NaN,NaN,NaN,NaN,NaN,1.12e-5,165,213.825,84,0,0,15,1013.25,340.389,0.01,0.042
0.88,-4.047e-4,-0.081,-8.093,0.081,8.138,-4.253e-5,0,4.253e-5,180,0.009,0.851,22.175,120.893,9.788,180,0,0,0,2.799e4,1.349e4,19.958,0.106,NaN,2019.723,NaN,2.391e-4,1.596e4,44.682,-1.139e-4,1.313,-1.313,0.978,0.215,0.12,NaN,NaN,NaN,NaN,NaN,NaN,NaN,NaN,1.1e-5,165,213.825,84,0,0,15,1013.25,340.389,0.01,0.042
0.89,-3.982e-4,-0.08,-7.965,0.08,8.008,-4.186e-5,0,4.186e-5,180,0.008,0.837,22.175,120.893,9.788,180,0,0,0,2.799e4,1.349e4,19.958,0.106,NaN,2019.705,NaN,2.353e-4,1.571e4,48.294,-1.108e-4,1.319,-1.319,0.984,0.215,0.12,NaN,NaN,NaN,NaN,NaN,NaN,NaN,NaN,1.083e-5,165,213.825,84,0,0,15,1013.25,340.389,0.01,0.042
0.9,-3.921e-4,-0.078,-7.842,0.079,7.885,-4.121e-5,0,4.121e-5,180,0.008,0.824,22.175,120.893,9.788,180,0,0,0,2.799e4,1.349e4,19.957,0.106,NaN,2019.685,NaN,2.316e-4,1.546e4,51.752,-1.078e-4,1.324,-1.324,0.989,0.215,0.12,NaN,NaN,NaN,NaN,NaN,NaN,NaN,NaN,1.066e-5,165,213.825,84,0,0,15,1013.25,340.389,0.01,0.043
0.91,-3.84e-4,-0.077,-7.679,0.077,7.722,-4.036e-5,0,4.036e-5,180,0.008,0.807,22.175,120.893,9.788,180,0,0,0,2.798e4,1.348e4,19.957,0.106,NaN,2019.664,NaN,2.268e-4,1.514e4,56.319,-1.039e-4,1.331,-1.331,0.996,0.215,0.12,NaN,NaN,NaN,NaN,NaN,NaN,NaN,NaN,1.044e-5,165,213.825,84,0,0,15,1013.25,340.389,0.01,0.043
0.92,-3.761e-4,-0.075,-7.522,0.076,7.563,-3.953e-5,0,3.953e-5,180,0.008,0.791,22.175,120.893,9.788,180,0,0,0,2.798e4,1.348e4,19.957,0.106,NaN,2019.641,NaN,2.222e-4,1.483e4,60.748,-1.002e-4,1.338,-1.338,1.003,0.215,0.12,NaN,NaN,NaN,NaN,NaN,NaN,NaN,NaN,1.022e-5,165,213.825,84,0,0,15,1013.25,340.389,0.01,0.043
0.93,-3.643e-4,-0.073,-7.286,0.073,7.326,-3.829e-5,0,3.829e-5,180,0.008,0.766,22.175,120.893,9.788,180,0,0,0,2.798e4,1.348e4,19.956,0.106,NaN,2019.615,NaN,2.152e-4,1.437e4,67.387,-9.482e-5,1.349,-1.349,1.014,0.215,0.12,NaN,NaN,NaN,NaN,NaN,NaN,NaN,NaN,9.903e-6,165,213.825,84,0,0,15,1013.25,340.389,0.01,0.044
0.94,-3.499e-4,-0.07,-6.999,0.07,7.037,-3.678e-5,0,3.678e-5,180,0.007,0.736,22.175,120.893,9.788,180,0,0,0,2.798e4,1.348e4,19.956,0.106,NaN,2019.586,NaN,2.067e-4,1.38e4,75.455,-8.841e-5,1.363,-1.363,1.028,0.215,0.12,NaN,NaN,NaN,NaN,NaN,NaN,NaN,NaN,9.513e-6,165,213.825,84,0,0,15,1013.25,340.389,0.01,0.044
0.95,-3.337e-4,-0.067,-6.674,0.067,6.71,-3.507e-5,0,3.507e-5,180,0.007,0.701,22.175,120.893,9.788,180,0,0,0,2.798e4,1.348e4,19.955,0.106,NaN,2019.554,NaN,1.971e-4,1.316e4,84.603,-8.139e-5,1.38,-1.38,1.045,0.215,0.12,NaN,NaN,NaN,NaN,NaN,NaN,NaN,NaN,9.071e-6,165,213.825,84,0,0,15,1013.25,340.389,0.01,0.044
0.96,-3.135e-4,-0.063,-6.271,0.063,6.305,-3.295e-5,0,3.295e-5,180,0.007,0.659,22.175,120.893,9.788,180,0,0,0,2.798e4,1.348e4,19.954,0.106,NaN,2019.517,NaN,1.852e-4,1.237e4,95.934,-7.306e-5,1.403,-1.403,1.068,0.215,0.12,NaN,NaN,NaN,NaN,NaN,NaN,NaN,NaN,8.523e-6,165,213.825,84,0,0,15,1013.25,340.389,0.01,0.045
0.97,-2.933e-4,-0.059,-5.865,0.059,5.898,-3.082e-5,0,3.082e-5,180,0.006,0.616,22.175,120.893,9.788,180,0,0,0,2.798e4,1.348e4,19.954,0.106,NaN,2019.476,NaN,1.733e-4,1.157e4,107.326,-6.508e-5,1.429,-1.429,1.094,0.215,0.12,NaN,NaN,NaN,NaN,NaN,NaN,NaN,NaN,7.972e-6,165,213.825,84,0,0,15,1013.25,340.389,0.01,0.045
0.98,-2.671e-4,-0.053,-5.342,0.054,5.372,-2.808e-5,0,2.808e-5,180,0.006,0.561,22.175,120.893,9.788,180,0,0,0,2.797e4,1.347e4,19.953,0.106,NaN,2019.43,NaN,1.578e-4,1.053e4,122.033,-5.54e-5,1.466,-1.466,1.131,0.215,0.12,NaN,NaN,NaN,NaN,NaN,NaN,NaN,NaN,7.261e-6,165,213.825,84,0,0,15,1013.25,340.389,0.01,0.045
0.99,-2.333e-4,-0.047,-4.667,0.047,4.692,-2.453e-5,0,2.453e-5,180,0.005,0.49,22.175,120.893,9.788,180,0,0,0,2.797e4,1.347e4,19.952,0.106,NaN,2019.376,NaN,1.379e-4,9202.856,141.022,-4.286e-5,1.486,-1.486,1.151,0.215,0.12,NaN,NaN,NaN,NaN,NaN,NaN,NaN,NaN,6.343e-6,165,213.825,84,0,0,15,1013.25,340.389,0.01,0.045
1,-1.839e-4,-0.037,-3.678,0.037,3.699,-1.933e-5,0,1.933e-5,180,0.004,0.387,22.175,120.893,9.788,180,0,0,0,2.797e4,1.347e4,19.951,0.106,NaN,2019.312,NaN,1.087e-4,7254.411,168.795,-2.664e-5,1.486,-1.486,1.151,0.215,0.12,NaN,NaN,NaN,NaN,NaN,NaN,NaN,NaN,5e-6,165,213.825,84,0,0,15,1013.25,340.389,0.01,0.046
1.01,-1.138e-4,-0.023,-2.275,0.023,2.288,-1.196e-5,0,1.196e-5,180,0.002,0.239,22.175,120.893,9.788,180,0,0,0,2.796e4,1.346e4,19.949,0.106,NaN,2019.232,NaN,6.723e-5,4488.169,208.221,-1.02e-5,1.486,-1.486,1.151,0.215,0.12,NaN,NaN,NaN,NaN,NaN,NaN,NaN,NaN,3.094e-6,165,213.825,84,0,0,15,1013.25,340.389,0.01,0.046
1.02,-4.855e-5,-0.01,-0.97,0.01,0.975,-5.103e-6,0,5.103e-6,180,0.001,0.102,22.175,120.893,9.788,0,0,0,0,2.796e4,1.346e4,19.948,0.106,NaN,2019.139,NaN,2.868e-5,1914.388,244.886,1.855e-6,1.486,1.486,1.151,0.215,0.12,NaN,NaN,NaN,NaN,NaN,NaN,NaN,NaN,1.32e-6,165,213.825,84,0,0,15,1013.25,340.389,0.01,0.046
1.03,2.205e-5,0.004,0.442,0.004,0.445,2.317e-6,0,2.317e-6,0,4.638e-4,0.046,22.175,120.893,9.788,0,0,0,0,2.795e4,1.345e4,19.946,0.106,NaN,2019.03,NaN,1.303e-5,870.123,284.538,3.832e-7,1.486,1.486,1.151,0.215,0.12,NaN,NaN,NaN,NaN,NaN,NaN,NaN,NaN,5.998e-7,165,213.825,84,0,0,15,1013.25,340.389,0.01,0.046
1.04,1.641e-4,0.024,1.96,0.024,1.971,1.725e-5,0,1.725e-5,0,0.003,0.206,22.175,120.893,9.788,0,0,0,0,2.795e4,1.345e4,19.943,0.106,NaN,2018.905,NaN,7.091e-5,4733.506,327.142,1.134e-5,1.486,1.486,1.151,0.215,0.12,NaN,NaN,NaN,NaN,NaN,NaN,NaN,NaN,3.263e-6,165,213.825,84,0,0,15,1013.25,340.389,0.01,0.047
1.05,5.833e-4,0.06,3.585,0.06,3.604,6.13e-5,0,6.13e-5,0,0.006,0.377,22.175,120.893,9.788,0,0,0,0,2.794e4,1.344e4,19.941,0.106,NaN,2018.763,NaN,1.767e-4,1.18e4,372.693,6.736e-5,1.421,1.421,1.086,0.215,0.12,NaN,NaN,NaN,NaN,NaN,NaN,NaN,NaN,8.133e-6,165,213.825,84,0,0,15,1013.25,340.389,0.01,0.047
1.06,0.001,0.115,5.563,0.116,5.594,1.534e-4,0,1.534e-4,0,0.012,0.585,22.175,120.893,9.788,0,0,0,0,2.793e4,1.343e4,19.938,0.106,NaN,2018.599,NaN,3.41e-4,2.277e4,428.171,2.129e-4,1.206,1.206,0.871,0.215,0.12,NaN,NaN,NaN,NaN,NaN,NaN,NaN,NaN,1.569e-5,165,213.825,84,0,0,15,1013.25,340.389,0.01,0.048
1.07,0.003,0.191,7.517,0.192,7.558,3.142e-4,0,3.142e-4,0,0.02,0.79,22.175,120.893,9.788,0,0,0,0,2.792e4,1.342e4,19.935,0.106,NaN,2018.415,NaN,5.63e-4,3.758e4,482.882,5.207e-4,1.083,1.083,0.747,0.215,0.12,NaN,NaN,NaN,NaN,NaN,NaN,NaN,NaN,2.59e-5,165,213.825,84,0,0,15,1013.25,340.389,0.01,0.048
1.08,0.005,0.288,9.758,0.29,9.812,5.658e-4,0,5.658e-4,0,0.03,1.026,22.175,120.893,9.788,0,0,0,0,2.791e4,1.341e4,19.931,0.106,NaN,2018.206,NaN,8.511e-4,5.682e4,545.617,0.001,0.999,0.999,0.664,0.215,0.12,NaN,NaN,NaN,NaN,NaN,NaN,NaN,NaN,3.916e-5,165,213.825,84,0,0,15,1013.249,340.389,0.01,0.048
1.09,0.009,0.411,12.305,0.413,12.373,9.333e-4,0,9.333e-4,0,0.043,1.293,22.175,120.893,9.788,0,0,0,0,2.79e4,1.34e4,19.927,0.106,NaN,2017.969,NaN,0.001,8.107e4,616.859,0.002,0.938,0.938,0.603,0.215,0.12,NaN,NaN,NaN,NaN,NaN,NaN,NaN,NaN,5.588e-5,165,213.825,84,0,0,15,1013.249,340.389,0.01,0.048
1.1,0.014,0.563,15.219,0.566,15.303,0.001,0,0.001,0,0.059,1.6,22.175,120.893,9.788,0,0,0,0,2.789e4,1.339e4,19.922,0.106,NaN,2017.702,NaN,0.002,1.111e5,698.307,0.004,0.891,0.891,0.556,0.215,0.12,NaN,NaN,NaN,NaN,NaN,NaN,NaN,NaN,7.656e-5,165,213.825,84,0,0,15,1013.248,340.389,0.01,0.048
1.11,0.02,0.746,18.289,0.75,18.39,0.002,0,0.002,0,0.078,1.922,22.175,120.893,9.788,0,0,0,0,2.788e4,1.338e4,19.917,0.106,NaN,2017.401,NaN,0.002,1.471e5,784.022,0.006,0.854,0.854,0.519,0.215,0.12,NaN,NaN,NaN,NaN,NaN,NaN,NaN,NaN,1.014e-4,165,213.825,84,0,0,15,1013.248,340.389,0.01,0.049
1.12,0.029,0.96,21.44,0.966,21.558,0.003,0,0.003,0,0.101,2.253,22.175,120.893,9.788,0,0,0,0,2.786e4,1.336e4,19.911,0.106,NaN,2017.066,NaN,0.003,1.894e5,871.849,0.01,0.823,0.823,0.488,0.215,0.12,NaN,NaN,NaN,NaN,NaN,NaN,NaN,NaN,1.305e-4,165,213.825,84,0,0,15,1013.247,340.389,0.01,0.049
1.13,0.04,1.207,24.646,1.213,24.781,0.004,0,0.004,0,0.127,2.59,22.175,120.893,9.788,0,0,0,0,2.784e4,1.334e4,19.904,0.106,NaN,2016.696,NaN,0.004,2.38e5,961.049,0.015,0.798,0.798,0.462,0.215,0.12,NaN,NaN,NaN,NaN,NaN,NaN,NaN,NaN,1.64e-4,165,213.825,84,0,0,15,1013.245,340.389,0.01,0.049
1.14,0.053,1.482,27.565,1.49,27.717,0.006,0,0.006,0,0.156,2.897,22.175,120.893,9.788,0,0,0,0,2.782e4,1.332e4,19.897,0.106,NaN,2016.295,NaN,0.004,2.923e5,1042.073,0.023,0.776,0.776,0.441,0.215,0.12,NaN,NaN,NaN,NaN,NaN,NaN,NaN,NaN,2.015e-4,165,213.825,84,0,0,15,1013.244,340.389,0.01,0.05
1.15,0.069,1.783,30.094,1.793,30.26,0.007,0,0.007,0,0.187,3.163,22.175,120.893,9.788,0,0,0,0,2.78e4,1.33e4,19.889,0.106,NaN,2015.866,NaN,0.005,3.516e5,1112.029,0.032,0.758,0.758,0.423,0.215,0.12,NaN,NaN,NaN,NaN,NaN,NaN,NaN,NaN,2.424e-4,165,213.825,84,0,0,15,1013.242,340.389,0.01,0.05
1.16,0.089,2.106,32.29,2.117,32.468,0.009,0,0.009,0,0.221,3.394,22.175,120.893,9.788,0,0,0,0,2.778e4,1.328e4,19.881,0.106,NaN,2015.413,NaN,0.006,4.153e5,1172.553,0.044,0.743,0.743,0.408,0.215,0.12,NaN,NaN,NaN,NaN,NaN,NaN,NaN,NaN,2.862e-4,165,213.825,84,0,0,14.999,1013.24,340.389,0.01,0.05
1.17,0.112,2.446,34.03,2.459,34.217,0.012,0,0.012,0,0.257,3.577,22.175,120.893,9.788,0,0,0,0,2.776e4,1.326e4,19.873,0.105,NaN,2014.941,NaN,0.007,4.823e5,1220.187,0.058,0.73,0.73,0.395,0.215,0.12,NaN,NaN,NaN,NaN,NaN,NaN,NaN,NaN,3.325e-4,165,213.825,84,0,0,14.999,1013.237,340.388,0.01,0.05
1.18,0.138,2.799,35.307,2.814,35.501,0.014,0,0.014,0,0.294,3.711,22.175,120.893,9.788,0,0,0,0,2.774e4,1.324e4,19.864,0.105,NaN,2014.455,NaN,0.008,5.519e5,1254.818,0.075,0.719,0.719,0.384,0.215,0.12,NaN,NaN,NaN,NaN,NaN,NaN,NaN,NaN,3.804e-4,165,213.825,84,0,0,14.999,1013.234,340.388,0.01,0.05
1.19,0.168,3.16,36.109,3.177,36.308,0.018,0,0.018,0,0.332,3.795,22.175,120.893,9.788,0,0,0,0,2.771e4,1.321e4,19.855,0.105,NaN,2013.959,NaN,0.009,6.231e5,1276.135,0.094,0.71,0.71,0.374,0.215,0.12,NaN,NaN,NaN,NaN,NaN,NaN,NaN,NaN,4.295e-4,165,213.825,84,0,0,14.999,1013.23,340.388,0.01,0.051
1.2,0.201,3.526,36.662,3.546,36.864,0.021,0,0.021,0,0.371,3.853,22.175,120.893,9.788,0,0,0,0,2.769e4,1.319e4,19.846,0.105,NaN,2013.458,NaN,0.01,6.953e5,1290.479,0.115,0.701,0.701,0.366,0.215,0.12,NaN,NaN,NaN,NaN,NaN,NaN,NaN,NaN,4.793e-4,165,213.825,84,0,0,14.999,1013.226,340.388,0.01,0.051
1.21,0.238,3.896,36.969,3.917,37.172,0.025,0,0.025,0,0.409,3.886,22.175,120.893,9.788,0,0,0,0,2.767e4,1.317e4,19.837,0.105,NaN,2012.952,NaN,0.012,7.682e5,1297.933,0.139,0.694,0.694,0.359,0.215,0.12,NaN,NaN,NaN,NaN,NaN,NaN,NaN,NaN,5.295e-4,165,213.825,84,0,0,14.998,1013.222,340.388,0.01,0.051
1.22,0.279,4.266,37.028,4.289,37.232,0.029,0,0.029,0,0.448,3.892,22.175,120.893,9.788,0,0,0,0,2.764e4,1.314e4,19.828,0.105,NaN,2012.446,NaN,0.013,8.412e5,1298.512,0.166,0.687,0.687,0.352,0.215,0.12,NaN,NaN,NaN,NaN,NaN,NaN,NaN,NaN,5.798e-4,165,213.825,84,0,0,14.998,1013.217,340.388,0.01,0.051
1.23,0.324,4.636,37.072,4.662,37.276,0.034,0,0.034,0,0.487,3.896,22.175,120.893,9.788,0,0,0,0,2.762e4,1.312e4,19.819,0.105,NaN,2011.938,NaN,0.014,9.142e5,1298.633,0.194,0.681,0.681,0.346,0.215,0.12,NaN,NaN,NaN,NaN,NaN,NaN,NaN,NaN,6.302e-4,165,213.825,84,0,0,14.998,1013.212,340.388,0.01,0.051
1.24,0.372,5.006,36.978,5.033,37.182,0.039,0,0.039,0,0.526,3.887,22.175,120.893,9.788,0,0,0,0,2.76e4,1.31e4,19.81,0.105,NaN,2011.431,NaN,0.015,9.871e5,1294.965,0.224,0.676,0.676,0.341,0.215,0.12,NaN,NaN,NaN,NaN,NaN,NaN,NaN,NaN,6.804e-4,165,213.825,84,0,0,14.998,1013.206,340.387,0.01,0.052
1.25,0.424,5.375,36.893,5.404,37.096,0.045,0,0.045,0,0.565,3.878,22.175,120.893,9.788,0,0,0,0,2.757e4,1.307e4,19.801,0.105,NaN,2010.925,NaN,0.016,1.06e6,1291.53,0.257,0.671,0.671,0.336,0.215,0.12,NaN,NaN,NaN,NaN,NaN,NaN,NaN,NaN,7.305e-4,165,213.825,84,0,0,14.997,1013.2,340.387,0.01,0.052
1.26,0.479,5.742,36.806,5.774,37.008,0.05,0,0.05,0,0.604,3.868,22.175,120.893,9.788,0,0,0,0,2.755e4,1.305e4,19.792,0.105,NaN,2010.419,NaN,0.017,1.132e6,1288.052,0.291,0.667,0.667,0.332,0.215,0.12,NaN,NaN,NaN,NaN,NaN,NaN,NaN,NaN,7.805e-4,165,213.825,84,0,0,14.997,1013.194,340.387,0.01,0.052
1.27,0.538,6.109,36.694,6.143,36.896,0.057,0,0.057,0,0.642,3.857,22.175,120.893,9.788,0,0,0,0,2.753e4,1.303e4,19.783,0.105,NaN,2009.914,NaN,0.018,1.205e6,1283.912,0.328,0.663,0.663,0.328,0.215,0.12,NaN,NaN,NaN,NaN,NaN,NaN,NaN,NaN,8.304e-4,165,213.825,84,0,0,14.996,1013.187,340.387,0.01,0.052
1.28,0.601,6.476,36.662,6.511,36.864,0.063,0,0.063,0,0.681,3.853,22.175,120.893,9.788,0,0,0,0,2.75e4,1.3e4,19.774,0.105,NaN,2009.409,NaN,0.019,1.277e6,1281.967,0.366,0.659,0.659,0.324,0.215,0.12,NaN,NaN,NaN,NaN,NaN,NaN,NaN,NaN,8.802e-4,165,213.825,84,0,0,14.996,1013.179,340.387,0.01,0.054
1.29,0.668,6.841,36.58,6.879,36.781,0.07,0,0.07,0,0.719,3.845,22.175,120.893,9.788,0,0,0,0,2.748e4,1.298e4,19.765,0.105,NaN,2008.904,NaN,0.02,1.349e6,1278.651,0.406,0.656,0.656,0.321,0.215,0.12,NaN,NaN,NaN,NaN,NaN,NaN,NaN,NaN,9.299e-4,165,213.825,84,0,0,14.996,1013.172,340.386,0.01,0.054
1.3,0.738,7.206,36.539,7.246,36.74,0.078,0,0.078,0,0.757,3.84,22.175,120.893,9.788,0,0,0,0,2.746e4,1.296e4,19.756,0.105,NaN,2008.399,NaN,0.021,1.421e6,1276.485,0.449,0.653,0.653,0.318,0.215,0.12,NaN,NaN,NaN,NaN,NaN,NaN,NaN,NaN,9.795e-4,165,213.825,84,0,0,14.995,1013.163,340.386,0.01,0.054
1.31,0.812,7.572,36.534,7.613,36.735,0.085,0,0.085,0,0.796,3.84,22.175,120.893,9.788,0,0,0,0,2.743e4,1.293e4,19.747,0.105,NaN,2007.894,NaN,0.022,1.493e6,1275.318,0.493,0.65,0.65,0.315,0.215,0.12,NaN,NaN,NaN,NaN,NaN,NaN,NaN,NaN,0.001,165,213.825,84,0,0,14.995,1013.155,340.386,0.01,0.055
1.32,0.89,7.936,36.506,7.98,36.707,0.094,0,0.094,0,0.834,3.837,22.175,120.893,9.788,0,0,0,0,2.741e4,1.291e4,19.738,0.105,NaN,2007.388,NaN,0.023,1.565e6,1273.528,0.54,0.647,0.647,0.312,0.215,0.12,NaN,NaN,NaN,NaN,NaN,NaN,NaN,NaN,0.001,165,213.825,84,0,0,14.994,1013.146,340.385,0.01,0.055
1.33,0.971,8.302,36.557,8.348,36.758,0.102,0,0.102,0,0.873,3.842,22.175,120.893,9.788,0,0,0,0,2.739e4,1.289e4,19.729,0.105,NaN,2006.882,NaN,0.025,1.637e6,1273.891,0.588,0.644,0.644,0.309,0.215,0.12,NaN,NaN,NaN,NaN,NaN,NaN,NaN,NaN,0.001,165,213.825,84,0,0,14.994,1013.136,340.385,0.01,0.055
1.34,1.056,8.667,36.534,8.715,36.735,0.111,0,0.111,0,0.911,3.84,22.175,120.893,9.788,0,0,0,0,2.736e4,1.286e4,19.72,0.105,NaN,2006.376,NaN,0.026,1.709e6,1272.247,0.638,0.642,0.642,0.307,0.215,0.12,NaN,NaN,NaN,NaN,NaN,NaN,NaN,NaN,0.001,165,213.825,84,0,0,14.993,1013.126,340.385,0.01,0.055
1.35,1.144,9.032,36.545,9.082,36.746,0.12,0,0.12,0,0.949,3.841,22.175,120.893,9.788,0,0,0,0,2.734e4,1.284e4,19.711,0.105,NaN,2005.868,NaN,0.027,1.781e6,1271.517,0.691,0.64,0.64,0.304,0.215,0.12,NaN,NaN,NaN,NaN,NaN,NaN,NaN,NaN,0.001,165,213.825,84,0,0,14.993,1013.116,340.384,0.01,0.055
1.36,1.236,9.398,36.583,9.45,36.784,0.13,0,0.13,0,0.988,3.845,22.175,120.893,9.788,0,0,0,0,2.732e4,1.282e4,19.702,0.105,NaN,2005.361,NaN,0.028,1.853e6,1271.539,0.745,0.637,0.637,0.302,0.215,0.12,NaN,NaN,NaN,NaN,NaN,NaN,NaN,NaN,0.001,165,213.825,84,0,0,14.992,1013.105,340.384,0.01,0.056
1.37,1.332,9.764,36.6,9.817,36.801,0.14,0,0.14,0,1.026,3.847,22.175,120.893,9.788,0,0,0,0,2.729e4,1.279e4,19.693,0.105,NaN,2004.852,NaN,0.029,1.925e6,1270.983,0.802,0.635,0.635,0.3,0.215,0.12,NaN,NaN,NaN,NaN,NaN,NaN,NaN,NaN,0.001,165,213.825,84,0,0,14.991,1013.094,340.384,0.01,0.056
1.38,1.432,10.131,36.716,10.186,36.919,0.15,0,0.15,0,1.065,3.859,22.175,120.893,9.788,0,0,0,0,2.727e4,1.277e4,19.684,0.105,NaN,2004.342,NaN,0.03,1.998e6,1273.167,0.86,0.633,0.633,0.298,0.215,0.12,NaN,NaN,NaN,NaN,NaN,NaN,NaN,NaN,0.001,165,213.825,84,0,0,14.991,1013.082,340.383,0.01,0.056
1.39,1.535,10.498,36.758,10.556,36.96,0.161,0,0.161,0,1.103,3.863,22.175,120.893,9.788,0,0,0,0,2.725e4,1.275e4,19.675,0.105,NaN,2003.83,NaN,0.031,2.07e6,1273.278,0.921,0.631,0.631,0.296,0.215,0.12,NaN,NaN,NaN,NaN,NaN,NaN,NaN,NaN,0.001,165,213.825,84,0,0,14.99,1013.07,340.383,0.01,0.056
1.4,1.642,10.866,36.845,10.926,37.048,0.173,0,0.173,0,1.142,3.873,22.175,120.893,9.788,0,0,0,0,2.723e4,1.273e4,19.666,0.105,NaN,2003.318,NaN,0.032,2.143e6,1274.663,0.984,0.629,0.629,0.294,0.215,0.12,NaN,NaN,NaN,NaN,NaN,NaN,NaN,NaN,0.001,165,213.825,84,0,0,14.989,1013.057,340.382,0.01,0.056
1.41,1.752,11.236,36.953,11.298,37.157,0.184,0,0.184,0,1.181,3.884,22.175,120.893,9.788,0,0,0,0,2.72e4,1.27e4,19.657,0.105,NaN,2002.803,NaN,0.033,2.215e6,1276.588,1.049,0.628,0.628,0.292,0.215,0.12,NaN,NaN,NaN,NaN,NaN,NaN,NaN,NaN,0.002,165,213.825,84,0,0,14.989,1013.045,340.382,0.01,0.059
1.42,1.866,11.606,37.022,11.67,37.226,0.196,0,0.196,0,1.22,3.891,22.175,120.893,9.788,0,0,0,0,2.718e4,1.268e4,19.648,0.105,NaN,2002.288,NaN,0.034,2.288e6,1277.444,1.116,0.626,0.626,0.29,0.215,0.12,NaN,NaN,NaN,NaN,NaN,NaN,NaN,NaN,0.002,165,213.825,84,0,0,14.988,1013.031,340.382,0.01,0.059
1.43,1.984,11.977,37.158,12.043,37.363,0.209,0,0.209,0,1.259,3.905,22.175,120.893,9.788,0,0,0,0,2.716e4,1.266e4,19.639,0.105,NaN,2001.77,NaN,0.035,2.361e6,1280.14,1.185,0.624,0.624,0.289,0.215,0.12,NaN,NaN,NaN,NaN,NaN,NaN,NaN,NaN,0.002,165,213.825,84,0,0,14.987,1013.017,340.381,0.01,0.06
1.44,2.106,12.349,37.215,12.417,37.42,0.221,0,0.221,0,1.298,3.911,22.175,120.893,9.788,0,0,0,0,2.713e4,1.263e4,19.629,0.105,NaN,2001.252,NaN,0.036,2.435e6,1280.681,1.258,0.623,0.623,0.288,0.215,0.12,NaN,NaN,NaN,NaN,NaN,NaN,NaN,NaN,0.002,165,213.825,84,0,0,14.986,1013.003,340.381,0.01,0.06
1.45,2.231,12.722,37.325,12.792,37.531,0.235,0,0.235,0,1.337,3.923,22.175,120.893,9.788,0,0,0,0,2.711e4,1.261e4,19.62,0.105,NaN,2000.731,NaN,0.038,2.508e6,1282.653,1.335,0.623,0.623,0.288,0.215,0.12,NaN,NaN,NaN,NaN,NaN,NaN,NaN,NaN,0.002,165,213.825,84,0,0,14.985,1012.988,340.38,0.01,0.06
1.46,2.36,13.096,37.444,13.169,37.65,0.248,0,0.248,0,1.376,3.936,22.175,120.893,9.788,0,0,0,0,2.709e4,1.259e4,19.611,0.104,NaN,2000.209,NaN,0.039,2.582e6,1284.861,1.415,0.623,0.623,0.288,0.215,0.12,NaN,NaN,NaN,NaN,NaN,NaN,NaN,NaN,0.002,165,213.825,84,0,0,14.985,1012.973,340.38,0.01,0.06
1.47,2.493,13.471,37.497,13.545,37.704,0.262,0,0.262,0,1.416,3.941,22.175,120.893,9.788,0,0,0,0,2.706e4,1.256e4,19.602,0.104,NaN,1999.686,NaN,0.04,2.656e6,1285.292,1.497,0.623,0.623,0.288,0.215,0.12,NaN,NaN,NaN,NaN,NaN,NaN,NaN,NaN,0.002,165,213.825,84,0,0,14.984,1012.958,340.379,0.01,0.066
1.48,2.63,13.847,37.62,13.923,37.827,0.276,0,0.276,0,1.455,3.954,22.175,120.893,9.788,0,0,0,0,2.704e4,1.254e4,19.592,0.104,NaN,1999.161,NaN,0.041,2.73e6,1287.587,1.582,0.623,0.623,0.288,0.215,0.12,NaN,NaN,NaN,NaN,NaN,NaN,NaN,NaN,0.002,165,213.825,84,0,0,14.983,1012.942,340.379,0.01,0.067
1.49,2.77,14.224,37.666,14.302,37.874,0.291,0,0.291,0,1.495,3.959,22.175,120.893,9.788,0,0,0,0,2.702e4,1.252e4,19.583,0.104,NaN,1998.635,NaN,0.042,2.804e6,1287.832,1.669,0.623,0.623,0.288,0.215,0.12,NaN,NaN,NaN,NaN,NaN,NaN,NaN,NaN,0.002,165,213.825,84,0,0,14.982,1012.925,340.378,0.01,0.067
1.5,2.914,14.601,37.737,14.681,37.945,0.306,0,0.306,0,1.535,3.966,22.175,120.893,9.788,0,0,0,0,2.699e4,1.249e4,19.574,0.104,NaN,1998.108,NaN,0.043,2.879e6,1288.735,1.759,0.623,0.623,0.288,0.215,0.12,NaN,NaN,NaN,NaN,NaN,NaN,NaN,NaN,0.002,165,213.825,84,0,0,14.981,1012.908,340.377,0.01,0.067
1.51,3.062,14.979,37.82,15.061,38.028,0.322,0,0.322,0,1.574,3.975,22.175,120.893,9.788,0,0,0,0,2.697e4,1.247e4,19.564,0.104,NaN,1997.579,NaN,0.044,2.953e6,1289.948,1.851,0.623,0.623,0.288,0.215,0.12,NaN,NaN,NaN,NaN,NaN,NaN,NaN,NaN,0.002,165,213.825,84,0,0,14.98,1012.891,340.377,0.01,0.068
1.52,3.214,15.357,37.837,15.442,38.045,0.338,0,0.338,0,1.614,3.977,22.175,120.893,9.788,0,0,0,0,2.695e4,1.244e4,19.555,0.104,NaN,1997.049,NaN,0.045,3.028e6,1289.376,1.946,0.623,0.623,0.288,0.215,0.12,NaN,NaN,NaN,NaN,NaN,NaN,NaN,NaN,0.002,165,213.825,84,0,0,14.979,1012.873,340.376,0.01,0.068
1.53,3.369,15.737,37.978,15.823,38.187,0.354,0,0.354,0,1.654,3.992,22.175,120.893,9.788,0,0,0,0,2.692e4,1.242e4,19.546,0.104,NaN,1996.518,NaN,0.046,3.102e6,1292.164,2.044,0.623,0.623,0.288,0.215,0.12,NaN,NaN,NaN,NaN,NaN,NaN,NaN,NaN,0.002,165,213.825,84,0,0,14.978,1012.855,340.376,0.01,0.068
1.54,3.528,16.117,38.048,16.206,38.258,0.371,0,0.371,0,1.694,3.999,22.175,120.893,9.788,0,0,0,0,2.69e4,1.24e4,19.536,0.104,NaN,1995.985,NaN,0.048,3.177e6,1293.051,2.144,0.623,0.623,0.288,0.215,0.12,NaN,NaN,NaN,NaN,NaN,NaN,NaN,NaN,0.002,165,213.825,84,0,0,14.977,1012.836,340.375,0.01,0.069
1.55,3.692,16.498,38.154,16.589,38.365,0.388,0,0.388,0,1.734,4.01,22.175,120.893,9.788,0,0,0,0,2.687e4,1.237e4,19.527,0.104,NaN,1995.451,NaN,0.049,3.253e6,1294.89,2.246,0.623,0.623,0.288,0.215,0.12,NaN,NaN,NaN,NaN,NaN,NaN,NaN,NaN,0.002,165,213.825,84,0,0,14.976,1012.817,340.374,0.01,0.069
1.56,3.858,16.881,38.28,16.974,38.491,0.406,0,0.406,0,1.774,4.023,22.175,120.893,9.788,0,0,0,0,2.685e4,1.235e4,19.517,0.104,NaN,1994.914,NaN,0.05,3.328e6,1297.251,2.352,0.623,0.623,0.288,0.215,0.12,NaN,NaN,NaN,NaN,NaN,NaN,NaN,NaN,0.002,165,213.825,84,0,0,14.975,1012.797,340.374,0.01,0.07
1.57,4.029,17.264,38.301,17.359,38.512,0.423,0,0.423,0,1.814,4.026,22.175,120.893,9.788,0,0,0,0,2.683e4,1.233e4,19.508,0.104,NaN,1994.377,NaN,0.051,3.403e6,1296.778,2.46,0.623,0.623,0.288,0.215,0.12,NaN,NaN,NaN,NaN,NaN,NaN,NaN,NaN,0.002,165,213.825,84,0,0,14.974,1012.777,340.373,0.01,0.07
1.585,4.292,17.838,38.321,17.938,38.653,0.451,1.139e-8,0.451,1.446e-6,1.89,5.053,22.175,120.893,9.788,0.049,0,2.287e-4,1.316e-5,2.679e4,1.229e4,19.493,0.104,2276.746,1993.568,1.716,0.053,3.517e6,1298.654,2.626,0.623,0.624,0.288,0.215,0.12,0.009,0.015,1.513e-4,0,0,0,0,0,0.002,165,213.825,84,0,0,14.972,1012.747,340.372,0.015,0.07
1.608,4.704,18.704,38.524,18.811,38.857,0.495,7.259e-8,0.495,8.401e-6,2.004,5.072,22.175,120.893,9.788,0.116,0,0.001,-1.952e-5,2.674e4,1.224e4,19.472,0.104,2274.893,1992.348,1.712,0.055,3.688e6,1301.804,2.889,0.624,0.624,0.288,0.215,0.12,0.021,0.036,4.37e-4,0,0,0,0,7.155e-9,0.003,165,213.825,84,0,0,14.969,1012.698,340.37,0.023,0.071
1.641,5.357,20.013,38.863,20.131,39.197,0.566,2.697e-7,0.566,2.732e-5,2.176,5.103,22.175,120.893,9.788,0.206,0,0.006,-3.601e-5,2.666e4,1.216e4,19.439,0.104,2272.448,1990.501,1.709,0.059,3.946e6,1307.398,3.309,0.624,0.624,0.288,0.215,0.12,0.038,0.065,4.095e-4,0,0,0,0,9.256e-8,0.003,165,213.825,84,5.665e-6,0,14.965,1012.622,340.368,0.034,0.071
1.691,6.406,21.972,39.287,22.106,39.622,0.681,8.153e-7,0.681,6.861e-5,2.433,5.141,22.175,120.893,9.788,0.318,0,0.018,-7.268e-5,2.654e4,1.204e4,19.39,0.104,2269.432,1987.731,1.707,0.065,4.333e6,1313.533,3.991,0.624,0.624,0.288,0.215,0.121,0.059,0.101,4.217e-4,0,0,0,0,7.282e-7,0.003,165,213.825,83.999,2.853e-5,0,14.958,1012.499,340.364,0.05,0.071
1.741,7.555,23.961,39.868,24.111,40.205,0.809,1.699e-6,0.809,1.203e-4,2.692,5.195,22.175,120.893,9.788,0.409,0,0.038,-3.992e-5,2.642e4,1.192e4,19.34,0.104,2267,1984.915,1.71,0.071,4.726e6,1323.765,4.749,0.624,0.624,0.288,0.216,0.121,0.076,0.13,3.682e-4,0,0,0,0,2.782e-6,0.003,165,213.825,83.998,5.749e-5,0,14.951,1012.364,340.359,0.05,0.071
1.791,8.803,25.98,40.498,26.148,40.837,0.95,2.96e-6,0.95,1.785e-4,2.955,5.255,22.175,120.893,9.788,0.484,0,0.067,4.258e-5,2.63e4,1.18e4,19.29,0.103,2265.04,1982.048,1.715,0.077,5.125e6,1335.184,5.588,0.624,0.625,0.288,0.216,0.121,0.091,0.156,2.784e-4,0,0,0,0,7.464e-6,0.004,165,213.825,83.995,7.259e-5,0,14.943,1012.218,340.354,0.05,0.071
1.841,10.154,28.034,41.174,28.218,41.516,1.105,4.635e-6,1.105,2.405e-4,3.22,5.32,22.175,120.893,9.788,0.544,0,0.106,7.896e-5,2.617e4,1.167e4,19.238,0.103,2263.474,1979.127,1.723,0.083,5.53e6,1347.677,6.51,0.624,0.625,0.288,0.216,0.121,0.102,0.176,4.693e-4,0,0,0,0,1.625e-5,0.004,165,213.825,83.991,7.133e-5,0,14.934,1012.059,340.349,0.05,0.072
1.891,11.608,30.128,41.981,30.329,42.327,1.272,6.759e-6,1.272,3.044e-4,3.49,5.399,22.175,120.893,9.788,0.592,0,0.157,-3.899e-5,2.605e4,1.155e4,19.185,0.103,2262.252,1976.143,1.734,0.089,5.943e6,1363.475,7.523,0.624,0.625,0.288,0.216,0.121,0.111,0.193,1.695e-4,0,0,0,0,3.086e-5,0.004,165,213.825,83.985,7.784e-5,0,14.925,1011.889,340.343,0.05,0.072
1.941,13.167,32.255,42.645,32.474,42.994,1.454,9.364e-6,1.454,3.691e-4,3.763,5.466,22.175,120.893,9.788,0.629,0,0.221,-4.459e-5,2.593e4,1.143e4,19.132,0.103,2261.331,1973.105,1.747,0.095,6.362e6,1375.364,8.627,0.625,0.625,0.288,0.216,0.121,0.118,0.207,-2.262e-4,0,0,0,0,5.313e-5,0.004,165,213.825,83.975,9.691e-5,0,14.914,1011.706,340.337,0.05,0.072
1.991,14.834,34.419,43.397,34.656,43.75,1.649,1.249e-5,1.649,4.34e-4,4.039,5.545,22.175,120.893,9.788,0.656,0,0.299,3.019e-5,2.58e4,1.13e4,19.077,0.103,2260.687,1970.006,1.762,0.102,6.789e6,1389.417,9.828,0.625,0.626,0.288,0.216,0.121,0.124,0.218,1.397e-4,0,0,0,0,8.525e-5,0.005,165,213.825,83.962,1.23e-4,0,14.904,1011.51,340.33,0.05,0.072
2.041,16.61,36.634,44.397,36.888,44.756,1.858,1.617e-5,1.858,4.987e-4,4.321,5.654,22.175,120.893,9.788,0.673,0,0.391,-8.373e-5,2.567e4,1.117e4,19.021,0.102,2260.308,1966.831,1.779,0.108,7.225e6,1409.711,11.138,0.625,0.626,0.288,0.216,0.122,0.127,0.226,-4.16e-4,0,0,0,0,1.289e-4,0.005,165,213.825,83.945,1.667e-4,0,14.892,1011.302,340.323,0.05,0.072
2.091,18.498,38.892,45.28,39.164,45.644,2.081,2.045e-5,2.081,5.631e-4,4.608,5.756,22.175,120.893,9.788,0.681,0,0.498,-1.675e-4,2.554e4,1.104e4,18.964,0.102,2260.182,1963.584,1.798,0.115,7.67e6,1426.753,12.559,0.625,0.626,0.287,0.216,0.122,0.128,0.23,4.917e-4,0,0,0,0,1.857e-4,0.005,165,213.825,83.923,2.191e-4,0,14.88,1011.08,340.316,0.05,0.073
2.141,20.5,41.181,45.885,41.471,46.254,2.319,2.538e-5,2.319,6.273e-4,4.899,5.835,22.175,120.893,9.788,0.68,0,0.621,-7.073e-5,2.541e4,1.091e4,18.906,0.102,2260.293,1960.282,1.818,0.122,8.121e6,1436.554,14.086,0.626,0.627,0.287,0.216,0.122,0.128,0.233,-3.042e-4,0,0,0,0,2.576e-4,0.006,165,213.825,83.895,2.831e-4,0,14.867,1010.846,340.308,0.05,0.073
2.191,22.617,43.504,46.574,43.813,46.95,2.571,3.102e-5,2.571,6.912e-4,5.195,5.931,22.175,120.893,9.788,0.67,0,0.76,2.896e-4,2.528e4,1.078e4,18.847,0.102,2260.642,1956.918,1.841,0.129,8.578e6,1448.404,15.726,0.626,0.627,0.287,0.216,0.122,0.126,0.233,3.952e-5,0,0,0,0,3.455e-4,0.006,165,213.825,83.861,3.224e-4,0,14.853,1010.597,340.3,0.05,0.073
2.241,24.851,45.863,47.304,46.191,47.688,2.838,3.739e-5,2.838,7.548e-4,5.495,6.04,22.175,120.893,9.788,0.651,0,0.913,-4.255e-5,2.515e4,1.065e4,18.787,0.102,2261.229,1953.489,1.865,0.136,9.042e6,1461.178,17.484,0.626,0.627,0.287,0.217,0.122,0.123,0.229,-2.207e-4,0,0,0,0,4.488e-4,0.006,165,213.825,83.819,3.519e-4,0,14.838,1010.335,340.291,0.05,0.074
2.291,27.204,48.248,47.813,48.596,48.205,3.121,4.455e-5,3.121,8.18e-4,5.8,6.137,22.175,120.893,9.788,0.624,0,1.08,-1.081e-6,2.501e4,1.051e4,18.726,0.101,2262.049,1950.006,1.891,0.143,9.511e6,1468.288,19.357,0.627,0.627,0.287,0.217,0.123,0.118,0.221,-2.588e-4,0,0,0,0,5.67e-4,0.007,165,213.825,83.769,4.123e-4,0,14.823,1010.059,340.282,0.05,0.074
2.341,29.676,50.637,47.893,51.005,48.293,3.418,5.254e-5,3.418,8.807e-4,6.108,6.198,22.175,120.893,9.788,0.589,0,1.257,3.827e-4,2.488e4,1.038e4,18.664,0.101,2263.094,1946.495,1.919,0.15,9.98e6,1464.702,21.328,0.627,0.628,0.287,0.217,0.123,0.111,0.212,3.88e-4,0,0,0,0,6.98e-4,0.007,165,213.825,83.711,4.746e-4,0,14.807,1009.769,340.272,0.05,0.074
2.391,32.268,53.029,47.947,53.416,48.355,3.731,6.142e-5,3.731,9.431e-4,6.419,6.27,22.175,120.893,9.788,0.545,0,1.443,-1.806e-4,2.475e4,1.025e4,18.602,0.101,2264.362,1942.956,1.948,0.157,1.045e7,1460.577,23.398,0.627,0.628,0.287,0.217,0.123,0.103,0.199,2.101e-4,0,0,0,0,8.385e-4,0.007,165,213.825,83.643,6.198e-4,0,14.79,1009.466,340.262,0.05,0.075
2.441,34.979,55.426,48.046,55.834,48.466,4.06,7.126e-5,4.06,0.001,6.735,6.36,22.175,120.893,9.788,0.494,0,1.633,-1.985e-4,2.461e4,1.011e4,18.539,0.101,2265.849,1939.385,1.979,0.164,1.092e7,1457.734,25.57,0.628,0.628,0.287,0.217,0.124,0.093,0.182,9.753e-5,0,0,0,0,9.821e-4,0.008,165,213.825,83.566,8.233e-4,0,14.773,1009.148,340.251,0.05,0.075
2.491,37.81,57.808,47.726,58.236,48.155,4.405,8.218e-5,4.405,0.001,7.053,6.417,22.175,120.893,9.788,0.436,0,1.821,-4.662e-4,2.448e4,9982.7,18.477,0.101,2267.541,1935.809,2.01,0.171,1.139e7,1444.705,27.825,0.628,0.629,0.287,0.217,0.124,0.082,0.163,-3.944e-4,0,0,0,0,0.001,0.008,165,213.825,83.48,0.001,0,14.754,1008.816,340.24,0.05,0.076
2.541,40.76,60.186,47.668,60.636,48.112,4.766,9.43e-5,4.766,0.001,7.375,6.518,22.175,120.893,9.788,0.371,4.167e-7,2,-9.217e-5,2.435e4,9851.919,18.414,0.1,2269.425,1932.21,2.044,0.178,1.186e7,1438.362,30.174,0.629,0.629,0.287,0.218,0.124,0.069,0.14,2.729e-4,0,0,0,0,0.001,0.008,165,213.825,83.384,0.001,0,14.735,1008.47,340.228,0.05,0.076
2.591,43.828,62.555,47.484,63.028,47.943,5.143,1.078e-4,5.143,0.001,7.703,6.619,22.175,120.893,9.788,0.3,5.974e-7,2.163,5.975e-5,2.422e4,9721.977,18.351,0.1,2271.476,1928.595,2.078,0.185,1.232e7,1429.136,32.611,0.629,0.629,0.287,0.218,0.124,0.056,0.115,4.023e-4,0,0,0,0,0.001,0.009,165,213.825,83.28,0.002,0,14.715,1008.11,340.216,0.05,0.076
2.641,47.015,64.939,47.759,65.434,48.239,5.536,1.228e-4,5.536,0.001,8.038,6.788,22.175,120.893,9.788,0.225,0,2.304,-1.67e-4,2.409e4,9591.843,18.287,0.1,2273.667,1924.936,2.114,0.192,1.279e7,1431.244,35.16,0.63,0.63,0.287,0.218,0.125,0.042,0.087,-3.5e-5,0,0,0,0,0.001,0.009,165,213.825,83.168,0.002,0,14.694,1007.736,340.204,0.05,0.076
2.691,50.322,67.33,47.926,67.85,48.429,5.946,1.395e-4,5.946,0.001,8.381,6.957,22.175,120.893,9.788,0.146,9.721e-7,2.411,-3.874e-4,2.396e4,9461.748,18.222,0.1,2275.953,1921.238,2.15,0.199,1.326e7,1430.823,37.82,0.63,0.63,0.287,0.218,0.125,0.027,0.057,-4.619e-4,0,0,0,0,0.001,0.009,165,213.825,83.05,0.002,0,14.673,1007.348,340.191,0.05,0.076
2.741,53.749,69.738,48.239,70.283,48.767,6.374,1.581e-4,6.374,0.001,8.735,7.155,22.175,120.893,9.788,0.067,0,2.477,-0.002,2.383e4,9331.363,18.157,0.1,2278.283,1917.492,2.187,0.207,1.373e7,1433.995,40.599,0.631,0.631,0.287,0.219,0.126,0.012,0.026,4.354e-4,0,0,0,0,0.001,0.01,165,213.825,82.928,0.003,0,14.651,1006.946,340.177,0.05,0.077
2.791,57.296,72.17,48.728,72.741,49.284,6.82,1.787e-4,6.82,0.002,9.099,7.384,22.175,120.893,9.788,0.01,-7.881e-7,-2.495,-0.005,2.37e4,9200.305,18.091,0.099,2280.02,1913.685,2.22,0.214,1.42e7,1441.415,43.511,0.631,0.631,0.287,0.219,0.126,0.002,0.005,4.416e-4,0,0,0,0,-0.001,0.01,165,213.825,82.804,0.003,0,14.628,1006.53,340.163,0.05,0.077
2.841,60.966,74.623,49.154,75.222,49.74,7.284,2.016e-4,7.284,0.002,9.475,7.611,22.175,120.893,9.788,0.084,-1.167e-6,-2.455,3.633e-4,2.357e4,9068.707,18.023,0.099,2278.14,1909.819,2.232,0.221,1.468e7,1447.346,46.557,0.632,0.632,0.286,0.219,0.126,0.016,0.036,-1.893e-4,0,0,0,0,-0.001,0.01,165,213.825,82.68,0.003,0,14.604,1006.1,340.149,0.05,0.077
2.891,64.759,77.076,49.15,77.704,49.762,7.768,2.27e-4,7.768,0.002,9.859,7.782,22.175,120.893,9.787,0.151,6.682e-7,-2.355,-4.315e-4,2.344e4,8937.495,17.955,0.099,2276.46,1905.922,2.246,0.228,1.516e7,1443.113,49.711,0.632,0.632,0.286,0.219,0.127,0.028,0.064,4.379e-4,0,0,0,0,-0.001,0.011,165,213.825,82.559,0.004,0,14.579,1005.655,340.134,0.05,0.077
2.941,68.674,79.521,48.984,80.179,49.621,8.27,2.55e-4,8.27,0.002,10.251,7.925,22.175,120.893,9.787,0.209,0,-2.19,1.562e-4,2.331e4,8806.998,17.887,0.099,2275.048,1902.002,2.261,0.236,1.564e7,1435.232,52.963,0.633,0.633,0.286,0.22,0.127,0.039,0.089,3.655e-4,0,0,0,0,-8.568e-4,0.011,165,213.825,82.445,0.004,0,14.554,1005.196,340.118,0.05,0.078
2.991,72.711,81.98,49.258,82.669,49.922,8.793,2.859e-4,8.793,0.002,10.652,8.113,22.175,120.893,9.787,0.255,4.347e-7,-1.962,-6.112e-4,2.318e4,8676.274,17.818,0.099,2273.977,1898.031,2.278,0.243,1.612e7,1437.734,56.342,0.634,0.634,0.286,0.22,0.128,0.048,0.109,3.361e-5,0,0,0,0,-6.47e-4,0.011,165,213.825,82.341,0.004,0,14.527,1004.722,340.102,0.05,0.078
3.041,76.872,84.464,49.766,85.185,50.456,9.336,3.199e-4,9.336,0.002,11.064,8.315,22.175,120.893,9.787,0.287,0,-1.678,-8.824e-4,2.305e4,8544.831,17.748,0.098,2273.307,1893.993,2.299,0.25,1.661e7,1445.651,59.866,0.634,0.634,0.286,0.22,0.128,0.054,0.124,-6.575e-5,0,0,0,0,-4.458e-4,0.012,165,213.825,82.25,0.004,0,14.5,1004.234,340.086,0.05,0.078
3.091,81.158,86.966,50.135,87.721,50.846,9.9,3.57e-4,9.9,0.002,11.485,8.473,22.175,120.893,9.787,0.302,0,-1.345,1.178e-4,2.291e4,8412.968,17.677,0.098,2273.079,1889.896,2.322,0.258,1.71e7,1450.255,63.528,0.635,0.635,0.286,0.22,0.129,0.057,0.132,-4.191e-4,0,0,0,0,-2.699e-4,0.012,165,213.825,82.175,0.004,0,14.472,1003.732,340.069,0.05,0.079
3.141,85.569,89.477,50.305,90.267,51.03,10.484,3.973e-4,10.484,0.002,11.911,8.573,22.175,120.893,9.787,0.301,3.406e-7,-0.979,3.018e-4,2.278e4,8281.109,17.605,0.098,2273.324,1885.751,2.349,0.265,1.759e7,1450.225,67.314,0.636,0.636,0.286,0.221,0.129,0.056,0.132,-4.803e-5,0,0,0,0,-1.35e-4,0.012,165,213.825,82.116,0.004,0,14.444,1003.214,340.052,0.05,0.079
3.191,90.106,92.013,50.798,92.837,51.535,11.091,4.41e-4,11.091,0.002,12.344,8.683,22.175,120.893,9.787,0.282,4.617e-7,-0.599,1.915e-4,2.265e4,8148.585,17.532,0.098,2274.048,1881.536,2.379,0.273,1.808e7,1457.538,71.252,0.636,0.637,0.286,0.221,0.13,0.053,0.126,-1.802e-4,0,0,0,0,-4.777e-5,0.013,165,213.825,82.077,0.005,0,14.414,1002.682,340.034,0.05,0.079
