# Time (s),Altitude (m),Vertical velocity (m/s),Vertical acceleration (m/s²),Total velocity (m/s),Total acceleration (m/s²),Position East of launch (m),Position North of launch (m),Lateral distance (m),Lateral direction (°),Lateral velocity (m/s),Lateral acceleration (m/s²),Latitude (°),Longitude (°),Gravitational acceleration (m/s²),Angle of attack (°),Roll rate (°/s),Pitch rate (°/s),Yaw rate (°/s),Mass (g),Motor mass (g),Longitudinal moment of inertia (kg·m²),Rotational moment of inertia (kg·m²),CP location (mm),CG location (mm),Stability margin calibers (​),Mach number (​),Reynolds number (​),Thrust (N),Drag force (N),Drag coefficient (​),Axial drag coefficient (​),Friction drag coefficient (​),Pressure drag coefficient (​),Base drag coefficient (​),Normal force coefficient (​),Pitch moment coefficient (​),Yaw moment coefficient (​),Side force coefficient (​),Roll moment coefficient (​),Roll forcing coefficient (​),Roll damping coefficient (​),Pitch damping coefficient (​),Coriolis acceleration (m/s²),Reference length (mm),Reference area (cm²),Vertical orientation (zenith) (°),Lateral orientation (azimuth) (°),Wind velocity (m/s),Air temperature (°C),Air pressure (mbar),Speed of sound (m/s),Simulation time step (s),Computation time (s)
0.01,-4.664e-4,-0.093,-9.324,0.095,9.468,-8.224e-5,0,8.224e-5,180,0.016,1.644,22.175,120.893,9.788,180,0,0,0,2.8e4,1.35e4,19.963,0.106,NaN,2019.994,NaN,2.782e-4,1.857e4,4.784,-1.486e-4,1.265,-1.265,0.93,0.215,0.12,NaN,NaN,NaN,NaN,NaN,NaN,NaN,NaN,1.282e-5,165,213.825,80,0,0,15,1013.25,340.389,0.01,0.006
0.02,-4.668e-4,-0.093,-9.336,0.095,9.48,-8.231e-5,0,8.231e-5,180,0.016,1.646,22.175,120.893,9.788,180,0,0,0,2.8e4,1.35e4,19.963,0.106,NaN,2019.992,NaN,2.785e-4,1.859e4,4.461,-1.489e-4,1.265,-1.265,0.93,0.215,0.12,NaN,NaN,NaN,NaN,NaN,NaN,NaN,NaN,1.283e-5,165,213.825,80,0,0,15,1013.25,340.389,0.01,0.007
0.03,-4.67e-4,-0.093,-9.34,0.095,9.484,-8.234e-5,0,8.234e-5,180,0.016,1.647,22.175,120.893,9.788,180,0,0,0,2.8e4,1.35e4,19.963,0.106,NaN,2019.991,NaN,2.786e-4,1.86e4,4.343,-1.49e-4,1.265,-1.265,0.93,0.215,0.12,NaN,NaN,NaN,NaN,NaN,NaN,NaN,NaN,1.284e-5,165,213.825,80,0,0,15,1013.25,340.389,0.01,0.008
0.04,-4.672e-4,-0.093,-9.343,0.095,9.487,-8.237e-5,0,8.237e-5,180,0.016,1.647,22.175,120.893,9.788,180,0,0,0,2.8e4,1.35e4,19.963,0.106,NaN,2019.989,NaN,2.787e-4,1.861e4,4.249,-1.491e-4,1.265,-1.265,0.93,0.215,0.12,NaN,NaN,NaN,NaN,NaN,NaN,NaN,NaN,1.285e-5,165,213.825,80,0,0,15,1013.25,340.389,0.01,0.009
0.05,-4.668e-4,-0.093,-9.336,0.095,9.48,-8.231e-5,0,8.231e-5,180,0.016,1.646,22.175,120.893,9.788,180,0,0,0,2.8e4,1.35e4,19.963,0.106,NaN,2019.988,NaN,2.785e-4,1.859e4,4.443,-1.489e-4,1.265,-1.265,0.93,0.215,0.12,NaN,NaN,NaN,NaN,NaN,NaN,NaN,NaN,1.284e-5,165,213.825,80,0,0,15,1013.25,340.389,0.01,0.01
0.06,-4.664e-4,-0.093,-9.328,0.095,9.472,-8.224e-5,0,8.224e-5,180,0.016,1.645,22.175,120.893,9.788,180,0,0,0,2.8e4,1.35e4,19.963,0.106,NaN,2019.986,NaN,2.783e-4,1.858e4,4.681,-1.487e-4,1.265,-1.265,0.93,0.215,0.12,NaN,NaN,NaN,NaN,NaN,NaN,NaN,NaN,1.282e-5,165,213.825,80,0,0,15,1013.25,340.389,0.01,0.01
0.07,-4.668e-4,-0.093,-9.336,0.095,9.48,-8.231e-5,0,8.231e-5,180,0.016,1.646,22.175,120.893,9.788,180,0,0,0,2.8e4,1.35e4,19.963,0.106,NaN,2019.984,NaN,2.785e-4,1.859e4,4.438,-1.489e-4,1.265,-1.265,0.93,0.215,0.12,NaN,NaN,NaN,NaN,NaN,NaN,NaN,NaN,1.284e-5,165,213.825,80,0,0,15,1013.25,340.389,0.01,0.011
0.08,-4.668e-4,-0.093,-9.335,0.095,9.479,-8.23e-5,0,8.23e-5,180,0.016,1.646,22.175,120.893,9.788,180,0,0,0,2.8e4,1.35e4,19.963,0.106,NaN,2019.982,NaN,2.785e-4,1.859e4,4.479,-1.489e-4,1.265,-1.265,0.93,0.215,0.12,NaN,NaN,NaN,NaN,NaN,NaN,NaN,NaN,1.283e-5,165,213.825,80,0,0,15,1013.25,340.389,0.01,0.013
0.09,-4.665e-4,-0.093,-9.331,0.095,9.475,-8.226e-5,0,8.226e-5,180,0.016,1.645,22.175,120.893,9.788,180,0,0,0,2.8e4,1.35e4,19.963,0.106,NaN,2019.981,NaN,2.783e-4,1.858e4,4.603,-1.487e-4,1.265,-1.265,0.93,0.215,0.12,NaN,NaN,NaN,NaN,NaN,NaN,NaN,NaN,1.283e-5,165,213.825,80,0,0,15,1013.25,340.389,0.01,0.013
0.1,-4.67e-4,-0.093,-9.341,0.095,9.485,-8.235e-5,0,8.235e-5,180,0.016,1.647,22.175,120.893,9.788,180,0,0,0,2.8e4,1.35e4,19.963,0.106,NaN,2019.979,NaN,2.786e-4,1.86e4,4.315,-1.49e-4,1.265,-1.265,0.93,0.215,0.12,NaN,NaN,NaN,NaN,NaN,NaN,NaN,NaN,1.284e-5,165,213.825,80,0,0,15,1013.25,340.389,0.01,0.014
0.11,-4.668e-4,-0.093,-9.337,0.095,9.481,-8.232e-5,0,8.232e-5,180,0.016,1.646,22.175,120.893,9.788,180,0,0,0,2.8e4,1.35e4,19.963,0.106,NaN,2019.977,NaN,2.785e-4,1.859e4,4.431,-1.489e-4,1.265,-1.265,0.93,0.215,0.12,NaN,NaN,NaN,NaN,NaN,NaN,NaN,NaN,1.284e-5,165,213.825,80,0,0,15,1013.25,340.389,0.01,0.014
0.12,-4.668e-4,-0.093,-9.337,0.095,9.481,-8.231e-5,0,8.231e-5,180,0.016,1.646,22.175,120.893,9.788,180,0,0,0,2.8e4,1.35e4,19.962,0.106,NaN,2019.976,NaN,2.785e-4,1.859e4,4.436,-1.489e-4,1.265,-1.265,0.93,0.215,0.12,NaN,NaN,NaN,NaN,NaN,NaN,NaN,NaN,1.284e-5,165,213.825,80,0,0,15,1013.25,340.389,0.01,0.015
0.13,-4.665e-4,-0.093,-9.33,0.095,9.474,-8.226e-5,0,8.226e-5,180,0.016,1.645,22.175,120.893,9.788,180,0,0,0,2.8e4,1.35e4,19.962,0.106,NaN,2019.974,NaN,2.783e-4,1.858e4,4.62,-1.487e-4,1.265,-1.265,0.93,0.215,0.12,NaN,NaN,NaN,NaN,NaN,NaN,NaN,NaN,1.283e-5,165,213.825,80,0,0,15,1013.25,340.389,0.01,0.015
0.14,-4.669e-4,-0.093,-9.338,0.095,9.482,-8.232e-5,0,8.232e-5,180,0.016,1.646,22.175,120.893,9.788,180,0,0,0,2.8e4,1.35e4,19.962,0.106,NaN,2019.972,NaN,2.786e-4,1.86e4,4.404,-1.489e-4,1.265,-1.265,0.93,0.215,0.12,NaN,NaN,NaN,NaN,NaN,NaN,NaN,NaN,1.284e-5,165,213.825,80,0,0,15,1013.25,340.389,0.01,0.016
0.15,-4.668e-4,-0.093,-9.336,0.095,9.48,-8.231e-5,0,8.231e-5,180,0.016,1.646,22.175,120.893,9.788,180,0,0,0,2.8e4,1.35e4,19.962,0.106,NaN,2019.97,NaN,2.785e-4,1.859e4,4.444,-1.489e-4,1.265,-1.265,0.93,0.215,0.12,NaN,NaN,NaN,NaN,NaN,NaN,NaN,NaN,1.284e-5,165,213.825,80,0,0,15,1013.25,340.389,0.01,0.017
0.16,-4.664e-4,-0.093,-9.329,0.095,9.473,-8.225e-5,0,8.225e-5,180,0.016,1.645,22.175,120.893,9.788,180,0,0,0,2.8e4,1.35e4,19.962,0.106,NaN,2019.969,NaN,2.783e-4,1.858e4,4.651,-1.487e-4,1.265,-1.265,0.93,0.215,0.12,NaN,NaN,NaN,NaN,NaN,NaN,NaN,NaN,1.283e-5,165,213.825,80,0,0,15,1013.25,340.389,0.01,0.017
0.17,-4.672e-4,-0.093,-9.344,0.095,9.488,-8.238e-5,0,8.238e-5,180,0.016,1.648,22.175,120.893,9.788,180,0,0,0,2.8e4,1.35e4,19.962,0.106,NaN,2019.967,NaN,2.787e-4,1.861e4,4.218,-1.491e-4,1.265,-1.265,0.93,0.215,0.12,NaN,NaN,NaN,NaN,NaN,NaN,NaN,NaN,1.285e-5,165,213.825,80,0,0,15,1013.25,340.389,0.01,0.018
0.18,-4.672e-4,-0.093,-9.344,0.095,9.488,-8.238e-5,0,8.238e-5,180,0.016,1.648,22.175,120.893,9.788,180,0,0,0,2.8e4,1.35e4,19.962,0.106,NaN,2019.965,NaN,2.787e-4,1.861e4,4.225,-1.491e-4,1.265,-1.265,0.93,0.215,0.12,NaN,NaN,NaN,NaN,NaN,NaN,NaN,NaN,1.285e-5,165,213.825,80,0,0,15,1013.25,340.389,0.01,0.018
0.19,-4.67e-4,-0.093,-9.341,0.095,9.485,-8.235e-5,0,8.235e-5,180,0.016,1.647,22.175,120.893,9.788,180,0,0,0,2.8e4,1.35e4,19.962,0.106,NaN,2019.964,NaN,2.786e-4,1.86e4,4.321,-1.49e-4,1.265,-1.265,0.93,0.215,0.12,NaN,NaN,NaN,NaN,NaN,NaN,NaN,NaN,1.284e-5,165,213.825,80,0,0,15,1013.25,340.389,0.01,0.019
0.2,-4.673e-4,-0.093,-9.346,0.095,9.49,-8.24e-5,0,8.24e-5,180,0.016,1.648,22.175,120.893,9.788,180,0,0,0,2.8e4,1.35e4,19.962,0.106,NaN,2019.962,NaN,2.788e-4,1.861e4,4.174,-1.492e-4,1.265,-1.265,0.93,0.215,0.12,NaN,NaN,NaN,NaN,NaN,NaN,NaN,NaN,1.285e-5,165,213.825,80,0,0,15,1013.25,340.389,0.01,0.019
0.21,-4.669e-4,-0.093,-9.338,0.095,9.483,-8.233e-5,0,8.233e-5,180,0.016,1.647,22.175,120.893,9.788,180,0,0,0,2.8e4,1.35e4,19.962,0.106,NaN,2019.961,NaN,2.786e-4,1.86e4,4.381,-1.49e-4,1.265,-1.265,0.93,0.215,0.12,NaN,NaN,NaN,NaN,NaN,NaN,NaN,NaN,1.284e-5,165,213.825,80,0,0,15,1013.25,340.389,0.01,0.02
0.22,-4.664e-4,-0.093,-9.329,0.095,9.473,-8.225e-5,0,8.225e-5,180,0.016,1.645,22.175,120.893,9.788,180,0,0,0,2.8e4,1.35e4,19.962,0.106,NaN,2019.959,NaN,2.783e-4,1.858e4,4.657,-1.487e-4,1.265,-1.265,0.93,0.215,0.12,NaN,NaN,NaN,NaN,NaN,NaN,NaN,NaN,1.283e-5,165,213.825,80,0,0,15,1013.25,340.389,0.01,0.02
0.23,-4.669e-4,-0.093,-9.338,0.095,9.482,-8.233e-5,0,8.233e-5,180,0.016,1.647,22.175,120.893,9.788,180,0,0,0,2.8e4,1.35e4,19.962,0.106,NaN,2019.957,NaN,2.786e-4,1.86e4,4.392,-1.49e-4,1.265,-1.265,0.93,0.215,0.12,NaN,NaN,NaN,NaN,NaN,NaN,NaN,NaN,1.284e-5,165,213.825,80,0,0,15,1013.25,340.389,0.01,0.02
0.24,-4.667e-4,-0.093,-9.334,0.095,9.478,-8.229e-5,0,8.229e-5,180,0.016,1.646,22.175,120.893,9.788,180,0,0,0,2.8e4,1.35e4,19.962,0.106,NaN,2019.955,NaN,2.784e-4,1.859e4,4.513,-1.488e-4,1.265,-1.265,0.93,0.215,0.12,NaN,NaN,NaN,NaN,NaN,NaN,NaN,NaN,1.283e-5,165,213.825,80,0,0,15,1013.25,340.389,0.01,0.021
0.25,-4.666e-4,-0.093,-9.331,0.095,9.475,-8.227e-5,0,8.227e-5,180,0.016,1.645,22.175,120.893,9.788,180,0,0,0,2.8e4,1.35e4,19.962,0.106,NaN,2019.954,NaN,2.784e-4,1.858e4,4.587,-1.488e-4,1.265,-1.265,0.93,0.215,0.12,NaN,NaN,NaN,NaN,NaN,NaN,NaN,NaN,1.283e-5,165,213.825,80,0,0,15,1013.25,340.389,0.01,0.021
0.26,-4.668e-4,-0.093,-9.337,0.095,9.481,-8.232e-5,0,8.232e-5,180,0.016,1.646,22.175,120.893,9.788,180,0,0,0,2.8e4,1.35e4,19.962,0.106,NaN,2019.952,NaN,2.785e-4,1.859e4,4.429,-1.489e-4,1.265,-1.265,0.93,0.215,0.12,NaN,NaN,NaN,NaN,NaN,NaN,NaN,NaN,1.284e-5,165,213.825,80,0,0,15,1013.25,340.389,0.01,0.022
0.27,-4.667e-4,-0.093,-9.333,0.095,9.477,-8.229e-5,0,8.229e-5,180,0.016,1.646,22.175,120.893,9.788,180,0,0,0,2.8e4,1.35e4,19.962,0.106,NaN,2019.95,NaN,2.784e-4,1.859e4,4.527,-1.488e-4,1.265,-1.265,0.93,0.215,0.12,NaN,NaN,NaN,NaN,NaN,NaN,NaN,NaN,1.283e-5,165,213.825,80,0,0,15,1013.25,340.389,0.01,0.022
0.28,-4.667e-4,-0.093,-9.335,0.095,9.479,-8.23e-5,0,8.23e-5,180,0.016,1.646,22.175,120.893,9.788,180,0,0,0,2.8e4,1.35e4,19.962,0.106,NaN,2019.949,NaN,2.785e-4,1.859e4,4.488,-1.489e-4,1.265,-1.265,0.93,0.215,0.12,NaN,NaN,NaN,NaN,NaN,NaN,NaN,NaN,1.283e-5,165,213.825,80,0,0,15,1013.25,340.389,0.01,0.023
0.29,-4.665e-4,-0.093,-9.33,0.095,9.474,-8.226e-5,0,8.226e-5,180,0.016,1.645,22.175,120.893,9.788,180,0,0,0,2.8e4,1.35e4,19.962,0.106,NaN,2019.947,NaN,2.783e-4,1.858e4,4.616,-1.487e-4,1.265,-1.265,0.93,0.215,0.12,NaN,NaN,NaN,NaN,NaN,NaN,NaN,NaN,1.283e-5,165,213.825,80,0,0,15,1013.25,340.389,0.01,0.023
0.3,-4.666e-4,-0.093,-9.333,0.095,9.477,-8.228e-5,0,8.228e-5,180,0.016,1.646,22.175,120.893,9.788,180,0,0,0,2.8e4,1.35e4,19.962,0.106,NaN,2019.945,NaN,2.784e-4,1.859e4,4.548,-1.488e-4,1.265,-1.265,0.93,0.215,0.12,NaN,NaN,NaN,NaN,NaN,NaN,NaN,NaN,1.283e-5,165,213.825,80,0,0,15,1013.25,340.389,0.01,0.024
0.31,-4.664e-4,-0.093,-9.327,0.095,9.471,-8.223e-5,0,8.223e-5,180,0.016,1.645,22.175,120.893,9.788,180,0,0,0,2.8e4,1.35e4,19.962,0.106,NaN,2019.943,NaN,2.782e-4,1.857e4,4.706,-1.486e-4,1.265,-1.265,0.93,0.215,0.12,NaN,NaN,NaN,NaN,NaN,NaN,NaN,NaN,1.282e-5,165,213.825,80,0,0,15,1013.25,340.389,0.01,0.025
0.32,-4.67e-4,-0.093,-9.34,0.095,9.484,-8.235e-5,0,8.235e-5,180,0.016,1.647,22.175,120.893,9.788,180,0,0,0,2.8e4,1.35e4,19.962,0.106,NaN,2019.942,NaN,2.786e-4,1.86e4,4.332,-1.49e-4,1.265,-1.265,0.93,0.215,0.12,NaN,NaN,NaN,NaN,NaN,NaN,NaN,NaN,1.284e-5,165,213.825,80,0,0,15,1013.25,340.389,0.01,0.025
0.33,-4.667e-4,-0.093,-9.335,0.095,9.479,-8.23e-5,0,8.23e-5,180,0.016,1.646,22.175,120.893,9.788,180,0,0,0,2.8e4,1.35e4,19.962,0.106,NaN,2019.94,NaN,2.785e-4,1.859e4,4.483,-1.489e-4,1.265,-1.265,0.93,0.215,0.12,NaN,NaN,NaN,NaN,NaN,NaN,NaN,NaN,1.283e-5,165,213.825,80,0,0,15,1013.25,340.389,0.01,0.026
0.34,-4.666e-4,-0.093,-9.332,0.095,9.476,-8.227e-5,0,8.227e-5,180,0.016,1.645,22.175,120.893,9.788,180,0,0,0,2.8e4,1.35e4,19.962,0.106,NaN,2019.938,NaN,2.784e-4,1.858e4,4.57,-1.488e-4,1.265,-1.265,0.93,0.215,0.12,NaN,NaN,NaN,NaN,NaN,NaN,NaN,NaN,1.283e-5,165,213.825,80,0,0,15,1013.25,340.389,0.01,0.026
0.35,-4.669e-4,-0.093,-9.337,0.095,9.481,-8.232e-5,0,8.232e-5,180,0.016,1.646,22.175,120.893,9.788,180,0,0,0,2.8e4,1.35e4,19.962,0.106,NaN,2019.936,NaN,2.785e-4,1.859e4,4.419,-1.489e-4,1.265,-1.265,0.93,0.215,0.12,NaN,NaN,NaN,NaN,NaN,NaN,NaN,NaN,1.284e-5,165,213.825,80,0,0,15,1013.25,340.389,0.01,0.026
0.36,-4.67e-4,-0.093,-9.341,0.095,9.485,-8.235e-5,0,8.235e-5,180,0.016,1.647,22.175,120.893,9.788,180,0,0,0,2.8e4,1.35e4,19.962,0.106,NaN,2019.935,NaN,2.786e-4,1.86e4,4.317,-1.49e-4,1.265,-1.265,0.93,0.215,0.12,NaN,NaN,NaN,NaN,NaN,NaN,NaN,NaN,1.284e-5,165,213.825,80,0,0,15,1013.25,340.389,0.01,0.027
0.37,-4.667e-4,-0.093,-9.333,0.095,9.477,-8.229e-5,0,8.229e-5,180,0.016,1.646,22.175,120.893,9.788,180,0,0,0,2.8e4,1.35e4,19.962,0.106,NaN,2019.933,NaN,2.784e-4,1.859e4,4.522,-1.488e-4,1.265,-1.265,0.93,0.215,0.12,NaN,NaN,NaN,NaN,NaN,NaN,NaN,NaN,1.283e-5,165,213.825,80,0,0,15,1013.25,340.389,0.01,0.027
0.38,-4.668e-4,-0.093,-9.337,0.095,9.481,-8.232e-5,0,8.232e-5,180,0.016,1.646,22.175,120.893,9.788,180,0,0,0,2.8e4,1.35e4,19.962,0.106,NaN,2019.931,NaN,2.785e-4,1.859e4,4.433,-1.489e-4,1.265,-1.265,0.93,0.215,0.12,NaN,NaN,NaN,NaN,NaN,NaN,NaN,NaN,1.284e-5,165,213.825,80,0,0,15,1013.25,340.389,0.01,0.027
0.39,-4.664e-4,-0.093,-9.328,0.095,9.472,-8.224e-5,0,8.224e-5,180,0.016,1.645,22.175,120.893,9.788,180,0,0,0,2.8e4,1.35e4,19.962,0.106,NaN,2019.93,NaN,2.783e-4,1.858e4,4.673,-1.487e-4,1.265,-1.265,0.93,0.215,0.12,NaN,NaN,NaN,NaN,NaN,NaN,NaN,NaN,1.282e-5,165,213.825,80,0,0,15,1013.25,340.389,0.01,0.027
0.4,-4.662e-4,-0.093,-9.323,0.095,9.467,-8.22e-5,0,8.22e-5,180,0.016,1.644,22.175,120.893,9.788,180,0,0,0,2.8e4,1.35e4,19.962,0.106,NaN,2019.928,NaN,2.781e-4,1.857e4,4.812,-1.485e-4,1.265,-1.265,0.93,0.215,0.12,NaN,NaN,NaN,NaN,NaN,NaN,NaN,NaN,1.282e-5,165,213.825,80,0,0,15,1013.25,340.389,0.01,0.028
0.41,-4.665e-4,-0.093,-9.331,0.095,9.475,-8.226e-5,0,8.226e-5,180,0.016,1.645,22.175,120.893,9.788,180,0,0,0,2.8e4,1.35e4,19.962,0.106,NaN,2019.926,NaN,2.784e-4,1.858e4,4.595,-1.488e-4,1.265,-1.265,0.93,0.215,0.12,NaN,NaN,NaN,NaN,NaN,NaN,NaN,NaN,1.283e-5,165,213.825,80,0,0,15,1013.25,340.389,0.01,0.028
0.42,-4.665e-4,-0.093,-9.329,0.095,9.473,-8.225e-5,0,8.225e-5,180,0.016,1.645,22.175,120.893,9.788,180,0,0,0,2.8e4,1.35e4,19.962,0.106,NaN,2019.924,NaN,2.783e-4,1.858e4,4.638,-1.487e-4,1.265,-1.265,0.93,0.215,0.12,NaN,NaN,NaN,NaN,NaN,NaN,NaN,NaN,1.283e-5,165,213.825,80,0,0,15,1013.25,340.389,0.01,0.028
0.43,-4.662e-4,-0.093,-9.323,0.095,9.467,-8.22e-5,0,8.22e-5,180,0.016,1.644,22.175,120.893,9.788,180,0,0,0,2.8e4,1.35e4,19.962,0.106,NaN,2019.922,NaN,2.781e-4,1.857e4,4.811,-1.485e-4,1.265,-1.265,0.93,0.215,0.12,NaN,NaN,NaN,NaN,NaN,NaN,NaN,NaN,1.282e-5,165,213.825,80,0,0,15,1013.25,340.389,0.01,0.028
0.44,-4.66e-4,-0.093,-9.32,0.095,9.463,-8.216e-5,0,8.216e-5,180,0.016,1.643,22.175,120.893,9.788,180,0,0,0,2.8e4,1.35e4,19.962,0.106,NaN,2019.921,NaN,2.78e-4,1.856e4,4.919,-1.484e-4,1.266,-1.266,0.931,0.215,0.12,NaN,NaN,NaN,NaN,NaN,NaN,NaN,NaN,1.281e-5,165,213.825,80,0,0,15,1013.25,340.389,0.01,0.029
0.45,-4.666e-4,-0.093,-9.331,0.095,9.475,-8.227e-5,0,8.227e-5,180,0.016,1.645,22.175,120.893,9.788,180,0,0,0,2.8e4,1.35e4,19.961,0.106,NaN,2019.919,NaN,2.784e-4,1.858e4,4.583,-1.488e-4,1.265,-1.265,0.93,0.215,0.12,NaN,NaN,NaN,NaN,NaN,NaN,NaN,NaN,1.283e-5,165,213.825,80,0,0,15,1013.25,340.389,0.01,0.029
0.46,-4.668e-4,-0.093,-9.337,0.095,9.481,-8.232e-5,0,8.232e-5,180,0.016,1.646,22.175,120.893,9.788,180,0,0,0,2.8e4,1.35e4,19.961,0.106,NaN,2019.917,NaN,2.785e-4,1.859e4,4.429,-1.489e-4,1.265,-1.265,0.93,0.215,0.12,NaN,NaN,NaN,NaN,NaN,NaN,NaN,NaN,1.284e-5,165,213.825,80,0,0,15,1013.25,340.389,0.01,0.029
0.47,-4.668e-4,-0.093,-9.336,0.095,9.48,-8.231e-5,0,8.231e-5,180,0.016,1.646,22.175,120.893,9.788,180,0,0,0,2.8e4,1.35e4,19.961,0.106,NaN,2019.915,NaN,2.785e-4,1.859e4,4.45,-1.489e-4,1.265,-1.265,0.93,0.215,0.12,NaN,NaN,NaN,NaN,NaN,NaN,NaN,NaN,1.284e-5,165,213.825,80,0,0,15,1013.25,340.389,0.01,0.029
0.48,-4.66e-4,-0.093,-9.32,0.095,9.464,-8.217e-5,0,8.217e-5,180,0.016,1.643,22.175,120.893,9.788,180,0,0,0,2.8e4,1.35e4,19.961,0.106,NaN,2019.914,NaN,2.78e-4,1.856e4,4.905,-1.485e-4,1.266,-1.266,0.931,0.215,0.12,NaN,NaN,NaN,NaN,NaN,NaN,NaN,NaN,1.281e-5,165,213.825,80,0,0,15,1013.25,340.389,0.01,0.03
0.49,-4.663e-4,-0.093,-9.326,0.095,9.469,-8.222e-5,0,8.222e-5,180,0.016,1.644,22.175,120.893,9.788,180,0,0,0,2.8e4,1.35e4,19.961,0.106,NaN,2019.912,NaN,2.782e-4,1.857e4,4.746,-1.486e-4,1.265,-1.265,0.93,0.215,0.12,NaN,NaN,NaN,NaN,NaN,NaN,NaN,NaN,1.282e-5,165,213.825,80,0,0,15,1013.25,340.389,0.01,0.048
0.5,-4.668e-4,-0.093,-9.335,0.095,9.479,-8.23e-5,0,8.23e-5,180,0.016,1.646,22.175,120.893,9.788,180,0,0,0,2.8e4,1.35e4,19.961,0.106,NaN,2019.91,NaN,2.785e-4,1.859e4,4.47,-1.489e-4,1.265,-1.265,0.93,0.215,0.12,NaN,NaN,NaN,NaN,NaN,NaN,NaN,NaN,1.283e-5,165,213.825,80,0,0,15,1013.25,340.389,0.01,0.05
0.51,-4.664e-4,-0.093,-9.329,0.095,9.473,-8.225e-5,0,8.225e-5,180,0.016,1.645,22.175,120.893,9.788,180,0,0,0,2.8e4,1.35e4,19.961,0.106,NaN,2019.908,NaN,2.783e-4,1.858e4,4.657,-1.487e-4,1.265,-1.265,0.93,0.215,0.12,NaN,NaN,NaN,NaN,NaN,NaN,NaN,NaN,1.283e-5,165,213.825,80,0,0,15,1013.25,340.389,0.01,0.051
0.52,-4.656e-4,-0.093,-9.313,0.095,9.456,-8.21e-5,0,8.21e-5,180,0.016,1.642,22.175,120.893,9.788,180,0,0,0,2.8e4,1.35e4,19.961,0.106,NaN,2019.906,NaN,2.778e-4,1.855e4,5.115,-1.482e-4,1.266,-1.266,0.931,0.215,0.12,NaN,NaN,NaN,NaN,NaN,NaN,NaN,NaN,1.28e-5,165,213.825,80,0,0,15,1013.25,340.389,0.01,0.052
0.53,-4.652e-4,-0.093,-9.305,0.094,9.448,-8.203e-5,0,8.203e-5,180,0.016,1.641,22.175,120.893,9.788,180,0,0,0,2.8e4,1.35e4,19.961,0.106,NaN,2019.904,NaN,2.776e-4,1.853e4,5.339,-1.48e-4,1.266,-1.266,0.931,0.215,0.12,NaN,NaN,NaN,NaN,NaN,NaN,NaN,NaN,1.279e-5,165,213.825,80,0,0,15,1013.25,340.389,0.01,0.052
0.54,-4.665e-4,-0.093,-9.329,0.095,9.473,-8.225e-5,0,8.225e-5,180,0.016,1.645,22.175,120.893,9.788,180,0,0,0,2.8e4,1.35e4,19.961,0.106,NaN,2019.903,NaN,2.783e-4,1.858e4,4.638,-1.487e-4,1.265,-1.265,0.93,0.215,0.12,NaN,NaN,NaN,NaN,NaN,NaN,NaN,NaN,1.283e-5,165,213.825,80,0,0,15,1013.25,340.389,0.01,0.053
0.55,-4.661e-4,-0.093,-9.323,0.095,9.467,-8.219e-5,0,8.219e-5,180,0.016,1.644,22.175,120.893,9.788,180,0,0,0,2.8e4,1.35e4,19.961,0.106,NaN,2019.901,NaN,2.781e-4,1.857e4,4.82,-1.485e-4,1.265,-1.265,0.93,0.215,0.12,NaN,NaN,NaN,NaN,NaN,NaN,NaN,NaN,1.282e-5,165,213.825,80,0,0,15,1013.25,340.389,0.01,0.053
0.56,-4.656e-4,-0.093,-9.312,0.095,9.455,-8.21e-5,0,8.21e-5,180,0.016,1.642,22.175,120.893,9.788,180,0,0,0,2.8e4,1.35e4,19.961,0.106,NaN,2019.899,NaN,2.778e-4,1.854e4,5.14,-1.482e-4,1.266,-1.266,0.931,0.215,0.12,NaN,NaN,NaN,NaN,NaN,NaN,NaN,NaN,1.28e-5,165,213.825,80,0,0,15,1013.25,340.389,0.01,0.054
0.57,-4.655e-4,-0.093,-9.311,0.095,9.455,-8.209e-5,0,8.209e-5,180,0.016,1.642,22.175,120.893,9.788,180,0,0,0,2.8e4,1.35e4,19.961,0.106,NaN,2019.897,NaN,2.778e-4,1.854e4,5.164,-1.482e-4,1.266,-1.266,0.931,0.215,0.12,NaN,NaN,NaN,NaN,NaN,NaN,NaN,NaN,1.28e-5,165,213.825,80,0,0,15,1013.25,340.389,0.01,0.054
0.58,-4.656e-4,-0.093,-9.312,0.095,9.456,-8.21e-5,0,8.21e-5,180,0.016,1.642,22.175,120.893,9.788,180,0,0,0,2.8e4,1.35e4,19.961,0.106,NaN,2019.895,NaN,2.778e-4,1.854e4,5.125,-1.482e-4,1.266,-1.266,0.931,0.215,0.12,NaN,NaN,NaN,NaN,NaN,NaN,NaN,NaN,1.28e-5,165,213.825,80,0,0,15,1013.25,340.389,0.01,0.055
0.59,-4.653e-4,-0.093,-9.306,0.094,9.45,-8.205e-5,0,8.205e-5,180,0.016,1.641,22.175,120.893,9.788,180,0,0,0,2.8e4,1.35e4,19.961,0.106,NaN,2019.893,NaN,2.776e-4,1.853e4,5.296,-1.481e-4,1.266,-1.266,0.931,0.215,0.12,NaN,NaN,NaN,NaN,NaN,NaN,NaN,NaN,1.279e-5,165,213.825,80,0,0,15,1013.25,340.389,0.01,0.055
0.6,-4.648e-4,-0.093,-9.297,0.094,9.44,-8.196e-5,0,8.196e-5,180,0.016,1.639,22.175,120.893,9.788,180,0,0,0,2.8e4,1.349e4,19.961,0.106,NaN,2019.891,NaN,2.773e-4,1.851e4,5.567,-1.478e-4,1.266,-1.266,0.931,0.215,0.12,NaN,NaN,NaN,NaN,NaN,NaN,NaN,NaN,1.278e-5,165,213.825,80,0,0,15,1013.25,340.389,0.01,0.055
0.61,-4.646e-4,-0.093,-9.291,0.094,9.435,-8.192e-5,0,8.192e-5,180,0.016,1.638,22.175,120.893,9.788,180,0,0,0,2.8e4,1.349e4,19.961,0.106,NaN,2019.889,NaN,2.772e-4,1.85e4,5.717,-1.477e-4,1.267,-1.267,0.931,0.215,0.12,NaN,NaN,NaN,NaN,NaN,NaN,NaN,NaN,1.277e-5,165,213.825,80,0,0,15,1013.25,340.389,0.01,0.056
0.62,-4.652e-4,-0.093,-9.304,0.094,9.447,-8.203e-5,0,8.203e-5,180,0.016,1.641,22.175,120.893,9.788,180,0,0,0,2.8e4,1.349e4,19.961,0.106,NaN,2019.887,NaN,2.775e-4,1.853e4,5.366,-1.48e-4,1.266,-1.266,0.931,0.215,0.12,NaN,NaN,NaN,NaN,NaN,NaN,NaN,NaN,1.279e-5,165,213.825,80,0,0,15,1013.25,340.389,0.01,0.056
0.63,-4.643e-4,-0.093,-9.287,0.094,9.43,-8.188e-5,0,8.188e-5,180,0.016,1.638,22.175,120.893,9.788,180,0,0,0,2.799e4,1.349e4,19.961,0.106,NaN,2019.884,NaN,2.77e-4,1.849e4,5.844,-1.475e-4,1.267,-1.267,0.932,0.215,0.12,NaN,NaN,NaN,NaN,NaN,NaN,NaN,NaN,1.277e-5,165,213.825,80,0,0,15,1013.25,340.389,0.01,0.057
0.64,-4.645e-4,-0.093,-9.289,0.094,9.432,-8.19e-5,0,8.19e-5,180,0.016,1.638,22.175,120.893,9.788,180,0,0,0,2.799e4,1.349e4,19.961,0.106,NaN,2019.882,NaN,2.771e-4,1.85e4,5.786,-1.476e-4,1.267,-1.267,0.932,0.215,0.12,NaN,NaN,NaN,NaN,NaN,NaN,NaN,NaN,1.277e-5,165,213.825,80,0,0,15,1013.25,340.389,0.01,0.057
0.65,-4.641e-4,-0.093,-9.283,0.094,9.426,-8.184e-5,0,8.184e-5,180,0.016,1.637,22.175,120.893,9.788,180,0,0,0,2.799e4,1.349e4,19.961,0.106,NaN,2019.88,NaN,2.769e-4,1.849e4,5.968,-1.474e-4,1.267,-1.267,0.932,0.215,0.12,NaN,NaN,NaN,NaN,NaN,NaN,NaN,NaN,1.276e-5,165,213.825,80,0,0,15,1013.25,340.389,0.01,0.057
0.66,-4.631e-4,-0.093,-9.262,0.094,9.405,-8.166e-5,0,8.166e-5,180,0.016,1.633,22.175,120.893,9.788,180,0,0,0,2.799e4,1.349e4,19.961,0.106,NaN,2019.877,NaN,2.763e-4,1.844e4,6.551,-1.468e-4,1.267,-1.267,0.932,0.215,0.12,NaN,NaN,NaN,NaN,NaN,NaN,NaN,NaN,1.273e-5,165,213.825,80,0,0,15,1013.25,340.389,0.01,0.058
0.67,-4.628e-4,-0.093,-9.256,0.094,9.399,-8.161e-5,0,8.161e-5,180,0.016,1.632,22.175,120.893,9.788,180,0,0,0,2.799e4,1.349e4,19.961,0.106,NaN,2019.875,NaN,2.761e-4,1.843e4,6.72,-1.467e-4,1.268,-1.268,0.933,0.215,0.12,NaN,NaN,NaN,NaN,NaN,NaN,NaN,NaN,1.273e-5,165,213.825,80,0,0,15,1013.25,340.389,0.01,0.058
0.68,-4.618e-4,-0.092,-9.236,0.094,9.378,-8.143e-5,0,8.143e-5,180,0.016,1.629,22.175,120.893,9.788,180,0,0,0,2.799e4,1.349e4,19.961,0.106,NaN,2019.872,NaN,2.755e-4,1.839e4,7.299,-1.461e-4,1.268,-1.268,0.933,0.215,0.12,NaN,NaN,NaN,NaN,NaN,NaN,NaN,NaN,1.27e-5,165,213.825,80,0,0,15,1013.25,340.389,0.01,0.059
0.69,-4.615e-4,-0.092,-9.23,0.094,9.372,-8.137e-5,0,8.137e-5,180,0.016,1.627,22.175,120.893,9.788,180,0,0,0,2.799e4,1.349e4,19.961,0.106,NaN,2019.869,NaN,2.753e-4,1.838e4,7.467,-1.459e-4,1.269,-1.269,0.933,0.215,0.12,NaN,NaN,NaN,NaN,NaN,NaN,NaN,NaN,1.269e-5,165,213.825,80,0,0,15,1013.25,340.389,0.01,0.059
0.7,-4.606e-4,-0.092,-9.213,0.094,9.355,-8.122e-5,0,8.122e-5,180,0.016,1.624,22.175,120.893,9.788,180,0,0,0,2.799e4,1.349e4,19.961,0.106,NaN,2019.866,NaN,2.748e-4,1.835e4,7.951,-1.455e-4,1.269,-1.269,0.934,0.215,0.12,NaN,NaN,NaN,NaN,NaN,NaN,NaN,NaN,1.267e-5,165,213.825,80,0,0,15,1013.25,340.389,0.01,0.06
0.71,-4.589e-4,-0.092,-9.178,0.093,9.32,-8.092e-5,0,8.092e-5,180,0.016,1.618,22.175,120.893,9.788,180,0,0,0,2.799e4,1.349e4,19.96,0.106,NaN,2019.863,NaN,2.738e-4,1.828e4,8.938,-1.445e-4,1.27,-1.27,0.935,0.215,0.12,NaN,NaN,NaN,NaN,NaN,NaN,NaN,NaN,1.262e-5,165,213.825,80,0,0,15,1013.25,340.389,0.01,0.061
0.72,-4.583e-4,-0.092,-9.167,0.093,9.308,-8.082e-5,0,8.082e-5,180,0.016,1.616,22.175,120.893,9.788,180,0,0,0,2.799e4,1.349e4,19.96,0.106,NaN,2019.859,NaN,2.735e-4,1.826e4,9.255,-1.442e-4,1.271,-1.271,0.936,0.215,0.12,NaN,NaN,NaN,NaN,NaN,NaN,NaN,NaN,1.26e-5,165,213.825,80,0,0,15,1013.25,340.389,0.01,0.061
0.73,-4.567e-4,-0.091,-9.134,0.093,9.275,-8.053e-5,0,8.053e-5,180,0.016,1.611,22.175,120.893,9.788,180,0,0,0,2.799e4,1.349e4,19.96,0.106,NaN,2019.855,NaN,2.725e-4,1.819e4,10.185,-1.433e-4,1.272,-1.272,0.937,0.215,0.12,NaN,NaN,NaN,NaN,NaN,NaN,NaN,NaN,1.256e-5,165,213.825,80,0,0,15,1013.25,340.389,0.01,0.07
0.74,-4.548e-4,-0.091,-9.096,0.092,9.236,-8.019e-5,0,8.019e-5,180,0.016,1.604,22.175,120.893,9.788,180,0,0,0,2.799e4,1.349e4,19.96,0.106,NaN,2019.851,NaN,2.713e-4,1.811e4,11.275,-1.422e-4,1.273,-1.273,0.938,0.215,0.12,NaN,NaN,NaN,NaN,NaN,NaN,NaN,NaN,1.251e-5,165,213.825,80,0,0,15,1013.25,340.389,0.01,0.07
0.75,-4.53e-4,-0.091,-9.059,0.092,9.199,-7.987e-5,0,7.987e-5,180,0.016,1.597,22.175,120.893,9.788,180,0,0,0,2.799e4,1.349e4,19.96,0.106,NaN,2019.846,NaN,2.702e-4,1.804e4,12.322,-1.412e-4,1.274,-1.274,0.939,0.215,0.12,NaN,NaN,NaN,NaN,NaN,NaN,NaN,NaN,1.245e-5,165,213.825,80,0,0,15,1013.25,340.389,0.01,0.071
0.76,-4.506e-4,-0.09,-9.012,0.092,9.151,-7.945e-5,0,7.945e-5,180,0.016,1.589,22.175,120.893,9.788,180,0,0,0,2.799e4,1.349e4,19.96,0.106,NaN,2019.841,NaN,2.688e-4,1.795e4,13.663,-1.399e-4,1.276,-1.276,0.941,0.215,0.12,NaN,NaN,NaN,NaN,NaN,NaN,NaN,NaN,1.239e-5,165,213.825,80,0,0,15,1013.25,340.389,0.01,0.071
0.77,-4.495e-4,-0.09,-8.989,0.091,9.128,-7.925e-5,0,7.925e-5,180,0.016,1.585,22.175,120.893,9.788,180,0,0,0,2.799e4,1.349e4,19.96,0.106,NaN,2019.836,NaN,2.682e-4,1.79e4,14.302,-1.393e-4,1.277,-1.277,0.942,0.215,0.12,NaN,NaN,NaN,NaN,NaN,NaN,NaN,NaN,1.236e-5,165,213.825,80,0,0,15,1013.25,340.389,0.01,0.071
0.78,-4.469e-4,-0.089,-8.938,0.091,9.076,-7.88e-5,0,7.88e-5,180,0.016,1.576,22.175,120.893,9.788,180,0,0,0,2.799e4,1.349e4,19.96,0.106,NaN,2019.83,NaN,2.666e-4,1.78e4,15.77,-1.379e-4,1.278,-1.278,0.943,0.215,0.12,NaN,NaN,NaN,NaN,NaN,NaN,NaN,NaN,1.229e-5,165,213.825,80,0,0,15,1013.25,340.389,0.01,0.072
0.79,-4.449e-4,-0.089,-8.897,0.09,9.034,-7.844e-5,0,7.844e-5,180,0.016,1.569,22.175,120.893,9.788,180,0,0,0,2.799e4,1.349e4,19.96,0.106,NaN,2019.823,NaN,2.654e-4,1.772e4,16.927,-1.368e-4,1.28,-1.28,0.945,0.215,0.12,NaN,NaN,NaN,NaN,NaN,NaN,NaN,NaN,1.223e-5,165,213.825,80,0,0,15,1013.25,340.389,0.01,0.077
0.8,-4.428e-4,-0.089,-8.855,0.09,8.992,-7.807e-5,0,7.807e-5,180,0.016,1.561,22.175,120.893,9.788,180,0,0,0,2.799e4,1.349e4,19.96,0.106,NaN,2019.816,NaN,2.642e-4,1.763e4,18.121,-1.357e-4,1.281,-1.281,0.946,0.215,0.12,NaN,NaN,NaN,NaN,NaN,NaN,NaN,NaN,1.217e-5,165,213.825,80,0,0,15,1013.25,340.389,0.01,0.079
0.81,-4.404e-4,-0.088,-8.809,0.089,8.945,-7.766e-5,0,7.766e-5,180,0.016,1.553,22.175,120.893,9.788,180,0,0,0,2.799e4,1.349e4,19.96,0.106,NaN,2019.809,NaN,2.628e-4,1.754e4,19.438,-1.344e-4,1.283,-1.283,0.948,0.215,0.12,NaN,NaN,NaN,NaN,NaN,NaN,NaN,NaN,1.211e-5,165,213.825,80,0,0,15,1013.25,340.389,0.01,0.079
0.82,-4.392e-4,-0.088,-8.783,0.089,8.919,-7.744e-5,0,7.744e-5,180,0.015,1.549,22.175,120.893,9.788,180,0,0,0,2.799e4,1.349e4,19.959,0.106,NaN,2019.801,NaN,2.62e-4,1.749e4,20.155,-1.338e-4,1.284,-1.284,0.949,0.215,0.12,NaN,NaN,NaN,NaN,NaN,NaN,NaN,NaN,1.208e-5,165,213.825,80,0,0,15,1013.25,340.389,0.01,0.08
0.83,-4.343e-4,-0.087,-8.687,0.088,8.821,-7.659e-5,0,7.659e-5,180,0.015,1.532,22.175,120.893,9.788,180,0,0,0,2.799e4,1.349e4,19.959,0.106,NaN,2019.793,NaN,2.591e-4,1.73e4,22.899,-1.312e-4,1.287,-1.287,0.952,0.215,0.12,NaN,NaN,NaN,NaN,NaN,NaN,NaN,NaN,1.194e-5,165,213.825,80,0,0,15,1013.25,340.389,0.01,0.081
0.84,-4.256e-4,-0.085,-8.511,0.086,8.643,-7.504e-5,0,7.504e-5,180,0.015,1.501,22.175,120.893,9.788,180,0,0,0,2.799e4,1.349e4,19.959,0.106,NaN,2019.782,NaN,2.539e-4,1.695e4,27.886,-1.266e-4,1.294,-1.294,0.959,0.215,0.12,NaN,NaN,NaN,NaN,NaN,NaN,NaN,NaN,1.17e-5,165,213.825,80,0,0,15,1013.25,340.389,0.01,0.082
0.85,-4.183e-4,-0.084,-8.365,0.085,8.494,-7.375e-5,0,7.375e-5,180,0.015,1.475,22.175,120.893,9.788,180,0,0,0,2.799e4,1.349e4,19.959,0.106,NaN,2019.77,NaN,2.496e-4,1.666e4,32.036,-1.228e-4,1.299,-1.299,0.964,0.215,0.12,NaN,NaN,NaN,NaN,NaN,NaN,NaN,NaN,1.15e-5,165,213.825,80,0,0,15,1013.25,340.389,0.01,0.082
0.86,-4.106e-4,-0.082,-8.212,0.083,8.339,-7.24e-5,0,7.24e-5,180,0.014,1.448,22.175,120.893,9.788,180,0,0,0,2.799e4,1.349e4,19.959,0.106,NaN,2019.756,NaN,2.45e-4,1.635e4,36.392,-1.189e-4,1.305,-1.305,0.97,0.215,0.12,NaN,NaN,NaN,NaN,NaN,NaN,NaN,NaN,1.129e-5,165,213.825,80,0,0,15,1013.25,340.389,0.01,0.083
0.87,-4.032e-4,-0.081,-8.065,0.082,8.189,-7.11e-5,0,7.11e-5,180,0.014,1.422,22.175,120.893,9.788,180,0,0,0,2.799e4,1.349e4,19.958,0.106,NaN,2019.74,NaN,2.406e-4,1.606e4,40.581,-1.152e-4,1.311,-1.311,0.976,0.215,0.12,NaN,NaN,NaN,NaN,NaN,NaN,NaN,NaN,1.109e-5,165,213.825,80,0,0,15,1013.25,340.389,0.01,0.083
0.88,-3.96e-4,-0.079,-7.92,0.08,8.042,-6.983e-5,0,6.983e-5,180,0.014,1.397,22.175,120.893,9.788,180,0,0,0,2.799e4,1.349e4,19.958,0.106,NaN,2019.723,NaN,2.363e-4,1.577e4,44.682,-1.116e-4,1.317,-1.317,0.982,0.215,0.12,NaN,NaN,NaN,NaN,NaN,NaN,NaN,NaN,1.089e-5,165,213.825,80,0,0,15,1013.25,340.389,0.01,0.083
0.89,-3.897e-4,-0.078,-7.793,0.079,7.913,-6.871e-5,0,6.871e-5,180,0.014,1.374,22.175,120.893,9.788,180,0,0,0,2.799e4,1.349e4,19.958,0.106,NaN,2019.705,NaN,2.325e-4,1.552e4,48.294,-1.085e-4,1.323,-1.323,0.988,0.215,0.12,NaN,NaN,NaN,NaN,NaN,NaN,NaN,NaN,1.071e-5,165,213.825,80,0,0,15,1013.25,340.389,0.01,0.084
0.9,-3.836e-4,-0.077,-7.671,0.078,7.79,-6.763e-5,0,6.763e-5,180,0.014,1.353,22.175,120.893,9.788,180,0,0,0,2.799e4,1.349e4,19.957,0.106,NaN,2019.685,NaN,2.288e-4,1.528e4,51.752,-1.055e-4,1.328,-1.328,0.993,0.215,0.12,NaN,NaN,NaN,NaN,NaN,NaN,NaN,NaN,1.055e-5,165,213.825,80,0,0,15,1013.25,340.389,0.01,0.084
0.91,-3.755e-4,-0.075,-7.511,0.076,7.626,-6.622e-5,0,6.622e-5,180,0.013,1.324,22.175,120.893,9.788,180,0,0,0,2.798e4,1.348e4,19.957,0.106,NaN,2019.664,NaN,2.241e-4,1.496e4,56.319,-1.017e-4,1.335,-1.335,1,0.215,0.12,NaN,NaN,NaN,NaN,NaN,NaN,NaN,NaN,1.033e-5,165,213.825,80,0,0,15,1013.25,340.389,0.01,0.085
0.92,-3.677e-4,-0.074,-7.355,0.075,7.468,-6.484e-5,0,6.484e-5,180,0.013,1.297,22.175,120.893,9.788,180,0,0,0,2.798e4,1.348e4,19.957,0.106,NaN,2019.641,NaN,2.194e-4,1.465e4,60.748,-9.805e-5,1.342,-1.342,1.007,0.215,0.12,NaN,NaN,NaN,NaN,NaN,NaN,NaN,NaN,1.011e-5,165,213.825,80,0,0,15,1013.25,340.389,0.01,0.085
0.93,-3.56e-4,-0.071,-7.121,0.072,7.231,-6.278e-5,0,6.278e-5,180,0.013,1.256,22.175,120.893,9.788,180,0,0,0,2.798e4,1.348e4,19.956,0.106,NaN,2019.615,NaN,2.124e-4,1.418e4,67.387,-9.268e-5,1.354,-1.354,1.018,0.215,0.12,NaN,NaN,NaN,NaN,NaN,NaN,NaN,NaN,9.79e-6,165,213.825,80,0,0,15,1013.25,340.389,0.01,0.086
0.94,-3.418e-4,-0.068,-6.837,0.069,6.942,-6.028e-5,0,6.028e-5,180,0.012,1.206,22.175,120.893,9.788,180,0,0,0,2.798e4,1.348e4,19.956,0.106,NaN,2019.586,NaN,2.04e-4,1.362e4,75.455,-8.635e-5,1.368,-1.368,1.033,0.215,0.12,NaN,NaN,NaN,NaN,NaN,NaN,NaN,NaN,9.4e-6,165,213.825,80,0,0,15,1013.25,340.389,0.01,0.086
0.95,-3.257e-4,-0.065,-6.515,0.066,6.615,-5.744e-5,0,5.744e-5,180,0.011,1.149,22.175,120.893,9.788,180,0,0,0,2.798e4,1.348e4,19.955,0.106,NaN,2019.554,NaN,1.943e-4,1.297e4,84.603,-7.94e-5,1.385,-1.385,1.05,0.215,0.12,NaN,NaN,NaN,NaN,NaN,NaN,NaN,NaN,8.957e-6,165,213.825,80,0,0,15,1013.25,340.389,0.01,0.087
0.96,-3.058e-4,-0.061,-6.116,0.062,6.21,-5.392e-5,0,5.392e-5,180,0.011,1.078,22.175,120.893,9.788,180,0,0,0,2.798e4,1.348e4,19.954,0.106,NaN,2019.517,NaN,1.824e-4,1.218e4,95.934,-7.116e-5,1.409,-1.409,1.074,0.215,0.12,NaN,NaN,NaN,NaN,NaN,NaN,NaN,NaN,8.408e-6,165,213.825,80,0,0,15,1013.25,340.389,0.01,0.087
0.97,-2.857e-4,-0.057,-5.714,0.058,5.803,-5.038e-5,0,5.038e-5,180,0.01,1.008,22.175,120.893,9.788,180,0,0,0,2.798e4,1.348e4,19.954,0.106,NaN,2019.476,NaN,1.705e-4,1.138e4,107.326,-6.328e-5,1.435,-1.435,1.1,0.215,0.12,NaN,NaN,NaN,NaN,NaN,NaN,NaN,NaN,7.856e-6,165,213.825,80,0,0,15,1013.25,340.389,0.01,0.087
0.98,-2.598e-4,-0.052,-5.196,0.053,5.276,-4.581e-5,0,4.581e-5,180,0.009,0.916,22.175,120.893,9.788,180,0,0,0,2.797e4,1.347e4,19.953,0.106,NaN,2019.43,NaN,1.55e-4,1.035e4,122.033,-5.372e-5,1.473,-1.473,1.138,0.215,0.12,NaN,NaN,NaN,NaN,NaN,NaN,NaN,NaN,7.144e-6,165,213.825,80,0,0,15,1013.25,340.389,0.01,0.088
0.99,-2.264e-4,-0.045,-4.527,0.046,4.597,-3.992e-5,0,3.992e-5,180,0.008,0.798,22.175,120.893,9.788,180,0,0,0,2.797e4,1.347e4,19.952,0.106,NaN,2019.376,NaN,1.351e-4,9016.39,141.022,-4.114e-5,1.486,-1.486,1.151,0.215,0.12,NaN,NaN,NaN,NaN,NaN,NaN,NaN,NaN,6.225e-6,165,213.825,80,0,0,15,1013.25,340.389,0.01,0.088
1,-1.775e-4,-0.035,-3.549,0.036,3.604,-3.129e-5,0,3.129e-5,180,0.006,0.626,22.175,120.893,9.788,180,0,0,0,2.797e4,1.347e4,19.951,0.106,NaN,2019.312,NaN,1.059e-4,7067.945,168.795,-2.528e-5,1.486,-1.486,1.151,0.215,0.12,NaN,NaN,NaN,NaN,NaN,NaN,NaN,NaN,4.88e-6,165,213.825,80,0,0,15,1013.25,340.389,0.01,0.089
1.01,-1.08e-4,-0.022,-2.16,0.022,2.193,-1.905e-5,0,1.905e-5,180,0.004,0.381,22.175,120.893,9.788,180,0,0,0,2.796e4,1.346e4,19.949,0.106,NaN,2019.232,NaN,6.444e-5,4301.703,208.221,-9.365e-6,1.486,-1.486,1.151,0.215,0.12,NaN,NaN,NaN,NaN,NaN,NaN,NaN,NaN,2.97e-6,165,213.825,80,0,0,15,1013.25,340.389,0.01,0.089
1.02,-4.34e-5,-0.009,-0.867,0.009,0.88,-7.652e-6,0,7.652e-6,180,0.002,0.153,22.175,120.893,9.788,0,0,0,0,2.796e4,1.346e4,19.948,0.106,NaN,2019.139,NaN,2.588e-5,1727.922,244.886,1.511e-6,1.486,1.486,1.151,0.215,0.12,NaN,NaN,NaN,NaN,NaN,NaN,NaN,NaN,1.193e-6,165,213.825,80,0,0,15,1013.25,340.389,0.01,0.09
1.03,2.651e-5,0.005,0.532,0.005,0.54,4.675e-6,0,4.675e-6,0,9.356e-4,0.094,22.175,120.893,9.788,0,0,0,0,2.795e4,1.345e4,19.946,0.106,NaN,2019.03,NaN,1.583e-5,1056.588,284.538,5.65e-7,1.486,1.486,1.151,0.215,0.12,NaN,NaN,NaN,NaN,NaN,NaN,NaN,NaN,7.294e-7,165,213.825,80,0,0,15,1013.25,340.389,0.01,0.091
1.04,1.812e-4,0.026,2.035,0.026,2.066,3.196e-5,0,3.196e-5,0,0.005,0.359,22.175,120.893,9.788,0,0,0,0,2.795e4,1.345e4,19.943,0.106,NaN,2018.905,NaN,7.649e-5,5106.437,327.142,1.32e-5,1.486,1.486,1.151,0.215,0.12,NaN,NaN,NaN,NaN,NaN,NaN,NaN,NaN,3.525e-6,165,213.825,80,0,0,15,1013.25,340.389,0.01,0.091
1.05,6.197e-4,0.062,3.643,0.063,3.699,1.093e-4,0,1.093e-4,0,0.011,0.642,22.175,120.893,9.788,0,0,0,0,2.794e4,1.344e4,19.941,0.106,NaN,2018.763,NaN,1.851e-4,1.236e4,372.693,7.298e-5,1.403,1.403,1.068,0.215,0.12,NaN,NaN,NaN,NaN,NaN,NaN,NaN,NaN,8.532e-6,165,213.825,80,0,0,15,1013.25,340.389,0.01,0.092
1.06,0.002,0.118,5.603,0.12,5.689,2.681e-4,0,2.681e-4,0,0.021,0.988,22.175,120.893,9.788,0,0,0,0,2.793e4,1.343e4,19.938,0.106,NaN,2018.599,NaN,3.522e-4,2.351e4,428.171,2.254e-4,1.197,1.197,0.862,0.215,0.12,NaN,NaN,NaN,NaN,NaN,NaN,NaN,NaN,1.623e-5,165,213.825,80,0,0,15,1013.25,340.389,0.01,0.092
1.07,0.003,0.193,7.537,0.196,7.653,5.427e-4,0,5.427e-4,0,0.034,1.329,22.175,120.893,9.788,0,0,0,0,2.792e4,1.342e4,19.935,0.106,NaN,2018.415,NaN,5.77e-4,3.851e4,482.882,5.441e-4,1.077,1.077,0.742,0.215,0.12,NaN,NaN,NaN,NaN,NaN,NaN,NaN,NaN,2.659e-5,165,213.825,80,0,0,15,1013.25,340.389,0.01,0.092
1.08,0.005,0.291,9.756,0.295,9.907,9.697e-4,0,9.697e-4,0,0.051,1.72,22.175,120.893,9.788,0,0,0,0,2.791e4,1.341e4,19.931,0.106,NaN,2018.206,NaN,8.679e-4,5.794e4,545.617,0.001,0.996,0.996,0.661,0.215,0.12,NaN,NaN,NaN,NaN,NaN,NaN,NaN,NaN,4e-5,165,213.825,80,0,0,15,1013.249,340.389,0.01,0.092
1.09,0.009,0.414,12.278,0.42,12.468,0.002,0,0.002,0,0.073,2.165,22.175,120.893,9.788,0,0,0,0,2.79e4,1.34e4,19.927,0.106,NaN,2017.969,NaN,0.001,8.238e4,616.859,0.002,0.936,0.936,0.601,0.215,0.12,NaN,NaN,NaN,NaN,NaN,NaN,NaN,NaN,5.687e-5,165,213.825,80,0,0,15,1013.249,340.389,0.01,0.093
1.1,0.014,0.565,15.164,0.574,15.398,0.002,0,0.002,0,0.1,2.674,22.175,120.893,9.788,0,0,0,0,2.789e4,1.339e4,19.922,0.106,NaN,2017.702,NaN,0.002,1.126e5,698.307,0.004,0.889,0.889,0.554,0.215,0.12,NaN,NaN,NaN,NaN,NaN,NaN,NaN,NaN,7.771e-5,165,213.825,80,0,0,15,1013.248,340.389,0.01,0.093
1.11,0.02,0.747,18.204,0.759,18.485,0.004,0,0.004,0,0.132,3.21,22.175,120.893,9.788,0,0,0,0,2.788e4,1.338e4,19.917,0.106,NaN,2017.401,NaN,0.002,1.488e5,784.022,0.006,0.852,0.852,0.517,0.215,0.12,NaN,NaN,NaN,NaN,NaN,NaN,NaN,NaN,1.027e-4,165,213.825,80,0,0,15,1013.248,340.389,0.01,0.093
1.12,0.029,0.96,21.324,0.975,21.653,0.005,0,0.005,0,0.169,3.76,22.175,120.893,9.788,0,0,0,0,2.786e4,1.336e4,19.911,0.106,NaN,2017.066,NaN,0.003,1.913e5,871.849,0.01,0.822,0.822,0.487,0.215,0.12,NaN,NaN,NaN,NaN,NaN,NaN,NaN,NaN,1.32e-4,165,213.825,80,0,0,15,1013.247,340.389,0.01,0.093
1.13,0.04,1.205,24.499,1.224,24.877,0.007,0,0.007,0,0.213,4.32,22.175,120.893,9.788,0,0,0,0,2.784e4,1.334e4,19.904,0.106,NaN,2016.696,NaN,0.004,2.4e5,961.049,0.016,0.797,0.797,0.462,0.215,0.12,NaN,NaN,NaN,NaN,NaN,NaN,NaN,NaN,1.657e-4,165,213.825,80,0,0,15,1013.245,340.389,0.01,0.094
1.14,0.053,1.479,27.389,1.502,27.812,0.009,0,0.009,0,0.261,4.829,22.175,120.893,9.788,0,0,0,0,2.782e4,1.332e4,19.897,0.106,NaN,2016.295,NaN,0.004,2.945e5,1042.073,0.023,0.776,0.776,0.44,0.215,0.12,NaN,NaN,NaN,NaN,NaN,NaN,NaN,NaN,2.033e-4,165,213.825,80,0,0,15,1013.244,340.389,0.01,0.094
1.15,0.07,1.778,29.893,1.805,30.355,0.012,0,0.012,0,0.313,5.271,22.175,120.893,9.788,0,0,0,0,2.78e4,1.33e4,19.889,0.106,NaN,2015.866,NaN,0.005,3.54e5,1112.029,0.032,0.758,0.758,0.423,0.215,0.12,NaN,NaN,NaN,NaN,NaN,NaN,NaN,NaN,2.444e-4,165,213.825,80,0,0,15,1013.242,340.389,0.01,0.094
1.16,0.089,2.098,32.069,2.131,32.563,0.016,0,0.016,0,0.37,5.655,22.175,120.893,9.788,0,0,0,0,2.778e4,1.328e4,19.881,0.106,NaN,2015.413,NaN,0.006,4.179e5,1172.553,0.044,0.743,0.743,0.408,0.215,0.12,NaN,NaN,NaN,NaN,NaN,NaN,NaN,NaN,2.885e-4,165,213.825,80,0,0,14.999,1013.24,340.389,0.01,0.094
1.17,0.112,2.436,33.791,2.474,34.312,0.02,0,0.02,0,0.43,5.958,22.175,120.893,9.788,0,0,0,0,2.776e4,1.326e4,19.873,0.105,NaN,2014.941,NaN,0.007,4.851e5,1220.187,0.058,0.73,0.73,0.395,0.215,0.12,NaN,NaN,NaN,NaN,NaN,NaN,NaN,NaN,3.349e-4,165,213.825,80,0,0,14.999,1013.237,340.388,0.01,0.095
1.18,0.138,2.786,35.056,2.829,35.596,0.024,0,0.024,0,0.491,6.181,22.175,120.893,9.788,0,0,0,0,2.774e4,1.324e4,19.864,0.105,NaN,2014.455,NaN,0.008,5.549e5,1254.818,0.075,0.719,0.719,0.384,0.215,0.12,NaN,NaN,NaN,NaN,NaN,NaN,NaN,NaN,3.831e-4,165,213.825,80,0,0,14.999,1013.234,340.388,0.01,0.095
1.19,0.167,3.145,35.85,3.193,36.403,0.03,0,0.03,0,0.555,6.321,22.175,120.893,9.788,0,0,0,0,2.771e4,1.321e4,19.855,0.105,NaN,2013.959,NaN,0.009,6.262e5,1276.135,0.095,0.709,0.709,0.374,0.215,0.12,NaN,NaN,NaN,NaN,NaN,NaN,NaN,NaN,4.323e-4,165,213.825,80,0,0,14.999,1013.23,340.388,0.01,0.095
1.2,0.201,3.509,36.397,3.563,36.959,0.035,0,0.035,0,0.619,6.418,22.175,120.893,9.788,0,0,0,0,2.769e4,1.319e4,19.846,0.105,NaN,2013.458,NaN,0.01,6.987e5,1290.479,0.116,0.701,0.701,0.366,0.215,0.12,NaN,NaN,NaN,NaN,NaN,NaN,NaN,NaN,4.824e-4,165,213.825,80,0,0,14.999,1013.226,340.388,0.01,0.096
1.21,0.238,3.875,36.701,3.935,37.267,0.042,0,0.042,0,0.683,6.471,22.175,120.893,9.788,0,0,0,0,2.767e4,1.317e4,19.837,0.105,NaN,2012.952,NaN,0.012,7.717e5,1297.933,0.141,0.693,0.693,0.358,0.215,0.12,NaN,NaN,NaN,NaN,NaN,NaN,NaN,NaN,5.328e-4,165,213.825,80,0,0,14.998,1013.222,340.388,0.01,0.096
1.22,0.278,4.243,36.76,4.308,37.327,0.049,0,0.049,0,0.748,6.482,22.175,120.893,9.788,0,0,0,0,2.764e4,1.314e4,19.828,0.105,NaN,2012.446,NaN,0.013,8.449e5,1298.512,0.167,0.687,0.687,0.352,0.215,0.12,NaN,NaN,NaN,NaN,NaN,NaN,NaN,NaN,5.833e-4,165,213.825,80,0,0,14.998,1013.217,340.388,0.01,0.096
1.23,0.322,4.611,36.803,4.682,37.371,0.057,0,0.057,0,0.813,6.489,22.175,120.893,9.788,0,0,0,0,2.762e4,1.312e4,19.819,0.105,NaN,2011.938,NaN,0.014,9.181e5,1298.633,0.196,0.681,0.681,0.346,0.215,0.12,NaN,NaN,NaN,NaN,NaN,NaN,NaN,NaN,6.339e-4,165,213.825,80,0,0,14.998,1013.212,340.388,0.01,0.096
1.24,0.37,4.978,36.711,5.054,37.277,0.065,0,0.065,0,0.878,6.473,22.175,120.893,9.788,0,0,0,0,2.76e4,1.31e4,19.81,0.105,NaN,2011.431,NaN,0.015,9.912e5,1294.965,0.226,0.676,0.676,0.341,0.215,0.12,NaN,NaN,NaN,NaN,NaN,NaN,NaN,NaN,6.843e-4,165,213.825,80,0,0,14.998,1013.207,340.387,0.01,0.097
1.25,0.422,5.344,36.626,5.426,37.191,0.074,0,0.074,0,0.942,6.458,22.175,120.893,9.788,0,0,0,0,2.757e4,1.307e4,19.801,0.105,NaN,2010.925,NaN,0.016,1.064e6,1291.53,0.259,0.671,0.671,0.336,0.215,0.12,NaN,NaN,NaN,NaN,NaN,NaN,NaN,NaN,7.346e-4,165,213.825,80,0,0,14.997,1013.201,340.387,0.01,0.097
1.26,0.477,5.709,36.54,5.797,37.103,0.084,0,0.084,0,1.007,6.443,22.175,120.893,9.788,0,0,0,0,2.755e4,1.305e4,19.792,0.105,NaN,2010.419,NaN,0.017,1.137e6,1288.052,0.293,0.667,0.667,0.332,0.215,0.12,NaN,NaN,NaN,NaN,NaN,NaN,NaN,NaN,7.849e-4,165,213.825,80,0,0,14.997,1013.194,340.387,0.01,0.098
1.27,0.536,6.073,36.429,6.167,36.991,0.095,0,0.095,0,1.071,6.423,22.175,120.893,9.788,0,0,0,0,2.753e4,1.303e4,19.783,0.105,NaN,2009.914,NaN,0.018,1.209e6,1283.912,0.33,0.663,0.663,0.328,0.215,0.12,NaN,NaN,NaN,NaN,NaN,NaN,NaN,NaN,8.349e-4,165,213.825,80,0,0,14.997,1013.187,340.387,0.01,0.098
1.28,0.599,6.437,36.397,6.536,36.959,0.106,0,0.106,0,1.135,6.418,22.175,120.893,9.788,0,0,0,0,2.75e4,1.3e4,19.774,0.105,NaN,2009.409,NaN,0.019,1.282e6,1281.967,0.369,0.659,0.659,0.324,0.215,0.12,NaN,NaN,NaN,NaN,NaN,NaN,NaN,NaN,8.849e-4,165,213.825,80,0,0,14.996,1013.18,340.387,0.01,0.099
1.29,0.665,6.8,36.316,6.905,36.876,0.117,0,0.117,0,1.199,6.403,22.175,120.893,9.788,0,0,0,0,2.748e4,1.298e4,19.765,0.105,NaN,2008.904,NaN,0.02,1.354e6,1278.651,0.409,0.656,0.656,0.321,0.215,0.12,NaN,NaN,NaN,NaN,NaN,NaN,NaN,NaN,9.348e-4,165,213.825,80,0,0,14.996,1013.172,340.386,0.01,0.099
1.3,0.735,7.162,36.275,7.273,36.835,0.13,0,0.13,0,1.263,6.396,22.175,120.893,9.788,0,0,0,0,2.746e4,1.296e4,19.756,0.105,NaN,2008.399,NaN,0.021,1.426e6,1276.485,0.452,0.653,0.653,0.317,0.215,0.12,NaN,NaN,NaN,NaN,NaN,NaN,NaN,NaN,9.847e-4,165,213.825,80,0,0,14.995,1013.164,340.386,0.01,0.1
1.31,0.808,7.525,36.27,7.641,36.83,0.142,0,0.142,0,1.327,6.395,22.175,120.893,9.788,0,0,0,0,2.743e4,1.293e4,19.747,0.105,NaN,2007.894,NaN,0.022,1.498e6,1275.318,0.497,0.65,0.65,0.314,0.215,0.12,NaN,NaN,NaN,NaN,NaN,NaN,NaN,NaN,0.001,165,213.825,80,0,0,14.995,1013.155,340.386,0.01,0.1
1.32,0.885,7.887,36.243,8.009,36.802,0.156,0,0.156,0,1.391,6.391,22.175,120.893,9.788,0,0,0,0,2.741e4,1.291e4,19.738,0.105,NaN,2007.388,NaN,0.024,1.571e6,1273.528,0.543,0.647,0.647,0.312,0.215,0.12,NaN,NaN,NaN,NaN,NaN,NaN,NaN,NaN,0.001,165,213.825,80,0,0,14.994,1013.146,340.385,0.01,0.101
1.33,0.966,8.25,36.293,8.377,36.853,0.17,0,0.17,0,1.455,6.399,22.175,120.893,9.788,0,0,0,0,2.739e4,1.289e4,19.729,0.105,NaN,2006.882,NaN,0.025,1.643e6,1273.891,0.592,0.644,0.644,0.309,0.215,0.12,NaN,NaN,NaN,NaN,NaN,NaN,NaN,NaN,0.001,165,213.825,80,0,0,14.994,1013.137,340.385,0.01,0.101
1.34,1.05,8.612,36.271,8.745,36.83,0.185,0,0.185,0,1.519,6.395,22.175,120.893,9.788,0,0,0,0,2.736e4,1.286e4,19.72,0.105,NaN,2006.376,NaN,0.026,1.715e6,1272.247,0.643,0.642,0.642,0.306,0.215,0.12,NaN,NaN,NaN,NaN,NaN,NaN,NaN,NaN,0.001,165,213.825,80,0,0,14.993,1013.127,340.385,0.01,0.101
1.35,1.138,8.975,36.281,9.113,36.841,0.201,0,0.201,0,1.583,6.397,22.175,120.893,9.788,0,0,0,0,2.734e4,1.284e4,19.711,0.105,NaN,2005.868,NaN,0.027,1.787e6,1271.517,0.695,0.639,0.639,0.304,0.215,0.12,NaN,NaN,NaN,NaN,NaN,NaN,NaN,NaN,0.001,165,213.825,80,0,0,14.993,1013.117,340.384,0.01,0.102
1.36,1.23,9.338,36.319,9.482,36.879,0.217,0,0.217,0,1.647,6.404,22.175,120.893,9.788,0,0,0,0,2.732e4,1.282e4,19.702,0.105,NaN,2005.361,NaN,0.028,1.859e6,1271.539,0.75,0.637,0.637,0.302,0.215,0.12,NaN,NaN,NaN,NaN,NaN,NaN,NaN,NaN,0.001,165,213.825,80,0,0,14.992,1013.106,340.384,0.01,0.102
1.37,1.325,9.701,36.335,9.851,36.896,0.234,0,0.234,0,1.711,6.407,22.175,120.893,9.788,0,0,0,0,2.729e4,1.279e4,19.693,0.105,NaN,2004.852,NaN,0.029,1.932e6,1270.983,0.807,0.635,0.635,0.3,0.215,0.12,NaN,NaN,NaN,NaN,NaN,NaN,NaN,NaN,0.001,165,213.825,80,0,0,14.991,1013.095,340.384,0.01,0.106
1.38,1.424,10.065,36.451,10.221,37.013,0.251,0,0.251,0,1.775,6.427,22.175,120.893,9.788,0,0,0,0,2.727e4,1.277e4,19.684,0.105,NaN,2004.342,NaN,0.03,2.004e6,1273.167,0.866,0.633,0.633,0.298,0.215,0.12,NaN,NaN,NaN,NaN,NaN,NaN,NaN,NaN,0.001,165,213.825,80,0,0,14.991,1013.083,340.383,0.01,0.107
1.39,1.526,10.43,36.492,10.591,37.055,0.269,0,0.269,0,1.839,6.434,22.175,120.893,9.788,0,0,0,0,2.725e4,1.275e4,19.675,0.105,NaN,2003.83,NaN,0.031,2.077e6,1273.278,0.927,0.631,0.631,0.296,0.215,0.12,NaN,NaN,NaN,NaN,NaN,NaN,NaN,NaN,0.001,165,213.825,80,0,0,14.99,1013.071,340.383,0.01,0.107
1.4,1.632,10.796,36.579,10.962,37.143,0.288,0,0.288,0,1.904,6.45,22.175,120.893,9.788,0,0,0,0,2.723e4,1.273e4,19.666,0.105,NaN,2003.318,NaN,0.032,2.15e6,1274.663,0.99,0.629,0.629,0.294,0.215,0.12,NaN,NaN,NaN,NaN,NaN,NaN,NaN,NaN,0.001,165,213.825,80,0,0,14.989,1013.059,340.382,0.01,0.108
1.41,1.742,11.162,36.685,11.335,37.251,0.307,0,0.307,0,1.968,6.469,22.175,120.893,9.788,0,0,0,0,2.72e4,1.27e4,19.657,0.105,NaN,2002.803,NaN,0.033,2.223e6,1276.588,1.055,0.627,0.627,0.292,0.215,0.12,NaN,NaN,NaN,NaN,NaN,NaN,NaN,NaN,0.002,165,213.825,80,0,0,14.989,1013.046,340.382,0.01,0.108
1.42,1.856,11.53,36.753,11.708,37.32,0.327,0,0.327,0,2.033,6.481,22.175,120.893,9.788,0,0,0,0,2.718e4,1.268e4,19.648,0.105,NaN,2002.288,NaN,0.034,2.296e6,1277.444,1.123,0.626,0.626,0.29,0.215,0.12,NaN,NaN,NaN,NaN,NaN,NaN,NaN,NaN,0.002,165,213.825,80,0,0,14.988,1013.032,340.382,0.01,0.108
1.43,1.973,11.898,36.888,12.082,37.457,0.348,0,0.348,0,2.098,6.504,22.175,120.893,9.788,0,0,0,0,2.716e4,1.266e4,19.639,0.105,NaN,2001.77,NaN,0.035,2.369e6,1280.14,1.193,0.624,0.624,0.289,0.215,0.12,NaN,NaN,NaN,NaN,NaN,NaN,NaN,NaN,0.002,165,213.825,80,0,0,14.987,1013.019,340.381,0.01,0.109
1.44,2.094,12.268,36.945,12.457,37.515,0.369,0,0.369,0,2.163,6.514,22.175,120.893,9.788,0,0,0,0,2.713e4,1.263e4,19.629,0.105,NaN,2001.252,NaN,0.037,2.443e6,1280.681,1.266,0.623,0.623,0.288,0.215,0.12,NaN,NaN,NaN,NaN,NaN,NaN,NaN,NaN,0.002,165,213.825,80,0,0,14.986,1013.004,340.381,0.01,0.109
1.45,2.218,12.638,37.054,12.833,37.625,0.391,0,0.391,0,2.228,6.534,22.175,120.893,9.788,0,0,0,0,2.711e4,1.261e4,19.62,0.105,NaN,2000.731,NaN,0.038,2.516e6,1282.653,1.344,0.623,0.623,0.288,0.215,0.12,NaN,NaN,NaN,NaN,NaN,NaN,NaN,NaN,0.002,165,213.825,80,0,0,14.986,1012.99,340.38,0.01,0.109
1.46,2.346,13.01,37.171,13.21,37.745,0.414,0,0.414,0,2.294,6.554,22.175,120.893,9.788,0,0,0,0,2.709e4,1.259e4,19.611,0.104,NaN,2000.209,NaN,0.039,2.59e6,1284.861,1.424,0.623,0.623,0.288,0.215,0.12,NaN,NaN,NaN,NaN,NaN,NaN,NaN,NaN,0.002,165,213.825,80,0,0,14.985,1012.975,340.38,0.01,0.11
1.47,2.478,13.382,37.224,13.588,37.798,0.437,0,0.437,0,2.36,6.564,22.175,120.893,9.788,0,0,0,0,2.706e4,1.256e4,19.602,0.104,NaN,1999.686,NaN,0.04,2.664e6,1285.292,1.507,0.623,0.623,0.288,0.215,0.12,NaN,NaN,NaN,NaN,NaN,NaN,NaN,NaN,0.002,165,213.825,80,0,0,14.984,1012.959,340.379,0.01,0.11
1.48,2.614,13.755,37.345,13.967,37.921,0.461,0,0.461,0,2.425,6.585,22.175,120.893,9.788,0,0,0,0,2.704e4,1.254e4,19.592,0.104,NaN,1999.161,NaN,0.041,2.739e6,1287.587,1.592,0.623,0.623,0.288,0.215,0.12,NaN,NaN,NaN,NaN,NaN,NaN,NaN,NaN,0.002,165,213.825,80,0,0,14.983,1012.943,340.379,0.01,0.11
1.49,2.753,14.129,37.391,14.347,37.968,0.485,0,0.485,0,2.491,6.593,22.175,120.893,9.788,0,0,0,0,2.702e4,1.252e4,19.583,0.104,NaN,1998.635,NaN,0.042,2.813e6,1287.832,1.68,0.623,0.623,0.288,0.215,0.12,NaN,NaN,NaN,NaN,NaN,NaN,NaN,NaN,0.002,165,213.825,80,0,0,14.982,1012.927,340.378,0.01,0.111
1.5,2.896,14.503,37.462,14.727,38.04,0.511,0,0.511,0,2.557,6.606,22.175,120.893,9.788,0,0,0,0,2.699e4,1.249e4,19.574,0.104,NaN,1998.108,NaN,0.043,2.888e6,1288.735,1.77,0.623,0.623,0.288,0.215,0.12,NaN,NaN,NaN,NaN,NaN,NaN,NaN,NaN,0.002,165,213.825,80,0,0,14.981,1012.91,340.377,0.01,0.111
1.51,3.043,14.878,37.544,15.108,38.123,0.537,0,0.537,0,2.623,6.62,22.175,120.893,9.788,0,0,0,0,2.697e4,1.247e4,19.564,0.104,NaN,1997.579,NaN,0.044,2.962e6,1289.948,1.863,0.623,0.623,0.288,0.215,0.12,NaN,NaN,NaN,NaN,NaN,NaN,NaN,NaN,0.002,165,213.825,80,0,0,14.98,1012.893,340.377,0.01,0.111
1.52,3.194,15.254,37.56,15.489,38.14,0.563,0,0.563,0,2.69,6.623,22.175,120.893,9.788,0,0,0,0,2.695e4,1.244e4,19.555,0.104,NaN,1997.049,NaN,0.046,3.037e6,1289.376,1.958,0.623,0.623,0.288,0.215,0.12,NaN,NaN,NaN,NaN,NaN,NaN,NaN,NaN,0.002,165,213.825,80,0,0,14.979,1012.875,340.376,0.01,0.111
1.53,3.348,15.631,37.7,15.872,38.281,0.59,0,0.59,0,2.756,6.647,22.175,120.893,9.788,0,0,0,0,2.692e4,1.242e4,19.546,0.104,NaN,1996.518,NaN,0.047,3.112e6,1292.164,2.056,0.623,0.623,0.288,0.215,0.12,NaN,NaN,NaN,NaN,NaN,NaN,NaN,NaN,0.002,165,213.825,80,0,0,14.978,1012.857,340.376,0.01,0.112
1.54,3.507,16.008,37.77,16.255,38.352,0.618,0,0.618,0,2.823,6.66,22.175,120.893,9.788,0,0,0,0,2.69e4,1.24e4,19.536,0.104,NaN,1995.985,NaN,0.048,3.187e6,1293.051,2.157,0.623,0.623,0.288,0.215,0.12,NaN,NaN,NaN,NaN,NaN,NaN,NaN,NaN,0.002,165,213.825,80,0,0,14.977,1012.839,340.375,0.01,0.112
1.55,3.669,16.387,37.875,16.639,38.459,0.647,0,0.647,0,2.889,6.678,22.175,120.893,9.788,0,0,0,0,2.687e4,1.237e4,19.527,0.104,NaN,1995.451,NaN,0.049,3.262e6,1294.89,2.26,0.623,0.623,0.288,0.215,0.12,NaN,NaN,NaN,NaN,NaN,NaN,NaN,NaN,0.002,165,213.825,80,0,0,14.976,1012.82,340.374,0.01,0.112
1.56,3.834,16.766,37.999,17.025,38.585,0.676,0,0.676,0,2.956,6.7,22.175,120.893,9.788,0,0,0,0,2.685e4,1.235e4,19.517,0.104,NaN,1994.914,NaN,0.05,3.338e6,1297.251,2.366,0.623,0.623,0.288,0.215,0.12,NaN,NaN,NaN,NaN,NaN,NaN,NaN,NaN,0.002,165,213.825,80,0,0,14.975,1012.8,340.374,0.01,0.112
1.57,4.004,17.146,38.019,17.411,38.606,0.706,0,0.706,0,3.023,6.704,22.175,120.893,9.788,0,0,0,0,2.683e4,1.233e4,19.508,0.104,NaN,1994.377,NaN,0.051,3.414e6,1296.778,2.474,0.623,0.623,0.288,0.215,0.12,NaN,NaN,NaN,NaN,NaN,NaN,NaN,NaN,0.002,165,213.825,80,0,0,14.974,1012.78,340.373,0.01,0.113
1.585,4.265,17.714,37.85,17.992,38.77,0.752,1.897e-8,0.752,1.445e-6,3.149,8.395,22.175,120.893,9.788,0.081,0,3.867e-4,9.325e-6,2.679e4,1.229e4,19.493,0.104,2275.856,1993.568,1.711,0.053,3.527e6,1298.654,2.642,0.624,0.624,0.288,0.215,0.12,0.015,0.025,7.421e-7,0,0,0,0,0,0.002,165,213.825,80,0,0,14.972,1012.75,340.372,0.015,0.113
1.608,4.674,18.569,38.052,18.867,38.974,0.825,1.209e-7,0.825,8.396e-6,3.339,8.427,22.175,120.893,9.788,0.193,0,0.003,1.624e-5,2.674e4,1.224e4,19.472,0.104,2272.787,1992.348,1.7,0.055,3.699e6,1301.804,2.906,0.624,0.624,0.288,0.215,0.12,0.036,0.06,4.302e-4,0,0,0,0,2.025e-8,0.003,165,213.825,80,0,0,14.97,1012.702,340.37,0.023,0.113
1.641,5.322,19.862,38.388,20.19,39.314,0.943,4.493e-7,0.943,2.731e-5,3.625,8.479,22.175,120.893,9.788,0.342,0,0.009,9.89e-6,2.666e4,1.216e4,19.439,0.104,2268.751,1990.501,1.686,0.059,3.958e6,1307.398,3.329,0.624,0.624,0.288,0.215,0.12,0.064,0.108,-2.052e-4,0,0,0,0,2.524e-7,0.003,165,213.825,80,-3.358e-7,0,14.965,1012.626,340.368,0.034,0.114
1.691,6.364,21.797,38.809,22.17,39.738,1.135,1.356e-6,1.135,6.845e-5,4.051,8.543,22.175,120.893,9.788,0.527,0,0.029,5.727e-5,2.654e4,1.204e4,19.39,0.104,2263.792,1987.731,1.673,0.065,4.346e6,1313.533,4.017,0.624,0.624,0.288,0.215,0.121,0.099,0.165,2.959e-4,0,0,0,0,1.981e-6,0.003,165,213.825,79.999,-5.113e-6,0,14.959,1012.504,340.364,0.05,0.114
1.741,7.502,23.762,39.385,24.181,40.32,1.348,2.81e-6,1.348,1.194e-4,4.482,8.633,22.175,120.893,9.788,0.679,0,0.062,1.013e-4,2.642e4,1.192e4,19.34,0.104,2259.806,1984.915,1.666,0.071,4.74e6,1323.765,4.781,0.624,0.625,0.288,0.216,0.121,0.128,0.213,8.64e-5,0,0,0,0,7.525e-6,0.003,165,213.825,79.997,-1.664e-5,0,14.951,1012.37,340.359,0.05,0.114
1.791,8.74,25.757,40.01,26.222,40.952,1.583,4.864e-6,1.583,1.76e-4,4.918,8.731,22.175,120.893,9.788,0.802,0,0.11,1.041e-4,2.63e4,1.18e4,19.29,0.103,2256.599,1982.048,1.664,0.077,5.139e6,1335.184,5.626,0.624,0.625,0.288,0.216,0.121,0.152,0.252,-4.728e-4,0,0,0,0,2.005e-5,0.004,165,213.825,79.992,-3.814e-5,0,14.943,1012.225,340.354,0.05,0.115
1.841,10.079,27.786,40.68,28.298,41.629,1.84,7.561e-6,1.84,2.355e-4,5.359,8.839,22.175,120.893,9.788,0.903,0,0.174,1.109e-4,2.617e4,1.167e4,19.238,0.103,2254.037,1979.127,1.666,0.083,5.546e6,1347.677,6.557,0.624,0.626,0.288,0.216,0.121,0.172,0.286,1.089e-5,0,0,0,0,4.34e-5,0.004,165,213.825,79.985,-6.752e-5,0,14.934,1012.068,340.349,0.05,0.115
1.891,11.52,29.855,41.48,30.414,42.439,2.119,1.094e-5,2.119,2.959e-4,5.807,8.971,22.175,120.893,9.788,0.982,0,0.257,2.694e-5,2.605e4,1.155e4,19.185,0.103,2252.031,1976.143,1.672,0.089,5.96e6,1363.475,7.579,0.624,0.626,0.288,0.216,0.121,0.187,0.313,-2.35e-4,0,0,0,0,8.22e-5,0.004,165,213.825,79.975,-7.955e-5,0,14.925,1011.899,340.344,0.05,0.115
1.941,13.065,31.957,42.138,32.564,43.105,2.421,1.506e-5,2.421,3.565e-4,6.261,9.081,22.175,120.893,9.788,1.044,0,0.361,3.609e-5,2.593e4,1.143e4,19.132,0.103,2250.509,1973.105,1.681,0.096,6.38e6,1375.364,8.693,0.625,0.627,0.288,0.216,0.121,0.199,0.335,2.929e-4,0,0,0,0,1.415e-4,0.004,165,213.825,79.959,-7.92e-5,0,14.915,1011.718,340.337,0.05,0.116
1.991,14.716,34.095,42.882,34.751,43.86,2.745,1.996e-5,2.745,4.167e-4,6.72,9.212,22.175,120.893,9.788,1.088,0,0.488,5.926e-5,2.58e4,1.13e4,19.077,0.103,2249.429,1970.006,1.693,0.102,6.808e6,1389.417,9.905,0.625,0.627,0.288,0.216,0.121,0.208,0.353,3.648e-4,0,0,0,0,2.261e-4,0.005,165,213.825,79.938,-5.54e-5,0,14.904,1011.524,340.331,0.05,0.116
2.041,16.476,36.284,43.872,36.989,44.866,3.093,2.572e-5,3.093,4.764e-4,7.189,9.392,22.175,120.893,9.788,1.117,0,0.638,-7.427e-5,2.567e4,1.117e4,19.021,0.102,2248.772,1966.831,1.709,0.109,7.245e6,1409.711,11.226,0.625,0.627,0.288,0.216,0.122,0.214,0.366,-2.833e-4,0,0,0,0,3.414e-4,0.005,165,213.825,79.91,-1.107e-5,0,14.893,1011.318,340.324,0.05,0.116
2.091,18.346,38.515,44.744,39.271,45.754,3.464,3.239e-5,3.464,5.357e-4,7.665,9.56,22.175,120.893,9.788,1.13,0,0.813,6.6e-6,2.554e4,1.104e4,18.964,0.102,2248.512,1963.584,1.727,0.115,7.691e6,1426.753,12.658,0.625,0.628,0.287,0.216,0.122,0.217,0.374,-1.309e-4,0,0,0,0,4.921e-4,0.005,165,213.825,79.874,3.431e-5,0,14.881,1011.098,340.317,0.05,0.116
2.141,20.328,40.777,45.34,41.583,46.364,3.86,4.006e-5,3.86,5.946e-4,8.148,9.69,22.175,120.893,9.788,1.129,0,1.014,1.924e-5,2.541e4,1.091e4,18.906,0.102,2248.628,1960.282,1.748,0.122,8.143e6,1436.554,14.197,0.626,0.628,0.287,0.216,0.122,0.217,0.377,-2.748e-4,0,0,0,0,6.825e-4,0.006,165,213.825,79.828,7.701e-5,0,14.868,1010.866,340.309,0.05,0.117
2.191,22.424,43.072,46.018,43.93,47.06,4.279,4.879e-5,4.279,6.532e-4,8.639,9.847,22.175,120.893,9.788,1.113,0,1.24,4.866e-5,2.528e4,1.078e4,18.847,0.102,2249.118,1956.918,1.771,0.129,8.601e6,1448.404,15.848,0.626,0.628,0.287,0.216,0.122,0.213,0.378,-1.416e-4,0,0,0,0,9.148e-4,0.006,165,213.825,79.772,1.123e-4,0,14.854,1010.62,340.301,0.05,0.117
2.241,24.636,45.404,46.734,46.314,47.798,4.724,5.865e-5,4.724,7.113e-4,9.138,10.027,22.175,120.893,9.788,1.083,0,1.49,3.694e-4,2.515e4,1.065e4,18.787,0.102,2249.983,1953.489,1.797,0.136,9.066e6,1461.178,17.617,0.626,0.629,0.287,0.217,0.122,0.207,0.372,-3.51e-4,0,0,0,0,0.001,0.006,165,213.825,79.704,1.316e-4,0,14.84,1010.361,340.292,0.05,0.118
2.291,26.965,47.76,47.23,48.724,48.315,5.193,6.97e-5,5.193,7.69e-4,9.644,10.185,22.175,120.893,9.788,1.039,4.437e-7,1.763,6.557e-4,2.501e4,1.051e4,18.726,0.101,2251.216,1950.006,1.826,0.143,9.536e6,1468.288,19.499,0.627,0.629,0.287,0.217,0.123,0.199,0.361,-3.181e-4,0,0,0,0,0.002,0.007,165,213.825,79.623,1.434e-4,0,14.825,1010.087,340.283,0.05,0.118
2.341,29.412,50.119,47.3,51.138,48.405,5.688,8.2e-5,5.688,8.259e-4,10.155,10.284,22.175,120.893,9.788,0.982,0,2.054,9.776e-5,2.488e4,1.038e4,18.664,0.101,2252.806,1946.495,1.856,0.15,1.001e7,1464.702,21.48,0.627,0.629,0.287,0.217,0.123,0.187,0.346,6.291e-5,0,0,0,0,0.002,0.007,165,213.825,79.527,1.709e-4,0,14.809,1009.8,340.273,0.05,0.118
2.391,31.977,52.481,47.34,53.555,48.469,6.209,9.561e-5,6.209,8.823e-4,10.671,10.4,22.175,120.893,9.788,0.911,0,2.36,5.497e-4,2.475e4,1.025e4,18.602,0.101,2254.753,1942.956,1.89,0.157,1.048e7,1460.577,23.559,0.627,0.629,0.287,0.217,0.123,0.174,0.325,-4.336e-4,0,0,0,0,0.002,0.007,165,213.825,79.417,2.533e-4,0,14.792,1009.5,340.263,0.05,0.119
2.441,34.66,54.848,47.424,55.978,48.582,6.755,1.106e-4,6.755,9.382e-4,11.194,10.546,22.175,120.893,9.788,0.827,6.617e-7,2.672,8.925e-4,2.461e4,1.011e4,18.539,0.101,2257.053,1939.385,1.925,0.165,1.095e7,1457.734,25.738,0.628,0.629,0.287,0.217,0.124,0.157,0.3,-2.276e-4,0,0,0,0,0.003,0.008,165,213.825,79.291,3.268e-4,0,14.775,1009.185,340.252,0.05,0.119
2.491,37.461,57.197,47.089,58.386,48.275,7.328,1.271e-4,7.328,9.939e-4,11.721,10.638,22.175,120.893,9.788,0.731,-3.261e-7,2.982,7.528e-4,2.448e4,9982.7,18.477,0.101,2259.687,1935.809,1.963,0.172,1.142e7,1444.705,27.999,0.628,0.629,0.287,0.217,0.124,0.138,0.269,-3.954e-4,0,0,0,0,0.003,0.008,165,213.825,79.15,4.168e-4,0,14.757,1008.856,340.241,0.05,0.119
2.541,40.38,59.544,47.01,60.792,48.235,7.928,1.452e-4,7.928,0.001,12.256,10.802,22.175,120.893,9.788,0.624,4.367e-7,3.28,8.398e-4,2.435e4,9851.919,18.414,0.1,2262.638,1932.21,2.003,0.179,1.189e7,1438.362,30.354,0.629,0.63,0.287,0.218,0.124,0.118,0.232,-7.137e-5,0,0,0,0,0.003,0.008,165,213.825,78.993,5.246e-4,0,14.738,1008.514,340.23,0.05,0.12
2.591,43.415,61.88,46.804,63.189,48.071,8.554,1.65e-4,8.554,0.001,12.798,10.965,22.175,120.893,9.788,0.508,-1.852e-6,3.554,5.072e-4,2.422e4,9721.977,18.351,0.1,2265.871,1928.595,2.044,0.186,1.235e7,1429.136,32.798,0.629,0.63,0.287,0.218,0.124,0.095,0.192,1.216e-4,0,0,0,0,0.004,0.009,165,213.825,78.822,6.684e-4,0,14.718,1008.158,340.218,0.05,0.12
2.641,46.568,64.228,47.048,65.602,48.372,9.208,1.866e-4,9.208,0.001,13.354,11.241,22.175,120.893,9.788,0.384,1.108e-6,3.79,0.002,2.409e4,9591.843,18.287,0.1,2269.344,1924.936,2.087,0.193,1.282e7,1431.244,35.354,0.63,0.63,0.287,0.218,0.125,0.072,0.146,-2.278e-4,0,0,0,0,0.004,0.009,165,213.825,78.639,8.294e-4,0,14.697,1007.788,340.205,0.05,0.12
2.691,49.838,66.583,47.182,68.024,48.567,9.89,2.103e-4,9.89,0.001,13.923,11.517,22.175,120.893,9.788,0.255,1.136e-6,3.973,0.003,2.396e4,9461.748,18.222,0.1,2272.989,1921.238,2.132,0.2,1.329e7,1430.823,38.022,0.63,0.63,0.287,0.218,0.125,0.047,0.098,-7.851e-5,0,0,0,0,0.004,0.009,165,213.825,78.444,0.001,0,14.676,1007.405,340.193,0.05,0.121
2.741,53.227,68.953,47.456,70.462,48.911,10.6,2.361e-4,10.6,0.001,14.507,11.841,22.175,120.893,9.788,0.124,-8.049e-7,4.089,0.005,2.383e4,9331.363,18.157,0.1,2276.724,1917.492,2.177,0.207,1.376e7,1433.995,40.812,0.631,0.631,0.287,0.219,0.126,0.023,0.046,-4.939e-4,0,0,0,0,0.004,0.01,165,213.825,78.242,0.001,0,14.654,1007.007,340.179,0.05,0.121
2.791,56.734,71.344,47.901,72.927,49.435,11.341,2.643e-4,11.341,0.001,15.11,12.216,22.175,120.893,9.788,0.005,0,-4.122,0.135,2.37e4,9200.305,18.091,0.099,2280.192,1913.685,2.221,0.214,1.424e7,1441.415,43.739,0.631,0.631,0.287,0.219,0.126,8.482e-4,0.005,-8.861e-5,0,0,0,0,-0.004,0.01,165,213.825,78.037,0.002,0,14.631,1006.596,340.165,0.05,0.121
2.841,60.361,73.755,48.283,75.414,49.897,12.112,2.952e-4,12.112,0.001,15.732,12.588,22.175,120.893,9.788,0.127,-2.745e-6,-4.065,0.006,2.357e4,9068.707,18.023,0.099,2276.964,1909.819,2.225,0.222,1.472e7,1447.346,46.802,0.632,0.632,0.286,0.219,0.126,0.024,0.056,-2.026e-4,0,0,0,0,-0.003,0.01,165,213.825,77.832,0.002,0,14.608,1006.171,340.151,0.05,0.122
2.891,64.109,76.164,48.239,77.902,49.925,12.914,3.291e-4,12.914,0.001,16.367,12.867,22.175,120.893,9.788,0.239,-1.874e-6,-3.904,0.003,2.344e4,8937.495,17.955,0.099,2274.065,1905.922,2.231,0.229,1.52e7,1443.113,49.977,0.632,0.633,0.286,0.219,0.127,0.045,0.102,-3.943e-4,0,0,0,0,-0.003,0.011,165,213.825,77.632,0.002,0,14.583,1005.731,340.136,0.05,0.122
2.941,67.977,78.562,48.037,80.384,49.791,13.749,3.665e-4,13.749,0.002,17.015,13.101,22.175,120.893,9.787,0.336,8.209e-7,-3.638,0.002,2.331e4,8806.998,17.887,0.099,2271.607,1902.002,2.24,0.236,1.568e7,1435.232,53.253,0.633,0.633,0.286,0.22,0.127,0.063,0.144,4.082e-4,0,0,0,0,-0.002,0.011,165,213.825,77.443,0.003,0,14.558,1005.277,340.121,0.05,0.122
2.991,71.966,80.973,48.269,82.88,50.098,14.616,4.079e-4,14.616,0.002,17.678,13.411,22.175,120.893,9.787,0.414,-1.373e-6,-3.27,0.002,2.318e4,8676.274,17.818,0.099,2269.702,1898.031,2.253,0.244,1.617e7,1437.734,56.657,0.634,0.634,0.286,0.22,0.128,0.078,0.177,8.387e-6,0,0,0,0,-0.002,0.011,165,213.825,77.27,0.003,0,14.532,1004.81,340.105,0.05,0.123
3.041,76.075,83.406,48.735,85.403,50.636,15.517,4.536e-4,15.517,0.002,18.359,13.744,22.175,120.893,9.787,0.468,-5.091e-7,-2.806,7.476e-4,2.305e4,8544.831,17.748,0.098,2268.442,1893.993,2.269,0.251,1.665e7,1445.651,60.207,0.634,0.635,0.286,0.22,0.128,0.088,0.201,4.545e-4,0,0,0,0,-0.001,0.012,165,213.825,77.118,0.003,0,14.506,1004.328,340.089,0.05,0.123
3.091,80.307,85.856,49.07,87.945,51.03,16.452,5.041e-4,16.452,0.002,19.054,14.007,22.175,120.893,9.787,0.495,0,-2.261,0.001,2.291e4,8412.968,17.677,0.098,2267.9,1889.896,2.291,0.259,1.714e7,1450.255,63.893,0.635,0.636,0.286,0.22,0.129,0.093,0.214,3.747e-4,0,0,0,0,-7.592e-4,0.012,165,213.825,76.991,0.004,0,14.478,1003.831,340.073,0.05,0.123
3.141,84.661,88.313,49.217,90.496,51.217,17.422,5.596e-4,17.422,0.002,19.759,14.174,22.175,120.893,9.787,0.495,4.968e-7,-1.661,5.697e-4,2.278e4,8281.109,17.605,0.098,2268.116,1885.751,2.317,0.266,1.763e7,1450.225,67.702,0.636,0.636,0.286,0.221,0.129,0.093,0.217,-2.047e-4,0,0,0,0,-3.869e-4,0.012,165,213.825,76.893,0.004,0,14.45,1003.321,340.055,0.05,0.124
