# Time (s),Altitude (m),Vertical velocity (m/s),Vertical acceleration (m/s²),Total velocity (m/s),Total acceleration (m/s²),Position East of launch (m),Position North of launch (m),Lateral distance (m),Lateral direction (°),Lateral velocity (m/s),Lateral acceleration (m/s²),Latitude (°),Longitude (°),Gravitational acceleration (m/s²),Angle of attack (°),Roll rate (°/s),Pitch rate (°/s),Yaw rate (°/s),Mass (g),Motor mass (g),Longitudinal moment of inertia (kg·m²),Rotational moment of inertia (kg·m²),CP location (mm),CG location (mm),Stability margin calibers (​),Mach number (​),Reynolds number (​),Thrust (N),Drag force (N),Drag coefficient (​),Axial drag coefficient (​),Friction drag coefficient (​),Pressure drag coefficient (​),Base drag coefficient (​),Normal force coefficient (​),Pitch moment coefficient (​),Yaw moment coefficient (​),Side force coefficient (​),Roll moment coefficient (​),Roll forcing coefficient (​),Roll damping coefficient (​),Pitch damping coefficient (​),Coriolis acceleration (m/s²),Reference length (mm),Reference area (cm²),Vertical orientation (zenith) (°),Lateral orientation (azimuth) (°),Wind velocity (m/s),Air temperature (°C),Air pressure (mbar),Speed of sound (m/s),Simulation time step (s),Computation time (s)
0.01,-4.664e-4,-0.093,-9.324,0.095,9.468,-8.224e-5,0,8.224e-5,180,0.016,1.644,22.175,120.893,9.788,82.691,0,0,0,2.8e4,1.35e4,19.963,0.106,NaN,2019.994,NaN,0.006,3.894e5,4.784,1.867e-4,0.749,0.004,0.414,0.215,0.12,NaN,NaN,NaN,NaN,NaN,NaN,NaN,NaN,1.282e-5,165,213.825,80,0,2,15,1013.25,340.389,0.01,0.005
0.02,-4.668e-4,-0.093,-9.336,0.095,9.48,-8.231e-5,0,8.231e-5,180,0.016,1.646,22.175,120.893,9.788,82.695,0,0,0,2.8e4,1.35e4,19.963,0.106,NaN,2019.992,NaN,0.006,3.894e5,4.461,1.865e-4,0.749,0.004,0.414,0.215,0.12,NaN,NaN,NaN,NaN,NaN,NaN,NaN,NaN,1.283e-5,165,213.825,80,0,2,15,1013.25,340.389,0.01,0.006
0.03,-4.67e-4,-0.093,-9.34,0.095,9.484,-8.234e-5,0,8.234e-5,180,0.016,1.647,22.175,120.893,9.788,82.696,0,0,0,2.8e4,1.35e4,19.963,0.106,NaN,2019.991,NaN,0.006,3.894e5,4.343,1.864e-4,0.749,0.004,0.414,0.215,0.12,NaN,NaN,NaN,NaN,NaN,NaN,NaN,NaN,1.284e-5,165,213.825,80,0,2,15,1013.25,340.389,0.01,0.007
0.04,-4.672e-4,-0.093,-9.343,0.095,9.487,-8.237e-5,0,8.237e-5,180,0.016,1.647,22.175,120.893,9.788,82.697,0,0,0,2.8e4,1.35e4,19.963,0.106,NaN,2019.989,NaN,0.006,3.894e5,4.249,1.863e-4,0.749,0.004,0.414,0.215,0.12,NaN,NaN,NaN,NaN,NaN,NaN,NaN,NaN,1.285e-5,165,213.825,80,0,2,15,1013.25,340.389,0.01,0.008
0.05,-4.668e-4,-0.093,-9.336,0.095,9.48,-8.231e-5,0,8.231e-5,180,0.016,1.646,22.175,120.893,9.788,82.695,0,0,0,2.8e4,1.35e4,19.963,0.106,NaN,2019.988,NaN,0.006,3.894e5,4.443,1.864e-4,0.749,0.004,0.414,0.215,0.12,NaN,NaN,NaN,NaN,NaN,NaN,NaN,NaN,1.284e-5,165,213.825,80,0,2,15,1013.25,340.389,0.01,0.009
0.06,-4.664e-4,-0.093,-9.328,0.095,9.472,-8.224e-5,0,8.224e-5,180,0.016,1.645,22.175,120.893,9.788,82.692,0,0,0,2.8e4,1.35e4,19.963,0.106,NaN,2019.986,NaN,0.006,3.894e5,4.681,1.866e-4,0.749,0.004,0.414,0.215,0.12,NaN,NaN,NaN,NaN,NaN,NaN,NaN,NaN,1.282e-5,165,213.825,80,0,2,15,1013.25,340.389,0.01,0.009
0.07,-4.668e-4,-0.093,-9.336,0.095,9.481,-8.231e-5,0,8.231e-5,180,0.016,1.646,22.175,120.893,9.788,82.695,0,0,0,2.8e4,1.35e4,19.963,0.106,NaN,2019.984,NaN,0.006,3.894e5,4.438,1.864e-4,0.749,0.004,0.414,0.215,0.12,NaN,NaN,NaN,NaN,NaN,NaN,NaN,NaN,1.284e-5,165,213.825,80,0,2,15,1013.25,340.389,0.01,0.01
0.08,-4.668e-4,-0.093,-9.335,0.095,9.479,-8.23e-5,0,8.23e-5,180,0.016,1.646,22.175,120.893,9.788,82.694,0,0,0,2.8e4,1.35e4,19.963,0.106,NaN,2019.982,NaN,0.006,3.894e5,4.479,1.865e-4,0.749,0.004,0.414,0.215,0.12,NaN,NaN,NaN,NaN,NaN,NaN,NaN,NaN,1.283e-5,165,213.825,80,0,2,15,1013.25,340.389,0.01,0.011
0.09,-4.665e-4,-0.093,-9.331,0.095,9.475,-8.226e-5,0,8.226e-5,180,0.016,1.645,22.175,120.893,9.788,82.693,0,0,0,2.8e4,1.35e4,19.963,0.106,NaN,2019.981,NaN,0.006,3.894e5,4.603,1.866e-4,0.749,0.004,0.414,0.215,0.12,NaN,NaN,NaN,NaN,NaN,NaN,NaN,NaN,1.283e-5,165,213.825,80,0,2,15,1013.25,340.389,0.01,0.011
0.1,-4.67e-4,-0.093,-9.341,0.095,9.485,-8.235e-5,0,8.235e-5,180,0.016,1.647,22.175,120.893,9.788,82.696,0,0,0,2.8e4,1.35e4,19.963,0.106,NaN,2019.979,NaN,0.006,3.894e5,4.315,1.863e-4,0.749,0.004,0.414,0.215,0.12,NaN,NaN,NaN,NaN,NaN,NaN,NaN,NaN,1.284e-5,165,213.825,80,0,2,15,1013.25,340.389,0.01,0.012
0.11,-4.668e-4,-0.093,-9.337,0.095,9.481,-8.232e-5,0,8.232e-5,180,0.016,1.646,22.175,120.893,9.788,82.695,0,0,0,2.8e4,1.35e4,19.963,0.106,NaN,2019.977,NaN,0.006,3.894e5,4.431,1.864e-4,0.749,0.004,0.414,0.215,0.12,NaN,NaN,NaN,NaN,NaN,NaN,NaN,NaN,1.284e-5,165,213.825,80,0,2,15,1013.25,340.389,0.01,0.012
0.12,-4.668e-4,-0.093,-9.337,0.095,9.481,-8.231e-5,0,8.231e-5,180,0.016,1.646,22.175,120.893,9.788,82.695,0,0,0,2.8e4,1.35e4,19.962,0.106,NaN,2019.976,NaN,0.006,3.894e5,4.436,1.864e-4,0.749,0.004,0.414,0.215,0.12,NaN,NaN,NaN,NaN,NaN,NaN,NaN,NaN,1.284e-5,165,213.825,80,0,2,15,1013.25,340.389,0.01,0.013
0.13,-4.665e-4,-0.093,-9.33,0.095,9.474,-8.226e-5,0,8.226e-5,180,0.016,1.645,22.175,120.893,9.788,82.693,0,0,0,2.8e4,1.35e4,19.962,0.106,NaN,2019.974,NaN,0.006,3.894e5,4.62,1.866e-4,0.749,0.004,0.414,0.215,0.12,NaN,NaN,NaN,NaN,NaN,NaN,NaN,NaN,1.283e-5,165,213.825,80,0,2,15,1013.25,340.389,0.01,0.014
0.14,-4.669e-4,-0.093,-9.338,0.095,9.482,-8.232e-5,0,8.232e-5,180,0.016,1.646,22.175,120.893,9.788,82.695,0,0,0,2.8e4,1.35e4,19.962,0.106,NaN,2019.972,NaN,0.006,3.894e5,4.404,1.864e-4,0.749,0.004,0.414,0.215,0.12,NaN,NaN,NaN,NaN,NaN,NaN,NaN,NaN,1.284e-5,165,213.825,80,0,2,15,1013.25,340.389,0.01,0.015
0.15,-4.668e-4,-0.093,-9.336,0.095,9.48,-8.231e-5,0,8.231e-5,180,0.016,1.646,22.175,120.893,9.788,82.695,0,0,0,2.8e4,1.35e4,19.962,0.106,NaN,2019.97,NaN,0.006,3.894e5,4.444,1.864e-4,0.749,0.004,0.414,0.215,0.12,NaN,NaN,NaN,NaN,NaN,NaN,NaN,NaN,1.284e-5,165,213.825,80,0,2,15,1013.25,340.389,0.01,0.015
0.16,-4.664e-4,-0.093,-9.329,0.095,9.473,-8.225e-5,0,8.225e-5,180,0.016,1.645,22.175,120.893,9.788,82.693,0,0,0,2.8e4,1.35e4,19.962,0.106,NaN,2019.969,NaN,0.006,3.894e5,4.651,1.866e-4,0.749,0.004,0.414,0.215,0.12,NaN,NaN,NaN,NaN,NaN,NaN,NaN,NaN,1.283e-5,165,213.825,80,0,2,15,1013.25,340.389,0.01,0.016
0.17,-4.672e-4,-0.093,-9.344,0.095,9.488,-8.238e-5,0,8.238e-5,180,0.016,1.648,22.175,120.893,9.788,82.697,0,0,0,2.8e4,1.35e4,19.962,0.106,NaN,2019.967,NaN,0.006,3.894e5,4.218,1.863e-4,0.749,0.004,0.414,0.215,0.12,NaN,NaN,NaN,NaN,NaN,NaN,NaN,NaN,1.285e-5,165,213.825,80,0,2,15,1013.25,340.389,0.01,0.016
0.18,-4.672e-4,-0.093,-9.344,0.095,9.488,-8.238e-5,0,8.238e-5,180,0.016,1.648,22.175,120.893,9.788,82.697,0,0,0,2.8e4,1.35e4,19.962,0.106,NaN,2019.965,NaN,0.006,3.894e5,4.225,1.863e-4,0.749,0.004,0.414,0.215,0.12,NaN,NaN,NaN,NaN,NaN,NaN,NaN,NaN,1.285e-5,165,213.825,80,0,2,15,1013.25,340.389,0.01,0.017
0.19,-4.67e-4,-0.093,-9.341,0.095,9.485,-8.235e-5,0,8.235e-5,180,0.016,1.647,22.175,120.893,9.788,82.696,0,0,0,2.8e4,1.35e4,19.962,0.106,NaN,2019.964,NaN,0.006,3.894e5,4.321,1.863e-4,0.749,0.004,0.414,0.215,0.12,NaN,NaN,NaN,NaN,NaN,NaN,NaN,NaN,1.284e-5,165,213.825,80,0,2,15,1013.25,340.389,0.01,0.017
0.2,-4.673e-4,-0.093,-9.346,0.095,9.49,-8.24e-5,0,8.24e-5,180,0.016,1.648,22.175,120.893,9.788,82.698,0,0,0,2.8e4,1.35e4,19.962,0.106,NaN,2019.962,NaN,0.006,3.894e5,4.174,1.862e-4,0.749,0.004,0.414,0.215,0.12,NaN,NaN,NaN,NaN,NaN,NaN,NaN,NaN,1.285e-5,165,213.825,80,0,2,15,1013.25,340.389,0.01,0.018
0.21,-4.669e-4,-0.093,-9.338,0.095,9.483,-8.233e-5,0,8.233e-5,180,0.016,1.647,22.175,120.893,9.788,82.695,0,0,0,2.8e4,1.35e4,19.962,0.106,NaN,2019.961,NaN,0.006,3.894e5,4.381,1.864e-4,0.749,0.004,0.414,0.215,0.12,NaN,NaN,NaN,NaN,NaN,NaN,NaN,NaN,1.284e-5,165,213.825,80,0,2,15,1013.25,340.389,0.01,0.018
0.22,-4.664e-4,-0.093,-9.329,0.095,9.473,-8.225e-5,0,8.225e-5,180,0.016,1.645,22.175,120.893,9.788,82.693,0,0,0,2.8e4,1.35e4,19.962,0.106,NaN,2019.959,NaN,0.006,3.894e5,4.657,1.866e-4,0.749,0.004,0.414,0.215,0.12,NaN,NaN,NaN,NaN,NaN,NaN,NaN,NaN,1.283e-5,165,213.825,80,0,2,15,1013.25,340.389,0.01,0.018
0.23,-4.669e-4,-0.093,-9.338,0.095,9.482,-8.233e-5,0,8.233e-5,180,0.016,1.647,22.175,120.893,9.788,82.695,0,0,0,2.8e4,1.35e4,19.962,0.106,NaN,2019.957,NaN,0.006,3.894e5,4.392,1.864e-4,0.749,0.004,0.414,0.215,0.12,NaN,NaN,NaN,NaN,NaN,NaN,NaN,NaN,1.284e-5,165,213.825,80,0,2,15,1013.25,340.389,0.01,0.019
0.24,-4.667e-4,-0.093,-9.334,0.095,9.478,-8.229e-5,0,8.229e-5,180,0.016,1.646,22.175,120.893,9.788,82.694,0,0,0,2.8e4,1.35e4,19.962,0.106,NaN,2019.955,NaN,0.006,3.894e5,4.513,1.865e-4,0.749,0.004,0.414,0.215,0.12,NaN,NaN,NaN,NaN,NaN,NaN,NaN,NaN,1.283e-5,165,213.825,80,0,2,15,1013.25,340.389,0.01,0.019
0.25,-4.666e-4,-0.093,-9.331,0.095,9.475,-8.227e-5,0,8.227e-5,180,0.016,1.645,22.175,120.893,9.788,82.693,0,0,0,2.8e4,1.35e4,19.962,0.106,NaN,2019.954,NaN,0.006,3.894e5,4.587,1.865e-4,0.749,0.004,0.414,0.215,0.12,NaN,NaN,NaN,NaN,NaN,NaN,NaN,NaN,1.283e-5,165,213.825,80,0,2,15,1013.25,340.389,0.01,0.02
0.26,-4.668e-4,-0.093,-9.337,0.095,9.481,-8.232e-5,0,8.232e-5,180,0.016,1.646,22.175,120.893,9.788,82.695,0,0,0,2.8e4,1.35e4,19.962,0.106,NaN,2019.952,NaN,0.006,3.894e5,4.429,1.864e-4,0.749,0.004,0.414,0.215,0.12,NaN,NaN,NaN,NaN,NaN,NaN,NaN,NaN,1.284e-5,165,213.825,80,0,2,15,1013.25,340.389,0.01,0.02
0.27,-4.667e-4,-0.093,-9.333,0.095,9.477,-8.229e-5,0,8.229e-5,180,0.016,1.646,22.175,120.893,9.788,82.694,0,0,0,2.8e4,1.35e4,19.962,0.106,NaN,2019.95,NaN,0.006,3.894e5,4.527,1.865e-4,0.749,0.004,0.414,0.215,0.12,NaN,NaN,NaN,NaN,NaN,NaN,NaN,NaN,1.283e-5,165,213.825,80,0,2,15,1013.25,340.389,0.01,0.02
0.28,-4.667e-4,-0.093,-9.335,0.095,9.479,-8.23e-5,0,8.23e-5,180,0.016,1.646,22.175,120.893,9.788,82.694,0,0,0,2.8e4,1.35e4,19.962,0.106,NaN,2019.949,NaN,0.006,3.894e5,4.488,1.865e-4,0.749,0.004,0.414,0.215,0.12,NaN,NaN,NaN,NaN,NaN,NaN,NaN,NaN,1.283e-5,165,213.825,80,0,2,15,1013.25,340.389,0.01,0.021
0.29,-4.665e-4,-0.093,-9.33,0.095,9.474,-8.226e-5,0,8.226e-5,180,0.016,1.645,22.175,120.893,9.788,82.693,0,0,0,2.8e4,1.35e4,19.962,0.106,NaN,2019.947,NaN,0.006,3.894e5,4.616,1.866e-4,0.749,0.004,0.414,0.215,0.12,NaN,NaN,NaN,NaN,NaN,NaN,NaN,NaN,1.283e-5,165,213.825,80,0,2,15,1013.25,340.389,0.01,0.021
0.3,-4.666e-4,-0.093,-9.333,0.095,9.477,-8.228e-5,0,8.228e-5,180,0.016,1.646,22.175,120.893,9.788,82.694,0,0,0,2.8e4,1.35e4,19.962,0.106,NaN,2019.945,NaN,0.006,3.894e5,4.548,1.865e-4,0.749,0.004,0.414,0.215,0.12,NaN,NaN,NaN,NaN,NaN,NaN,NaN,NaN,1.283e-5,165,213.825,80,0,2,15,1013.25,340.389,0.01,0.022
0.31,-4.664e-4,-0.093,-9.327,0.095,9.471,-8.223e-5,0,8.223e-5,180,0.016,1.645,22.175,120.893,9.788,82.692,0,0,0,2.8e4,1.35e4,19.962,0.106,NaN,2019.943,NaN,0.006,3.894e5,4.706,1.866e-4,0.749,0.004,0.414,0.215,0.12,NaN,NaN,NaN,NaN,NaN,NaN,NaN,NaN,1.282e-5,165,213.825,80,0,2,15,1013.25,340.389,0.01,0.022
0.32,-4.67e-4,-0.093,-9.34,0.095,9.484,-8.235e-5,0,8.235e-5,180,0.016,1.647,22.175,120.893,9.788,82.696,0,0,0,2.8e4,1.35e4,19.962,0.106,NaN,2019.942,NaN,0.006,3.894e5,4.332,1.864e-4,0.749,0.004,0.414,0.215,0.12,NaN,NaN,NaN,NaN,NaN,NaN,NaN,NaN,1.284e-5,165,213.825,80,0,2,15,1013.25,340.389,0.01,0.022
0.33,-4.667e-4,-0.093,-9.335,0.095,9.479,-8.23e-5,0,8.23e-5,180,0.016,1.646,22.175,120.893,9.788,82.694,0,0,0,2.8e4,1.35e4,19.962,0.106,NaN,2019.94,NaN,0.006,3.894e5,4.483,1.865e-4,0.749,0.004,0.414,0.215,0.12,NaN,NaN,NaN,NaN,NaN,NaN,NaN,NaN,1.283e-5,165,213.825,80,0,2,15,1013.25,340.389,0.01,0.023
0.34,-4.666e-4,-0.093,-9.332,0.095,9.476,-8.227e-5,0,8.227e-5,180,0.016,1.645,22.175,120.893,9.788,82.694,0,0,0,2.8e4,1.35e4,19.962,0.106,NaN,2019.938,NaN,0.006,3.894e5,4.57,1.865e-4,0.749,0.004,0.414,0.215,0.12,NaN,NaN,NaN,NaN,NaN,NaN,NaN,NaN,1.283e-5,165,213.825,80,0,2,15,1013.25,340.389,0.01,0.023
0.35,-4.669e-4,-0.093,-9.337,0.095,9.481,-8.232e-5,0,8.232e-5,180,0.016,1.646,22.175,120.893,9.788,82.695,0,0,0,2.8e4,1.35e4,19.962,0.106,NaN,2019.936,NaN,0.006,3.894e5,4.419,1.864e-4,0.749,0.004,0.414,0.215,0.12,NaN,NaN,NaN,NaN,NaN,NaN,NaN,NaN,1.284e-5,165,213.825,80,0,2,15,1013.25,340.389,0.01,0.023
0.36,-4.67e-4,-0.093,-9.341,0.095,9.485,-8.235e-5,0,8.235e-5,180,0.016,1.647,22.175,120.893,9.788,82.696,0,0,0,2.8e4,1.35e4,19.962,0.106,NaN,2019.935,NaN,0.006,3.894e5,4.317,1.863e-4,0.749,0.004,0.414,0.215,0.12,NaN,NaN,NaN,NaN,NaN,NaN,NaN,NaN,1.284e-5,165,213.825,80,0,2,15,1013.25,340.389,0.01,0.024
0.37,-4.667e-4,-0.093,-9.333,0.095,9.477,-8.229e-5,0,8.229e-5,180,0.016,1.646,22.175,120.893,9.788,82.694,0,0,0,2.8e4,1.35e4,19.962,0.106,NaN,2019.933,NaN,0.006,3.894e5,4.522,1.865e-4,0.749,0.004,0.414,0.215,0.12,NaN,NaN,NaN,NaN,NaN,NaN,NaN,NaN,1.283e-5,165,213.825,80,0,2,15,1013.25,340.389,0.01,0.024
0.38,-4.668e-4,-0.093,-9.337,0.095,9.481,-8.232e-5,0,8.232e-5,180,0.016,1.646,22.175,120.893,9.788,82.695,0,0,0,2.8e4,1.35e4,19.962,0.106,NaN,2019.931,NaN,0.006,3.894e5,4.433,1.864e-4,0.749,0.004,0.414,0.215,0.12,NaN,NaN,NaN,NaN,NaN,NaN,NaN,NaN,1.284e-5,165,213.825,80,0,2,15,1013.25,340.389,0.01,0.025
0.39,-4.664e-4,-0.093,-9.328,0.095,9.472,-8.224e-5,0,8.224e-5,180,0.016,1.645,22.175,120.893,9.788,82.693,0,0,0,2.8e4,1.35e4,19.962,0.106,NaN,2019.93,NaN,0.006,3.894e5,4.673,1.866e-4,0.749,0.004,0.414,0.215,0.12,NaN,NaN,NaN,NaN,NaN,NaN,NaN,NaN,1.282e-5,165,213.825,80,0,2,15,1013.25,340.389,0.01,0.025
0.4,-4.662e-4,-0.093,-9.323,0.095,9.467,-8.22e-5,0,8.22e-5,180,0.016,1.644,22.175,120.893,9.788,82.691,0,0,0,2.8e4,1.35e4,19.962,0.106,NaN,2019.928,NaN,0.006,3.894e5,4.812,1.867e-4,0.749,0.004,0.414,0.215,0.12,NaN,NaN,NaN,NaN,NaN,NaN,NaN,NaN,1.282e-5,165,213.825,80,0,2,15,1013.25,340.389,0.01,0.025
0.41,-4.665e-4,-0.093,-9.331,0.095,9.475,-8.226e-5,0,8.226e-5,180,0.016,1.645,22.175,120.893,9.788,82.693,0,0,0,2.8e4,1.35e4,19.962,0.106,NaN,2019.926,NaN,0.006,3.894e5,4.595,1.866e-4,0.749,0.004,0.414,0.215,0.12,NaN,NaN,NaN,NaN,NaN,NaN,NaN,NaN,1.283e-5,165,213.825,80,0,2,15,1013.25,340.389,0.01,0.026
0.42,-4.665e-4,-0.093,-9.329,0.095,9.473,-8.225e-5,0,8.225e-5,180,0.016,1.645,22.175,120.893,9.788,82.693,0,0,0,2.8e4,1.35e4,19.962,0.106,NaN,2019.924,NaN,0.006,3.894e5,4.638,1.866e-4,0.749,0.004,0.414,0.215,0.12,NaN,NaN,NaN,NaN,NaN,NaN,NaN,NaN,1.283e-5,165,213.825,80,0,2,15,1013.25,340.389,0.01,0.026
0.43,-4.662e-4,-0.093,-9.323,0.095,9.467,-8.22e-5,0,8.22e-5,180,0.016,1.644,22.175,120.893,9.788,82.691,0,0,0,2.8e4,1.35e4,19.962,0.106,NaN,2019.922,NaN,0.006,3.894e5,4.811,1.867e-4,0.749,0.004,0.414,0.215,0.12,NaN,NaN,NaN,NaN,NaN,NaN,NaN,NaN,1.282e-5,165,213.825,80,0,2,15,1013.25,340.389,0.01,0.027
0.44,-4.66e-4,-0.093,-9.32,0.095,9.463,-8.216e-5,0,8.216e-5,180,0.016,1.643,22.175,120.893,9.788,82.69,0,0,0,2.8e4,1.35e4,19.962,0.106,NaN,2019.921,NaN,0.006,3.894e5,4.919,1.868e-4,0.749,0.004,0.414,0.215,0.12,NaN,NaN,NaN,NaN,NaN,NaN,NaN,NaN,1.281e-5,165,213.825,80,0,2,15,1013.25,340.389,0.01,0.027
0.45,-4.666e-4,-0.093,-9.331,0.095,9.475,-8.227e-5,0,8.227e-5,180,0.016,1.645,22.175,120.893,9.788,82.693,0,0,0,2.8e4,1.35e4,19.961,0.106,NaN,2019.919,NaN,0.006,3.894e5,4.583,1.865e-4,0.749,0.004,0.414,0.215,0.12,NaN,NaN,NaN,NaN,NaN,NaN,NaN,NaN,1.283e-5,165,213.825,80,0,2,15,1013.25,340.389,0.01,0.028
0.46,-4.668e-4,-0.093,-9.337,0.095,9.481,-8.232e-5,0,8.232e-5,180,0.016,1.646,22.175,120.893,9.788,82.695,0,0,0,2.8e4,1.35e4,19.961,0.106,NaN,2019.917,NaN,0.006,3.894e5,4.429,1.864e-4,0.749,0.004,0.414,0.215,0.12,NaN,NaN,NaN,NaN,NaN,NaN,NaN,NaN,1.284e-5,165,213.825,80,0,2,15,1013.25,340.389,0.01,0.028
0.47,-4.668e-4,-0.093,-9.336,0.095,9.48,-8.231e-5,0,8.231e-5,180,0.016,1.646,22.175,120.893,9.788,82.695,0,0,0,2.8e4,1.35e4,19.961,0.106,NaN,2019.915,NaN,0.006,3.894e5,4.45,1.864e-4,0.749,0.004,0.414,0.215,0.12,NaN,NaN,NaN,NaN,NaN,NaN,NaN,NaN,1.284e-5,165,213.825,80,0,2,15,1013.25,340.389,0.01,0.028
0.48,-4.66e-4,-0.093,-9.32,0.095,9.464,-8.217e-5,0,8.217e-5,180,0.016,1.643,22.175,120.893,9.788,82.69,0,0,0,2.8e4,1.35e4,19.961,0.106,NaN,2019.914,NaN,0.006,3.894e5,4.905,1.868e-4,0.749,0.004,0.414,0.215,0.12,NaN,NaN,NaN,NaN,NaN,NaN,NaN,NaN,1.281e-5,165,213.825,80,0,2,15,1013.25,340.389,0.01,0.029
0.49,-4.663e-4,-0.093,-9.326,0.095,9.469,-8.222e-5,0,8.222e-5,180,0.016,1.644,22.175,120.893,9.788,82.692,0,0,0,2.8e4,1.35e4,19.961,0.106,NaN,2019.912,NaN,0.006,3.894e5,4.746,1.867e-4,0.749,0.004,0.414,0.215,0.12,NaN,NaN,NaN,NaN,NaN,NaN,NaN,NaN,1.282e-5,165,213.825,80,0,2,15,1013.25,340.389,0.01,0.029
0.5,-4.668e-4,-0.093,-9.335,0.095,9.479,-8.23e-5,0,8.23e-5,180,0.016,1.646,22.175,120.893,9.788,82.695,0,0,0,2.8e4,1.35e4,19.961,0.106,NaN,2019.91,NaN,0.006,3.894e5,4.47,1.865e-4,0.749,0.004,0.414,0.215,0.12,NaN,NaN,NaN,NaN,NaN,NaN,NaN,NaN,1.283e-5,165,213.825,80,0,2,15,1013.25,340.389,0.01,0.048
0.51,-4.664e-4,-0.093,-9.329,0.095,9.473,-8.225e-5,0,8.225e-5,180,0.016,1.645,22.175,120.893,9.788,82.693,0,0,0,2.8e4,1.35e4,19.961,0.106,NaN,2019.908,NaN,0.006,3.894e5,4.657,1.866e-4,0.749,0.004,0.414,0.215,0.12,NaN,NaN,NaN,NaN,NaN,NaN,NaN,NaN,1.283e-5,165,213.825,80,0,2,15,1013.25,340.389,0.01,0.049
0.52,-4.656e-4,-0.093,-9.313,0.095,9.456,-8.21e-5,0,8.21e-5,180,0.016,1.642,22.175,120.893,9.788,82.688,0,0,0,2.8e4,1.35e4,19.961,0.106,NaN,2019.906,NaN,0.006,3.894e5,5.115,1.87e-4,0.749,0.004,0.414,0.215,0.12,NaN,NaN,NaN,NaN,NaN,NaN,NaN,NaN,1.28e-5,165,213.825,80,0,2,15,1013.25,340.389,0.01,0.05
0.53,-4.652e-4,-0.093,-9.305,0.094,9.448,-8.203e-5,0,8.203e-5,180,0.016,1.641,22.175,120.893,9.788,82.686,0,0,0,2.8e4,1.35e4,19.961,0.106,NaN,2019.904,NaN,0.006,3.894e5,5.339,1.871e-4,0.749,0.004,0.414,0.215,0.12,NaN,NaN,NaN,NaN,NaN,NaN,NaN,NaN,1.279e-5,165,213.825,80,0,2,15,1013.25,340.389,0.01,0.05
0.54,-4.665e-4,-0.093,-9.329,0.095,9.473,-8.225e-5,0,8.225e-5,180,0.016,1.645,22.175,120.893,9.788,82.693,0,0,0,2.8e4,1.35e4,19.961,0.106,NaN,2019.903,NaN,0.006,3.894e5,4.638,1.866e-4,0.749,0.004,0.414,0.215,0.12,NaN,NaN,NaN,NaN,NaN,NaN,NaN,NaN,1.283e-5,165,213.825,80,0,2,15,1013.25,340.389,0.01,0.051
0.55,-4.661e-4,-0.093,-9.323,0.095,9.467,-8.219e-5,0,8.219e-5,180,0.016,1.644,22.175,120.893,9.788,82.691,0,0,0,2.8e4,1.35e4,19.961,0.106,NaN,2019.901,NaN,0.006,3.894e5,4.82,1.867e-4,0.749,0.004,0.414,0.215,0.12,NaN,NaN,NaN,NaN,NaN,NaN,NaN,NaN,1.282e-5,165,213.825,80,0,2,15,1013.25,340.389,0.01,0.051
0.56,-4.656e-4,-0.093,-9.312,0.095,9.455,-8.21e-5,0,8.21e-5,180,0.016,1.642,22.175,120.893,9.788,82.688,0,0,0,2.8e4,1.35e4,19.961,0.106,NaN,2019.899,NaN,0.006,3.894e5,5.14,1.87e-4,0.749,0.004,0.414,0.215,0.12,NaN,NaN,NaN,NaN,NaN,NaN,NaN,NaN,1.28e-5,165,213.825,80,0,2,15,1013.25,340.389,0.01,0.051
0.57,-4.655e-4,-0.093,-9.311,0.095,9.455,-8.209e-5,0,8.209e-5,180,0.016,1.642,22.175,120.893,9.788,82.687,0,0,0,2.8e4,1.35e4,19.961,0.106,NaN,2019.897,NaN,0.006,3.894e5,5.164,1.87e-4,0.749,0.004,0.414,0.215,0.12,NaN,NaN,NaN,NaN,NaN,NaN,NaN,NaN,1.28e-5,165,213.825,80,0,2,15,1013.25,340.389,0.01,0.052
0.58,-4.656e-4,-0.093,-9.312,0.095,9.456,-8.21e-5,0,8.21e-5,180,0.016,1.642,22.175,120.893,9.788,82.688,0,0,0,2.8e4,1.35e4,19.961,0.106,NaN,2019.895,NaN,0.006,3.894e5,5.125,1.87e-4,0.749,0.004,0.414,0.215,0.12,NaN,NaN,NaN,NaN,NaN,NaN,NaN,NaN,1.28e-5,165,213.825,80,0,2,15,1013.25,340.389,0.01,0.052
0.59,-4.653e-4,-0.093,-9.306,0.094,9.45,-8.205e-5,0,8.205e-5,180,0.016,1.641,22.175,120.893,9.788,82.686,0,0,0,2.8e4,1.35e4,19.961,0.106,NaN,2019.893,NaN,0.006,3.894e5,5.296,1.871e-4,0.749,0.004,0.414,0.215,0.12,NaN,NaN,NaN,NaN,NaN,NaN,NaN,NaN,1.279e-5,165,213.825,80,0,2,15,1013.25,340.389,0.01,0.053
0.6,-4.648e-4,-0.093,-9.297,0.094,9.44,-8.196e-5,0,8.196e-5,180,0.016,1.639,22.175,120.893,9.788,82.683,0,0,0,2.8e4,1.349e4,19.961,0.106,NaN,2019.891,NaN,0.006,3.894e5,5.567,1.873e-4,0.749,0.004,0.414,0.215,0.12,NaN,NaN,NaN,NaN,NaN,NaN,NaN,NaN,1.278e-5,165,213.825,80,0,2,15,1013.25,340.389,0.01,0.054
0.61,-4.646e-4,-0.093,-9.291,0.094,9.435,-8.192e-5,0,8.192e-5,180,0.016,1.638,22.175,120.893,9.788,82.682,0,0,0,2.8e4,1.349e4,19.961,0.106,NaN,2019.889,NaN,0.006,3.894e5,5.717,1.874e-4,0.749,0.004,0.414,0.215,0.12,NaN,NaN,NaN,NaN,NaN,NaN,NaN,NaN,1.277e-5,165,213.825,80,0,2,15,1013.25,340.389,0.01,0.054
0.62,-4.652e-4,-0.093,-9.304,0.094,9.447,-8.203e-5,0,8.203e-5,180,0.016,1.641,22.175,120.893,9.788,82.685,0,0,0,2.8e4,1.349e4,19.961,0.106,NaN,2019.887,NaN,0.006,3.894e5,5.366,1.872e-4,0.749,0.004,0.414,0.215,0.12,NaN,NaN,NaN,NaN,NaN,NaN,NaN,NaN,1.279e-5,165,213.825,80,0,2,15,1013.25,340.389,0.01,0.055
0.63,-4.643e-4,-0.093,-9.287,0.094,9.43,-8.188e-5,0,8.188e-5,180,0.016,1.638,22.175,120.893,9.788,82.681,0,0,0,2.799e4,1.349e4,19.961,0.106,NaN,2019.884,NaN,0.006,3.894e5,5.844,1.875e-4,0.749,0.004,0.414,0.215,0.12,NaN,NaN,NaN,NaN,NaN,NaN,NaN,NaN,1.277e-5,165,213.825,80,0,2,15,1013.25,340.389,0.01,0.055
0.64,-4.645e-4,-0.093,-9.289,0.094,9.432,-8.19e-5,0,8.19e-5,180,0.016,1.638,22.175,120.893,9.788,82.681,0,0,0,2.799e4,1.349e4,19.961,0.106,NaN,2019.882,NaN,0.006,3.894e5,5.786,1.875e-4,0.749,0.004,0.414,0.215,0.12,NaN,NaN,NaN,NaN,NaN,NaN,NaN,NaN,1.277e-5,165,213.825,80,0,2,15,1013.25,340.389,0.01,0.056
0.65,-4.641e-4,-0.093,-9.283,0.094,9.426,-8.184e-5,0,8.184e-5,180,0.016,1.637,22.175,120.893,9.788,82.679,0,0,0,2.799e4,1.349e4,19.961,0.106,NaN,2019.88,NaN,0.006,3.894e5,5.968,1.876e-4,0.749,0.004,0.414,0.215,0.12,NaN,NaN,NaN,NaN,NaN,NaN,NaN,NaN,1.276e-5,165,213.825,80,0,2,15,1013.25,340.389,0.01,0.057
0.66,-4.631e-4,-0.093,-9.262,0.094,9.405,-8.166e-5,0,8.166e-5,180,0.016,1.633,22.175,120.893,9.788,82.673,0,0,0,2.799e4,1.349e4,19.961,0.106,NaN,2019.877,NaN,0.006,3.895e5,6.551,1.881e-4,0.749,0.004,0.414,0.215,0.12,NaN,NaN,NaN,NaN,NaN,NaN,NaN,NaN,1.273e-5,165,213.825,80,0,2,15,1013.25,340.389,0.01,0.057
0.67,-4.628e-4,-0.093,-9.256,0.094,9.399,-8.161e-5,0,8.161e-5,180,0.016,1.632,22.175,120.893,9.788,82.672,0,0,0,2.799e4,1.349e4,19.961,0.106,NaN,2019.875,NaN,0.006,3.895e5,6.72,1.882e-4,0.749,0.004,0.414,0.215,0.12,NaN,NaN,NaN,NaN,NaN,NaN,NaN,NaN,1.273e-5,165,213.825,80,0,2,15,1013.25,340.389,0.01,0.058
0.68,-4.618e-4,-0.092,-9.236,0.094,9.378,-8.143e-5,0,8.143e-5,180,0.016,1.629,22.175,120.893,9.788,82.666,0,0,0,2.799e4,1.349e4,19.961,0.106,NaN,2019.872,NaN,0.006,3.895e5,7.299,1.886e-4,0.749,0.004,0.414,0.215,0.12,NaN,NaN,NaN,NaN,NaN,NaN,NaN,NaN,1.27e-5,165,213.825,80,0,2,15,1013.25,340.389,0.01,0.058
0.69,-4.615e-4,-0.092,-9.23,0.094,9.372,-8.137e-5,0,8.137e-5,180,0.016,1.627,22.175,120.893,9.788,82.664,0,0,0,2.799e4,1.349e4,19.961,0.106,NaN,2019.869,NaN,0.006,3.895e5,7.467,1.888e-4,0.749,0.004,0.414,0.215,0.12,NaN,NaN,NaN,NaN,NaN,NaN,NaN,NaN,1.269e-5,165,213.825,80,0,2,15,1013.25,340.389,0.01,0.059
0.7,-4.606e-4,-0.092,-9.213,0.094,9.355,-8.122e-5,0,8.122e-5,180,0.016,1.624,22.175,120.893,9.788,82.659,0,0,0,2.799e4,1.349e4,19.961,0.106,NaN,2019.866,NaN,0.006,3.895e5,7.951,1.892e-4,0.749,0.004,0.414,0.215,0.12,NaN,NaN,NaN,NaN,NaN,NaN,NaN,NaN,1.267e-5,165,213.825,80,0,2,15,1013.25,340.389,0.01,0.06
0.71,-4.589e-4,-0.092,-9.178,0.093,9.32,-8.092e-5,0,8.092e-5,180,0.016,1.618,22.175,120.893,9.788,82.649,0,0,0,2.799e4,1.349e4,19.96,0.106,NaN,2019.863,NaN,0.006,3.895e5,8.938,1.899e-4,0.749,0.004,0.414,0.215,0.12,NaN,NaN,NaN,NaN,NaN,NaN,NaN,NaN,1.262e-5,165,213.825,80,0,2,15,1013.25,340.389,0.01,0.063
0.72,-4.583e-4,-0.092,-9.167,0.093,9.308,-8.082e-5,0,8.082e-5,180,0.016,1.616,22.175,120.893,9.788,82.646,0,0,0,2.799e4,1.349e4,19.96,0.106,NaN,2019.859,NaN,0.006,3.895e5,9.255,1.902e-4,0.749,0.004,0.414,0.215,0.12,NaN,NaN,NaN,NaN,NaN,NaN,NaN,NaN,1.26e-5,165,213.825,80,0,2,15,1013.25,340.389,0.01,0.063
0.73,-4.567e-4,-0.091,-9.134,0.093,9.275,-8.053e-5,0,8.053e-5,180,0.016,1.611,22.175,120.893,9.788,82.636,0,0,0,2.799e4,1.349e4,19.96,0.106,NaN,2019.855,NaN,0.006,3.895e5,10.185,1.909e-4,0.749,0.004,0.414,0.215,0.12,NaN,NaN,NaN,NaN,NaN,NaN,NaN,NaN,1.256e-5,165,213.825,80,0,2,15,1013.25,340.389,0.01,0.066
0.74,-4.548e-4,-0.091,-9.096,0.092,9.236,-8.019e-5,0,8.019e-5,180,0.016,1.604,22.175,120.893,9.788,82.625,0,0,0,2.799e4,1.349e4,19.96,0.106,NaN,2019.851,NaN,0.006,3.895e5,11.275,1.917e-4,0.749,0.004,0.414,0.215,0.12,NaN,NaN,NaN,NaN,NaN,NaN,NaN,NaN,1.251e-5,165,213.825,80,0,2,15,1013.25,340.389,0.01,0.073
0.75,-4.53e-4,-0.091,-9.059,0.092,9.199,-7.987e-5,0,7.987e-5,180,0.016,1.597,22.175,120.893,9.788,82.614,0,0,0,2.799e4,1.349e4,19.96,0.106,NaN,2019.846,NaN,0.006,3.895e5,12.322,1.926e-4,0.749,0.004,0.414,0.215,0.12,NaN,NaN,NaN,NaN,NaN,NaN,NaN,NaN,1.245e-5,165,213.825,80,0,2,15,1013.25,340.389,0.01,0.073
0.76,-4.506e-4,-0.09,-9.012,0.092,9.151,-7.945e-5,0,7.945e-5,180,0.016,1.589,22.175,120.893,9.788,82.601,0,0,0,2.799e4,1.349e4,19.96,0.106,NaN,2019.841,NaN,0.006,3.895e5,13.663,1.936e-4,0.749,0.004,0.414,0.215,0.12,NaN,NaN,NaN,NaN,NaN,NaN,NaN,NaN,1.239e-5,165,213.825,80,0,2,15,1013.25,340.389,0.01,0.074
0.77,-4.495e-4,-0.09,-8.989,0.091,9.128,-7.925e-5,0,7.925e-5,180,0.016,1.585,22.175,120.893,9.788,82.594,0,0,0,2.799e4,1.349e4,19.96,0.106,NaN,2019.836,NaN,0.006,3.895e5,14.302,1.941e-4,0.749,0.004,0.414,0.215,0.12,NaN,NaN,NaN,NaN,NaN,NaN,NaN,NaN,1.236e-5,165,213.825,80,0,2,15,1013.25,340.389,0.01,0.074
0.78,-4.469e-4,-0.089,-8.938,0.091,9.076,-7.88e-5,0,7.88e-5,180,0.016,1.576,22.175,120.893,9.788,82.579,0,0,0,2.799e4,1.349e4,19.96,0.106,NaN,2019.83,NaN,0.006,3.895e5,15.77,1.953e-4,0.749,0.004,0.414,0.215,0.12,NaN,NaN,NaN,NaN,NaN,NaN,NaN,NaN,1.229e-5,165,213.825,80,0,2,15,1013.25,340.389,0.01,0.075
0.79,-4.449e-4,-0.089,-8.897,0.09,9.034,-7.844e-5,0,7.844e-5,180,0.016,1.569,22.175,120.893,9.788,82.567,0,0,0,2.799e4,1.349e4,19.96,0.106,NaN,2019.823,NaN,0.006,3.895e5,16.927,1.962e-4,0.749,0.004,0.414,0.215,0.12,NaN,NaN,NaN,NaN,NaN,NaN,NaN,NaN,1.223e-5,165,213.825,80,0,2,15,1013.25,340.389,0.01,0.075
0.8,-4.428e-4,-0.089,-8.855,0.09,8.992,-7.807e-5,0,7.807e-5,180,0.016,1.561,22.175,120.893,9.788,82.555,0,0,0,2.799e4,1.349e4,19.96,0.106,NaN,2019.816,NaN,0.006,3.896e5,18.121,1.972e-4,0.749,0.004,0.414,0.215,0.12,NaN,NaN,NaN,NaN,NaN,NaN,NaN,NaN,1.217e-5,165,213.825,80,0,2,15,1013.25,340.389,0.01,0.075
0.81,-4.404e-4,-0.088,-8.809,0.089,8.945,-7.766e-5,0,7.766e-5,180,0.016,1.553,22.175,120.893,9.788,82.542,0,0,0,2.799e4,1.349e4,19.96,0.106,NaN,2019.809,NaN,0.006,3.896e5,19.438,1.982e-4,0.749,0.004,0.414,0.215,0.12,NaN,NaN,NaN,NaN,NaN,NaN,NaN,NaN,1.211e-5,165,213.825,80,0,2,15,1013.25,340.389,0.01,0.076
0.82,-4.392e-4,-0.088,-8.783,0.089,8.919,-7.744e-5,0,7.744e-5,180,0.015,1.549,22.175,120.893,9.788,82.534,0,0,0,2.799e4,1.349e4,19.959,0.106,NaN,2019.801,NaN,0.006,3.896e5,20.155,1.988e-4,0.749,0.004,0.414,0.215,0.12,NaN,NaN,NaN,NaN,NaN,NaN,NaN,NaN,1.208e-5,165,213.825,80,0,2,15,1013.25,340.389,0.01,0.076
0.83,-4.343e-4,-0.087,-8.687,0.088,8.821,-7.659e-5,0,7.659e-5,180,0.015,1.532,22.175,120.893,9.788,82.506,0,0,0,2.799e4,1.349e4,19.959,0.106,NaN,2019.793,NaN,0.006,3.896e5,22.899,2.01e-4,0.749,0.004,0.414,0.215,0.12,NaN,NaN,NaN,NaN,NaN,NaN,NaN,NaN,1.194e-5,165,213.825,80,0,2,15,1013.25,340.389,0.01,0.077
0.84,-4.256e-4,-0.085,-8.511,0.086,8.643,-7.504e-5,0,7.504e-5,180,0.015,1.501,22.175,120.893,9.788,82.455,0,0,0,2.799e4,1.349e4,19.959,0.106,NaN,2019.782,NaN,0.006,3.896e5,27.886,2.051e-4,0.749,0.004,0.414,0.215,0.12,NaN,NaN,NaN,NaN,NaN,NaN,NaN,NaN,1.17e-5,165,213.825,80,0,2,15,1013.25,340.389,0.01,0.077
0.85,-4.183e-4,-0.084,-8.365,0.085,8.494,-7.375e-5,0,7.375e-5,180,0.015,1.475,22.175,120.893,9.788,82.413,0,0,0,2.799e4,1.349e4,19.959,0.106,NaN,2019.77,NaN,0.006,3.897e5,32.036,2.085e-4,0.749,0.004,0.414,0.215,0.12,NaN,NaN,NaN,NaN,NaN,NaN,NaN,NaN,1.15e-5,165,213.825,80,0,2,15,1013.25,340.389,0.01,0.077
0.86,-4.106e-4,-0.082,-8.212,0.083,8.339,-7.24e-5,0,7.24e-5,180,0.014,1.448,22.175,120.893,9.788,82.368,0,0,0,2.799e4,1.349e4,19.959,0.106,NaN,2019.756,NaN,0.006,3.897e5,36.392,2.121e-4,0.749,0.004,0.414,0.215,0.12,NaN,NaN,NaN,NaN,NaN,NaN,NaN,NaN,1.129e-5,165,213.825,80,0,2,15,1013.25,340.389,0.01,0.078
0.87,-4.032e-4,-0.081,-8.065,0.082,8.189,-7.11e-5,0,7.11e-5,180,0.014,1.422,22.175,120.893,9.788,82.326,0,0,0,2.799e4,1.349e4,19.958,0.106,NaN,2019.74,NaN,0.006,3.898e5,40.581,2.156e-4,0.749,0.004,0.414,0.215,0.12,NaN,NaN,NaN,NaN,NaN,NaN,NaN,NaN,1.109e-5,165,213.825,80,0,2,15,1013.25,340.389,0.01,0.078
0.88,-3.96e-4,-0.079,-7.92,0.08,8.042,-6.983e-5,0,6.983e-5,180,0.014,1.397,22.175,120.893,9.788,82.284,0,0,0,2.799e4,1.349e4,19.958,0.106,NaN,2019.723,NaN,0.006,3.898e5,44.682,2.191e-4,0.749,0.004,0.414,0.215,0.12,NaN,NaN,NaN,NaN,NaN,NaN,NaN,NaN,1.089e-5,165,213.825,80,0,2,15,1013.25,340.389,0.01,0.078
0.89,-3.897e-4,-0.078,-7.793,0.079,7.913,-6.871e-5,0,6.871e-5,180,0.014,1.374,22.175,120.893,9.788,82.247,0,0,0,2.799e4,1.349e4,19.958,0.106,NaN,2019.705,NaN,0.006,3.898e5,48.294,2.222e-4,0.749,0.004,0.414,0.215,0.12,NaN,NaN,NaN,NaN,NaN,NaN,NaN,NaN,1.071e-5,165,213.825,80,0,2,15,1013.25,340.389,0.01,0.079
0.9,-3.836e-4,-0.077,-7.671,0.078,7.79,-6.763e-5,0,6.763e-5,180,0.014,1.353,22.175,120.893,9.788,82.212,0,0,0,2.799e4,1.349e4,19.957,0.106,NaN,2019.685,NaN,0.006,3.899e5,51.752,2.252e-4,0.749,0.004,0.414,0.215,0.12,NaN,NaN,NaN,NaN,NaN,NaN,NaN,NaN,1.055e-5,165,213.825,80,0,2,15,1013.25,340.389,0.01,0.079
0.91,-3.755e-4,-0.075,-7.511,0.076,7.626,-6.622e-5,0,6.622e-5,180,0.013,1.324,22.175,120.893,9.788,82.165,0,0,0,2.798e4,1.348e4,19.957,0.106,NaN,2019.664,NaN,0.006,3.899e5,56.319,2.292e-4,0.749,0.004,0.414,0.215,0.12,NaN,NaN,NaN,NaN,NaN,NaN,NaN,NaN,1.033e-5,165,213.825,80,0,2,15,1013.25,340.389,0.01,0.08
0.92,-3.677e-4,-0.074,-7.355,0.075,7.468,-6.484e-5,0,6.484e-5,180,0.013,1.297,22.175,120.893,9.788,82.12,0,0,0,2.798e4,1.348e4,19.957,0.106,NaN,2019.641,NaN,0.006,3.9e5,60.748,2.331e-4,0.749,0.005,0.414,0.215,0.12,NaN,NaN,NaN,NaN,NaN,NaN,NaN,NaN,1.011e-5,165,213.825,80,0,2,15,1013.25,340.389,0.01,0.08
0.93,-3.56e-4,-0.071,-7.121,0.072,7.231,-6.278e-5,0,6.278e-5,180,0.013,1.256,22.175,120.893,9.788,82.052,0,0,0,2.798e4,1.348e4,19.956,0.106,NaN,2019.615,NaN,0.006,3.9e5,67.387,2.391e-4,0.749,0.005,0.414,0.215,0.12,NaN,NaN,NaN,NaN,NaN,NaN,NaN,NaN,9.79e-6,165,213.825,80,0,2,15,1013.25,340.389,0.01,0.081
0.94,-3.418e-4,-0.068,-6.837,0.069,6.942,-6.028e-5,0,6.028e-5,180,0.012,1.206,22.175,120.893,9.788,81.97,0,0,0,2.798e4,1.348e4,19.956,0.106,NaN,2019.586,NaN,0.006,3.901e5,75.455,2.464e-4,0.749,0.005,0.414,0.215,0.12,NaN,NaN,NaN,NaN,NaN,NaN,NaN,NaN,9.4e-6,165,213.825,80,0,2,15,1013.25,340.389,0.01,0.081
0.95,-3.257e-4,-0.065,-6.515,0.066,6.615,-5.744e-5,0,5.744e-5,180,0.011,1.149,22.175,120.893,9.788,81.876,0,0,0,2.798e4,1.348e4,19.955,0.106,NaN,2019.554,NaN,0.006,3.902e5,84.603,2.55e-4,0.749,0.005,0.414,0.215,0.12,NaN,NaN,NaN,NaN,NaN,NaN,NaN,NaN,8.957e-6,165,213.825,80,0,2,15,1013.25,340.389,0.01,0.082
0.96,-3.058e-4,-0.061,-6.116,0.062,6.21,-5.392e-5,0,5.392e-5,180,0.011,1.078,22.175,120.893,9.788,81.761,0,0,0,2.798e4,1.348e4,19.954,0.106,NaN,2019.517,NaN,0.006,3.903e5,95.934,2.658e-4,0.749,0.005,0.414,0.215,0.12,NaN,NaN,NaN,NaN,NaN,NaN,NaN,NaN,8.408e-6,165,213.825,80,0,2,15,1013.25,340.389,0.01,0.082
0.97,-2.857e-4,-0.057,-5.714,0.058,5.803,-5.038e-5,0,5.038e-5,180,0.01,1.008,22.175,120.893,9.788,81.645,0,0,0,2.798e4,1.348e4,19.954,0.106,NaN,2019.476,NaN,0.006,3.904e5,107.326,2.77e-4,0.749,0.005,0.414,0.215,0.12,NaN,NaN,NaN,NaN,NaN,NaN,NaN,NaN,7.856e-6,165,213.825,80,0,2,15,1013.25,340.389,0.01,0.083
0.98,-2.598e-4,-0.052,-5.196,0.053,5.276,-4.581e-5,0,4.581e-5,180,0.009,0.916,22.175,120.893,9.788,81.495,0,0,0,2.797e4,1.347e4,19.953,0.106,NaN,2019.43,NaN,0.006,3.906e5,122.033,2.919e-4,0.749,0.006,0.414,0.215,0.12,NaN,NaN,NaN,NaN,NaN,NaN,NaN,NaN,7.144e-6,165,213.825,80,0,2,15,1013.25,340.389,0.01,0.084
0.99,-2.264e-4,-0.045,-4.527,0.046,4.597,-3.992e-5,0,3.992e-5,180,0.008,0.798,22.175,120.893,9.788,81.302,0,0,0,2.797e4,1.347e4,19.952,0.106,NaN,2019.376,NaN,0.006,3.908e5,141.022,3.118e-4,0.749,0.006,0.414,0.215,0.12,NaN,NaN,NaN,NaN,NaN,NaN,NaN,NaN,6.225e-6,165,213.825,80,0,2,15,1013.25,340.389,0.01,0.084
1,-1.775e-4,-0.035,-3.549,0.036,3.604,-3.129e-5,0,3.129e-5,180,0.006,0.626,22.175,120.893,9.788,81.02,0,0,0,2.797e4,1.347e4,19.951,0.106,NaN,2019.312,NaN,0.006,3.911e5,168.795,3.426e-4,0.749,0.007,0.414,0.215,0.12,NaN,NaN,NaN,NaN,NaN,NaN,NaN,NaN,4.88e-6,165,213.825,80,0,2,15,1013.25,340.389,0.01,0.085
1.01,-1.08e-4,-0.022,-2.16,0.022,2.193,-1.905e-5,0,1.905e-5,180,0.004,0.381,22.175,120.893,9.788,80.62,0,0,0,2.796e4,1.346e4,19.949,0.106,NaN,2019.232,NaN,0.006,3.915e5,208.221,3.895e-4,0.749,0.007,0.413,0.215,0.12,NaN,NaN,NaN,NaN,NaN,NaN,NaN,NaN,2.97e-6,165,213.825,80,0,2,15,1013.25,340.389,0.01,0.086
1.02,-4.34e-5,-0.009,-0.867,0.009,0.88,-7.652e-6,0,7.652e-6,180,0.002,0.153,22.175,120.893,9.788,80.249,0,0,0,2.796e4,1.346e4,19.948,0.106,NaN,2019.139,NaN,0.006,3.919e5,244.886,4.366e-4,0.748,0.008,0.413,0.215,0.12,NaN,NaN,NaN,NaN,NaN,NaN,NaN,NaN,1.193e-6,165,213.825,80,0,2,15,1013.25,340.389,0.01,0.086
1.03,2.651e-5,0.005,0.532,0.005,0.54,4.675e-6,0,4.675e-6,0,9.355e-4,0.094,22.175,120.893,9.788,79.848,0,0,0,2.795e4,1.345e4,19.946,0.106,NaN,2019.03,NaN,0.006,3.924e5,284.538,4.915e-4,0.748,0.009,0.413,0.215,0.12,NaN,NaN,NaN,NaN,NaN,NaN,NaN,NaN,7.294e-7,165,213.825,80,0,2,15,1013.25,340.389,0.01,0.087
1.04,1.812e-4,0.026,2.035,0.026,2.066,3.196e-5,0,3.196e-5,0,0.005,0.359,22.175,120.893,9.788,79.267,0,0,0,2.795e4,1.345e4,19.943,0.106,NaN,2018.905,NaN,0.006,3.932e5,327.142,5.79e-4,0.748,0.011,0.413,0.215,0.12,NaN,NaN,NaN,NaN,NaN,NaN,NaN,NaN,3.525e-6,165,213.825,80,0,2,15,1013.25,340.389,0.01,0.087
1.05,6.197e-4,0.062,3.643,0.063,3.699,1.093e-4,0,1.093e-4,0,0.011,0.642,22.175,120.893,9.788,78.232,0,0,0,2.794e4,1.344e4,19.941,0.106,NaN,2018.763,NaN,0.006,3.946e5,372.693,7.591e-4,0.748,0.014,0.413,0.215,0.12,NaN,NaN,NaN,NaN,NaN,NaN,NaN,NaN,8.532e-6,165,213.825,80,0,2,15,1013.25,340.389,0.01,0.088
1.06,0.002,0.118,5.603,0.12,5.689,2.681e-4,0,2.681e-4,0,0.021,0.988,22.175,120.893,9.788,76.656,0,0,0,2.793e4,1.343e4,19.938,0.106,NaN,2018.599,NaN,0.006,3.97e5,428.171,0.001,0.747,0.02,0.412,0.215,0.12,NaN,NaN,NaN,NaN,NaN,NaN,NaN,NaN,1.623e-5,165,213.825,80,0,2,15,1013.25,340.389,0.01,0.089
1.07,0.003,0.193,7.537,0.196,7.653,5.427e-4,0,5.427e-4,0,0.034,1.329,22.175,120.893,9.788,74.569,0,0,0,2.792e4,1.342e4,19.935,0.106,NaN,2018.415,NaN,0.006,4.007e5,482.882,0.002,0.746,0.031,0.411,0.215,0.12,NaN,NaN,NaN,NaN,NaN,NaN,NaN,NaN,2.659e-5,165,213.825,80,0,2,15,1013.25,340.389,0.01,0.089
1.08,0.005,0.291,9.756,0.295,9.907,9.696e-4,0,9.696e-4,0,0.051,1.72,22.175,120.893,9.788,71.928,0,0,0,2.791e4,1.341e4,19.931,0.106,NaN,2018.206,NaN,0.006,4.063e5,545.617,0.003,0.745,0.048,0.41,0.215,0.12,NaN,NaN,NaN,NaN,NaN,NaN,NaN,NaN,4e-5,165,213.825,80,0,2,15,1013.249,340.389,0.01,0.09
1.09,0.009,0.414,12.278,0.42,12.468,0.002,0,0.002,0,0.073,2.165,22.175,120.893,9.788,68.715,0,0,0,2.79e4,1.34e4,19.927,0.106,NaN,2017.969,NaN,0.006,4.146e5,616.859,0.004,0.743,0.075,0.408,0.215,0.12,NaN,NaN,NaN,NaN,NaN,NaN,NaN,NaN,5.687e-5,165,213.825,80,0,2,15,1013.249,340.389,0.01,0.09
1.1,0.014,0.565,15.164,0.574,15.398,0.002,0,0.002,0,0.1,2.674,22.175,120.893,9.788,64.933,0,0,0,2.789e4,1.339e4,19.922,0.106,NaN,2017.702,NaN,0.006,4.264e5,698.307,0.007,0.741,0.116,0.406,0.215,0.12,NaN,NaN,NaN,NaN,NaN,NaN,NaN,NaN,7.771e-5,165,213.825,80,0,2,15,1013.248,340.389,0.01,0.091
1.11,0.02,0.747,18.204,0.759,18.485,0.004,0,0.004,0,0.132,3.21,22.175,120.893,9.788,60.684,0,0,0,2.788e4,1.338e4,19.917,0.106,NaN,2017.401,NaN,0.007,4.43e5,784.022,0.012,0.738,0.174,0.402,0.215,0.12,NaN,NaN,NaN,NaN,NaN,NaN,NaN,NaN,1.027e-4,165,213.825,80,0,2,15,1013.248,340.389,0.01,0.091
1.12,0.029,0.96,21.324,0.975,21.653,0.005,0,0.005,0,0.169,3.76,22.175,120.893,9.788,56.121,0,0,0,2.786e4,1.336e4,19.911,0.106,NaN,2017.066,NaN,0.007,4.653e5,871.849,0.018,0.733,0.249,0.398,0.215,0.12,NaN,NaN,NaN,NaN,NaN,NaN,NaN,NaN,1.32e-4,165,213.825,80,0,2,15,1013.247,340.389,0.01,0.091
1.13,0.04,1.205,24.498,1.224,24.876,0.007,0,0.007,0,0.213,4.32,22.175,120.893,9.788,51.421,0,0,0,2.784e4,1.334e4,19.904,0.106,NaN,2016.696,NaN,0.007,4.941e5,961.049,0.028,0.728,0.337,0.393,0.215,0.12,NaN,NaN,NaN,NaN,NaN,NaN,NaN,NaN,1.657e-4,165,213.825,80,0,2,15,1013.245,340.389,0.01,0.091
1.14,0.053,1.479,27.389,1.502,27.811,0.009,0,0.009,0,0.261,4.829,22.175,120.893,9.788,46.807,0,0,0,2.782e4,1.332e4,19.897,0.106,NaN,2016.295,NaN,0.008,5.298e5,1042.073,0.041,0.722,0.433,0.387,0.215,0.12,NaN,NaN,NaN,NaN,NaN,NaN,NaN,NaN,2.033e-4,165,213.825,80,0,2,15,1013.244,340.389,0.01,0.092
1.15,0.07,1.778,29.893,1.805,30.354,0.012,0,0.012,0,0.313,5.271,22.175,120.893,9.788,42.459,0,0,0,2.78e4,1.33e4,19.889,0.106,NaN,2015.866,NaN,0.009,5.722e5,1112.029,0.059,0.716,0.526,0.381,0.215,0.12,NaN,NaN,NaN,NaN,NaN,NaN,NaN,NaN,2.444e-4,165,213.825,80,0,2,15,1013.242,340.389,0.01,0.092
1.16,0.089,2.098,32.067,2.131,32.562,0.016,0,0.016,0,0.37,5.654,22.175,120.893,9.788,38.479,0,0,0,2.778e4,1.328e4,19.881,0.106,NaN,2015.413,NaN,0.009,6.208e5,1172.553,0.08,0.71,0.611,0.375,0.215,0.12,NaN,NaN,NaN,NaN,NaN,NaN,NaN,NaN,2.885e-4,165,213.825,80,0,2,14.999,1013.24,340.389,0.01,0.092
1.17,0.112,2.436,33.789,2.474,34.311,0.02,0,0.02,0,0.43,5.958,22.175,120.893,9.788,34.924,0,0,0,2.776e4,1.326e4,19.873,0.105,NaN,2014.941,NaN,0.01,6.747e5,1220.187,0.106,0.703,0.682,0.368,0.215,0.12,NaN,NaN,NaN,NaN,NaN,NaN,NaN,NaN,3.349e-4,165,213.825,80,0,2,14.999,1013.237,340.388,0.01,0.093
1.18,0.138,2.786,35.054,2.829,35.594,0.024,0,0.024,0,0.491,6.181,22.175,120.893,9.788,31.8,0,0,0,2.774e4,1.324e4,19.864,0.105,NaN,2014.455,NaN,0.011,7.33e5,1254.818,0.135,0.697,0.739,0.362,0.215,0.12,NaN,NaN,NaN,NaN,NaN,NaN,NaN,NaN,3.831e-4,165,213.825,80,0,2,14.999,1013.234,340.388,0.01,0.093
1.19,0.167,3.145,35.847,3.193,36.4,0.03,0,0.03,0,0.554,6.321,22.175,120.893,9.788,29.088,0,0,0,2.771e4,1.321e4,19.855,0.105,NaN,2013.959,NaN,0.012,7.946e5,1276.135,0.168,0.691,0.781,0.356,0.215,0.12,NaN,NaN,NaN,NaN,NaN,NaN,NaN,NaN,4.323e-4,165,213.825,80,0,2,14.999,1013.23,340.388,0.01,0.093
1.2,0.201,3.508,36.394,3.563,36.956,0.035,0,0.035,0,0.619,6.417,22.175,120.893,9.788,26.737,0,0,0,2.769e4,1.319e4,19.846,0.105,NaN,2013.458,NaN,0.013,8.586e5,1290.479,0.204,0.686,0.812,0.351,0.215,0.12,NaN,NaN,NaN,NaN,NaN,NaN,NaN,NaN,4.823e-4,165,213.825,80,0,2,14.999,1013.226,340.388,0.01,0.093
1.21,0.238,3.875,36.697,3.935,37.264,0.042,0,0.042,0,0.683,6.471,22.175,120.893,9.788,24.7,0,0,0,2.767e4,1.317e4,19.837,0.105,NaN,2012.952,NaN,0.014,9.244e5,1297.933,0.243,0.681,0.834,0.345,0.215,0.12,NaN,NaN,NaN,NaN,NaN,NaN,NaN,NaN,5.328e-4,165,213.825,80,0,2,14.998,1013.222,340.388,0.01,0.094
1.22,0.278,4.243,36.756,4.308,37.323,0.049,0,0.049,0,0.748,6.481,22.175,120.893,9.788,22.933,0,0,0,2.764e4,1.314e4,19.828,0.105,NaN,2012.446,NaN,0.015,9.913e5,1298.512,0.284,0.676,0.847,0.341,0.215,0.12,NaN,NaN,NaN,NaN,NaN,NaN,NaN,NaN,5.833e-4,165,213.825,80,0,2,14.998,1013.217,340.388,0.01,0.094
1.23,0.322,4.61,36.798,4.682,37.366,0.057,0,0.057,0,0.813,6.489,22.175,120.893,9.788,21.389,0,0,0,2.762e4,1.312e4,19.819,0.105,NaN,2011.938,NaN,0.016,1.059e6,1298.633,0.327,0.671,0.855,0.336,0.215,0.12,NaN,NaN,NaN,NaN,NaN,NaN,NaN,NaN,6.338e-4,165,213.825,80,0,2,14.998,1013.212,340.388,0.01,0.094
1.24,0.37,4.977,36.705,5.054,37.272,0.065,0,0.065,0,0.878,6.472,22.175,120.893,9.788,20.035,0,0,0,2.76e4,1.31e4,19.81,0.105,NaN,2011.431,NaN,0.017,1.127e6,1294.965,0.372,0.667,0.859,0.332,0.215,0.12,NaN,NaN,NaN,NaN,NaN,NaN,NaN,NaN,6.843e-4,165,213.825,80,0,2,14.998,1013.207,340.387,0.01,0.094
1.25,0.422,5.343,36.62,5.426,37.185,0.074,0,0.074,0,0.942,6.457,22.175,120.893,9.788,18.839,0,0,0,2.757e4,1.307e4,19.801,0.105,NaN,2010.925,NaN,0.018,1.196e6,1291.53,0.419,0.664,0.859,0.328,0.215,0.12,NaN,NaN,NaN,NaN,NaN,NaN,NaN,NaN,7.346e-4,165,213.825,80,0,2,14.997,1013.201,340.387,0.01,0.095
1.26,0.477,5.708,36.533,5.796,37.097,0.084,0,0.084,0,1.007,6.442,22.175,120.893,9.788,17.775,0,0,0,2.755e4,1.305e4,19.792,0.105,NaN,2010.419,NaN,0.019,1.265e6,1288.052,0.467,0.66,0.857,0.325,0.215,0.12,NaN,NaN,NaN,NaN,NaN,NaN,NaN,NaN,7.848e-4,165,213.825,80,0,2,14.997,1013.194,340.387,0.01,0.095
1.27,0.536,6.072,36.423,6.166,36.984,0.095,0,0.095,0,1.071,6.422,22.175,120.893,9.788,16.825,0,0,0,2.753e4,1.303e4,19.783,0.105,NaN,2009.914,NaN,0.02,1.334e6,1283.912,0.518,0.657,0.854,0.321,0.215,0.12,NaN,NaN,NaN,NaN,NaN,NaN,NaN,NaN,8.349e-4,165,213.825,80,0,2,14.997,1013.187,340.387,0.01,0.096
1.28,0.599,6.436,36.39,6.535,36.951,0.106,0,0.106,0,1.135,6.417,22.175,120.893,9.788,15.969,0,0,0,2.75e4,1.3e4,19.774,0.105,NaN,2009.409,NaN,0.021,1.404e6,1281.967,0.569,0.654,0.847,0.318,0.215,0.12,NaN,NaN,NaN,NaN,NaN,NaN,NaN,NaN,8.849e-4,165,213.825,80,0,2,14.996,1013.18,340.387,0.01,0.096
1.29,0.665,6.799,36.308,6.904,36.868,0.117,0,0.117,0,1.199,6.402,22.175,120.893,9.788,15.196,0,0,0,2.748e4,1.298e4,19.765,0.105,NaN,2008.904,NaN,0.022,1.474e6,1278.651,0.621,0.651,0.84,0.315,0.215,0.12,NaN,NaN,NaN,NaN,NaN,NaN,NaN,NaN,9.347e-4,165,213.825,80,0,2,14.996,1013.172,340.386,0.01,0.097
1.3,0.735,7.162,36.267,7.272,36.827,0.13,0,0.13,0,1.263,6.395,22.175,120.893,9.788,14.494,0,0,0,2.746e4,1.296e4,19.756,0.105,NaN,2008.399,NaN,0.023,1.543e6,1276.485,0.674,0.648,0.831,0.313,0.215,0.12,NaN,NaN,NaN,NaN,NaN,NaN,NaN,NaN,9.846e-4,165,213.825,80,0,2,14.995,1013.164,340.386,0.01,0.097
1.31,0.808,7.524,36.262,7.64,36.821,0.142,0,0.142,0,1.327,6.394,22.175,120.893,9.788,13.852,0,0,0,2.743e4,1.293e4,19.747,0.105,NaN,2007.894,NaN,0.024,1.613e6,1275.318,0.728,0.645,0.821,0.31,0.215,0.12,NaN,NaN,NaN,NaN,NaN,NaN,NaN,NaN,0.001,165,213.825,80,0,2,14.995,1013.155,340.386,0.01,0.097
1.32,0.885,7.886,36.234,8.008,36.793,0.156,0,0.156,0,1.391,6.389,22.175,120.893,9.788,13.265,0,0,0,2.741e4,1.291e4,19.738,0.105,NaN,2007.388,NaN,0.025,1.683e6,1273.528,0.783,0.643,0.812,0.308,0.215,0.12,NaN,NaN,NaN,NaN,NaN,NaN,NaN,NaN,0.001,165,213.825,80,0,2,14.994,1013.146,340.385,0.01,0.098
1.33,0.966,8.249,36.284,8.376,36.844,0.17,0,0.17,0,1.454,6.398,22.175,120.893,9.788,12.723,0,0,0,2.739e4,1.289e4,19.729,0.105,NaN,2006.882,NaN,0.026,1.754e6,1273.891,0.84,0.64,0.802,0.305,0.215,0.12,NaN,NaN,NaN,NaN,NaN,NaN,NaN,NaN,0.001,165,213.825,80,0,2,14.994,1013.137,340.385,0.01,0.098
1.34,1.05,8.611,36.261,8.744,36.821,0.185,0,0.185,0,1.518,6.394,22.175,120.893,9.788,12.224,0,0,0,2.736e4,1.286e4,19.72,0.105,NaN,2006.376,NaN,0.027,1.824e6,1272.247,0.898,0.638,0.793,0.303,0.215,0.12,NaN,NaN,NaN,NaN,NaN,NaN,NaN,NaN,0.001,165,213.825,80,0,2,14.993,1013.127,340.385,0.01,0.098
1.35,1.138,8.974,36.272,9.112,36.831,0.201,0,0.201,0,1.582,6.396,22.175,120.893,9.788,11.762,0,0,0,2.734e4,1.284e4,19.711,0.105,NaN,2005.868,NaN,0.028,1.895e6,1271.517,0.958,0.636,0.784,0.301,0.215,0.12,NaN,NaN,NaN,NaN,NaN,NaN,NaN,NaN,0.001,165,213.825,80,0,2,14.993,1013.117,340.384,0.01,0.098
1.36,1.23,9.337,36.309,9.481,36.869,0.217,0,0.217,0,1.646,6.402,22.175,120.893,9.788,11.332,0,0,0,2.732e4,1.282e4,19.702,0.105,NaN,2005.361,NaN,0.029,1.966e6,1271.539,1.019,0.634,0.775,0.299,0.215,0.12,NaN,NaN,NaN,NaN,NaN,NaN,NaN,NaN,0.001,165,213.825,80,0,2,14.992,1013.106,340.384,0.01,0.099
1.37,1.325,9.7,36.325,9.849,36.886,0.234,0,0.234,0,1.71,6.405,22.175,120.893,9.788,10.933,0,0,0,2.729e4,1.279e4,19.693,0.105,NaN,2004.852,NaN,0.031,2.036e6,1270.983,1.082,0.632,0.766,0.297,0.215,0.12,NaN,NaN,NaN,NaN,NaN,NaN,NaN,NaN,0.001,165,213.825,80,0,2,14.991,1013.095,340.384,0.01,0.099
1.38,1.424,10.064,36.441,10.219,37.003,0.251,0,0.251,0,1.775,6.425,22.175,120.893,9.788,10.559,0,0,0,2.727e4,1.277e4,19.684,0.105,NaN,2004.342,NaN,0.032,2.108e6,1273.167,1.147,0.63,0.758,0.295,0.215,0.12,NaN,NaN,NaN,NaN,NaN,NaN,NaN,NaN,0.001,165,213.825,80,0,2,14.991,1013.083,340.383,0.01,0.099
1.39,1.526,10.429,36.481,10.589,37.044,0.269,0,0.269,0,1.839,6.433,22.175,120.893,9.788,10.209,0,0,0,2.725e4,1.275e4,19.675,0.105,NaN,2003.83,NaN,0.033,2.179e6,1273.278,1.214,0.628,0.751,0.293,0.215,0.12,NaN,NaN,NaN,NaN,NaN,NaN,NaN,NaN,0.001,165,213.825,80,0,2,14.99,1013.071,340.383,0.01,0.099
1.4,1.632,10.794,36.568,10.961,37.132,0.288,0,0.288,0,1.903,6.448,22.175,120.893,9.788,9.881,0,0,0,2.723e4,1.273e4,19.666,0.105,NaN,2003.318,NaN,0.034,2.251e6,1274.663,1.282,0.627,0.743,0.291,0.215,0.12,NaN,NaN,NaN,NaN,NaN,NaN,NaN,NaN,0.001,165,213.825,80,0,2,14.989,1013.059,340.382,0.01,0.1
1.41,1.742,11.161,36.675,11.333,37.24,0.307,0,0.307,0,1.968,6.467,22.175,120.893,9.788,9.572,0,0,0,2.72e4,1.27e4,19.657,0.105,NaN,2002.803,NaN,0.035,2.323e6,1276.588,1.353,0.625,0.736,0.29,0.215,0.12,NaN,NaN,NaN,NaN,NaN,NaN,NaN,NaN,0.002,165,213.825,80,0,2,14.989,1013.046,340.382,0.01,0.1
1.42,1.855,11.528,36.742,11.706,37.309,0.327,0,0.327,0,2.033,6.479,22.175,120.893,9.788,9.281,0,0,0,2.718e4,1.268e4,19.648,0.105,NaN,2002.288,NaN,0.036,2.395e6,1277.444,1.425,0.623,0.73,0.288,0.215,0.12,NaN,NaN,NaN,NaN,NaN,NaN,NaN,NaN,0.002,165,213.825,80,0,2,14.988,1013.032,340.382,0.01,0.1
1.43,1.972,11.896,36.877,12.08,37.446,0.348,0,0.348,0,2.098,6.502,22.175,120.893,9.788,9.006,0,0,0,2.716e4,1.266e4,19.639,0.105,NaN,2001.77,NaN,0.037,2.467e6,1280.14,1.503,0.623,0.725,0.288,0.215,0.12,NaN,NaN,NaN,NaN,NaN,NaN,NaN,NaN,0.002,165,213.825,80,0,2,14.987,1013.019,340.381,0.01,0.1
1.44,2.093,12.266,36.933,12.455,37.503,0.369,0,0.369,0,2.163,6.512,22.175,120.893,9.788,8.746,0,0,0,2.713e4,1.263e4,19.629,0.105,NaN,2001.252,NaN,0.038,2.54e6,1280.681,1.584,0.623,0.721,0.288,0.215,0.12,NaN,NaN,NaN,NaN,NaN,NaN,NaN,NaN,0.002,165,213.825,80,0,2,14.986,1013.004,340.381,0.01,0.101
1.45,2.218,12.636,37.042,12.831,37.613,0.391,0,0.391,0,2.228,6.532,22.175,120.893,9.788,8.501,0,0,0,2.711e4,1.261e4,19.62,0.105,NaN,2000.731,NaN,0.039,2.613e6,1282.653,1.666,0.623,0.717,0.288,0.215,0.12,NaN,NaN,NaN,NaN,NaN,NaN,NaN,NaN,0.002,165,213.825,80,0,2,14.986,1012.99,340.38,0.01,0.101
1.46,2.346,13.007,37.159,13.208,37.733,0.414,0,0.414,0,2.294,6.552,22.175,120.893,9.788,8.267,0,0,0,2.709e4,1.259e4,19.611,0.104,NaN,2000.209,NaN,0.04,2.686e6,1284.861,1.751,0.623,0.713,0.288,0.215,0.12,NaN,NaN,NaN,NaN,NaN,NaN,NaN,NaN,0.002,165,213.825,80,0,2,14.985,1012.975,340.38,0.01,0.101
1.47,2.478,13.379,37.212,13.586,37.786,0.437,0,0.437,0,2.359,6.562,22.175,120.893,9.788,8.046,0,0,0,2.706e4,1.256e4,19.602,0.104,NaN,1999.686,NaN,0.041,2.759e6,1285.292,1.839,0.623,0.709,0.288,0.215,0.12,NaN,NaN,NaN,NaN,NaN,NaN,NaN,NaN,0.002,165,213.825,80,0,2,14.984,1012.959,340.379,0.01,0.105
1.48,2.614,13.752,37.333,13.965,37.909,0.461,0,0.461,0,2.425,6.583,22.175,120.893,9.788,7.836,0,0,0,2.704e4,1.254e4,19.592,0.104,NaN,1999.161,NaN,0.042,2.833e6,1287.587,1.929,0.623,0.706,0.288,0.215,0.12,NaN,NaN,NaN,NaN,NaN,NaN,NaN,NaN,0.002,165,213.825,80,0,2,14.983,1012.943,340.379,0.01,0.106
1.49,2.753,14.126,37.379,14.344,37.956,0.485,0,0.485,0,2.491,6.591,22.175,120.893,9.788,7.636,0,0,0,2.702e4,1.252e4,19.583,0.104,NaN,1998.635,NaN,0.044,2.906e6,1287.832,2.021,0.623,0.703,0.288,0.215,0.12,NaN,NaN,NaN,NaN,NaN,NaN,NaN,NaN,0.002,165,213.825,80,0,2,14.982,1012.927,340.378,0.01,0.106
1.5,2.896,14.5,37.449,14.724,38.027,0.511,0,0.511,0,2.557,6.603,22.175,120.893,9.788,7.446,0,0,0,2.699e4,1.249e4,19.574,0.104,NaN,1998.108,NaN,0.045,2.98e6,1288.735,2.116,0.623,0.7,0.288,0.215,0.12,NaN,NaN,NaN,NaN,NaN,NaN,NaN,NaN,0.002,165,213.825,80,0,2,14.981,1012.91,340.377,0.01,0.106
1.51,3.043,14.875,37.531,15.105,38.11,0.537,0,0.537,0,2.623,6.618,22.175,120.893,9.788,7.264,0,0,0,2.697e4,1.247e4,19.564,0.104,NaN,1997.579,NaN,0.046,3.054e6,1289.948,2.213,0.623,0.697,0.288,0.215,0.12,NaN,NaN,NaN,NaN,NaN,NaN,NaN,NaN,0.002,165,213.825,80,0,2,14.98,1012.893,340.377,0.01,0.107
1.52,3.194,15.251,37.547,15.486,38.126,0.563,0,0.563,0,2.689,6.621,22.175,120.893,9.788,7.091,0,0,0,2.695e4,1.244e4,19.555,0.104,NaN,1997.049,NaN,0.047,3.128e6,1289.376,2.313,0.623,0.694,0.288,0.215,0.12,NaN,NaN,NaN,NaN,NaN,NaN,NaN,NaN,0.002,165,213.825,80,0,2,14.979,1012.875,340.376,0.01,0.107
1.53,3.348,15.627,37.686,15.868,38.268,0.59,0,0.59,0,2.756,6.645,22.175,120.893,9.788,6.925,0,0,0,2.692e4,1.242e4,19.546,0.104,NaN,1996.518,NaN,0.048,3.203e6,1292.164,2.415,0.623,0.691,0.288,0.215,0.12,NaN,NaN,NaN,NaN,NaN,NaN,NaN,NaN,0.002,165,213.825,80,0,2,14.978,1012.857,340.376,0.01,0.107
1.54,3.506,16.005,37.756,16.252,38.339,0.618,0,0.618,0,2.822,6.657,22.175,120.893,9.788,6.767,0,0,0,2.69e4,1.24e4,19.536,0.104,NaN,1995.985,NaN,0.049,3.277e6,1293.051,2.519,0.623,0.689,0.288,0.215,0.12,NaN,NaN,NaN,NaN,NaN,NaN,NaN,NaN,0.002,165,213.825,80,0,2,14.977,1012.839,340.375,0.01,0.108
1.55,3.668,16.383,37.861,16.636,38.445,0.647,0,0.647,0,2.889,6.676,22.175,120.893,9.788,6.615,0,0,0,2.687e4,1.237e4,19.527,0.104,NaN,1995.451,NaN,0.05,3.352e6,1294.89,2.627,0.623,0.686,0.288,0.215,0.12,NaN,NaN,NaN,NaN,NaN,NaN,NaN,NaN,0.002,165,213.825,80,0,2,14.976,1012.82,340.374,0.01,0.108
1.56,3.834,16.763,37.985,17.021,38.571,0.676,0,0.676,0,2.956,6.698,22.175,120.893,9.788,6.47,0,0,0,2.685e4,1.235e4,19.517,0.104,NaN,1994.914,NaN,0.051,3.427e6,1297.251,2.737,0.623,0.684,0.288,0.215,0.12,NaN,NaN,NaN,NaN,NaN,NaN,NaN,NaN,0.002,165,213.825,80,0,2,14.975,1012.8,340.374,0.01,0.109
1.57,4.003,17.143,38.005,17.407,38.592,0.706,0,0.706,0,3.023,6.701,22.175,120.893,9.788,6.33,0,0,0,2.683e4,1.233e4,19.508,0.104,NaN,1994.377,NaN,0.052,3.502e6,1296.778,2.849,0.623,0.682,0.288,0.215,0.12,NaN,NaN,NaN,NaN,NaN,NaN,NaN,NaN,0.002,165,213.825,80,0,2,14.974,1012.78,340.373,0.01,0.109
1.585,4.265,17.71,37.876,17.988,38.747,0.752,1.896e-8,0.752,1.444e-6,3.145,8.165,22.175,120.893,9.788,6.199,0,0.039,-5.731e-6,2.679e4,1.229e4,19.493,0.104,2139.425,1993.568,0.884,0.054,3.616e6,1298.654,3.028,0.624,0.68,0.288,0.215,0.12,1.406,1.242,8.206e-5,0,0,0,0,5.148e-6,0.002,165,213.825,80,1.554e-7,2,14.972,1012.75,340.372,0.015,0.11
1.608,4.673,18.566,38.079,18.862,38.95,0.825,1.208e-7,0.825,8.388e-6,3.329,8.188,22.175,120.893,9.788,6.014,0,0.102,8.194e-6,2.674e4,1.224e4,19.472,0.104,2142.772,1992.348,0.912,0.057,3.787e6,1301.804,3.308,0.624,0.677,0.288,0.215,0.12,1.356,1.236,1.968e-4,0,0,0,0,3.215e-5,0.003,165,213.825,79.998,-7.031e-7,2,14.97,1012.702,340.37,0.023,0.11
1.641,5.321,19.86,38.416,20.185,39.288,0.942,4.481e-7,0.942,2.725e-5,3.607,8.23,22.175,120.893,9.788,5.758,0,0.208,-7.032e-6,2.666e4,1.216e4,19.439,0.104,2147.467,1990.501,0.951,0.061,4.046e6,1307.398,3.755,0.624,0.674,0.288,0.215,0.12,1.288,1.225,-4.63e-4,0,0,0,0,1.163e-4,0.003,165,213.825,79.993,-3.11e-6,2,14.965,1012.626,340.368,0.034,0.111
1.691,6.363,21.797,38.837,22.165,39.711,1.133,1.349e-6,1.133,6.822e-5,4.021,8.283,22.175,120.893,9.788,5.419,0,0.389,-1.648e-5,2.654e4,1.204e4,19.39,0.104,2153.828,1987.731,1.007,0.066,4.433e6,1313.533,4.476,0.624,0.669,0.288,0.215,0.121,1.2,1.208,1.621e-4,0,0,0,0,3.4e-4,0.003,165,213.825,79.978,-2.645e-6,2,14.959,1012.504,340.364,0.05,0.111
1.741,7.502,23.763,39.413,24.174,40.292,1.344,2.794e-6,1.344,1.191e-4,4.439,8.371,22.175,120.893,9.788,5.114,0,0.602,3.693e-5,2.642e4,1.192e4,19.34,0.104,2159.678,1984.915,1.059,0.072,4.826e6,1323.765,5.272,0.624,0.665,0.288,0.216,0.121,1.122,1.187,-2.978e-4,0,0,0,0,6.877e-4,0.003,165,213.825,79.953,-1.042e-6,2,14.951,1012.37,340.359,0.05,0.112
1.791,8.74,25.759,40.035,26.214,40.923,1.577,4.835e-6,1.577,1.757e-4,4.862,8.479,22.175,120.893,9.788,4.833,0,0.85,-3.649e-5,2.63e4,1.18e4,19.29,0.103,2165.182,1982.048,1.11,0.078,5.225e6,1335.184,6.146,0.624,0.661,0.288,0.216,0.121,1.051,1.165,3.099e-4,0,0,0,0,0.001,0.004,165,213.825,79.917,3.426e-6,2,14.943,1012.225,340.354,0.05,0.112
1.841,10.078,27.79,40.701,28.289,41.601,1.831,7.528e-6,1.831,2.356e-4,5.291,8.606,22.175,120.893,9.788,4.569,0,1.134,-1.858e-5,2.617e4,1.167e4,19.238,0.103,2170.471,1979.127,1.16,0.084,5.63e6,1347.677,7.102,0.624,0.658,0.288,0.216,0.121,0.985,1.14,-3.664e-4,0,0,0,0,0.002,0.004,165,213.825,79.868,1.142e-5,2,14.934,1012.068,340.349,0.05,0.113
1.891,11.519,29.859,41.494,30.404,42.411,2.106,1.093e-5,2.106,2.973e-4,5.728,8.773,22.175,120.893,9.788,4.314,0,1.456,1.76e-4,2.605e4,1.155e4,19.185,0.103,2175.666,1976.143,1.209,0.091,6.044e6,1363.475,8.146,0.624,0.655,0.288,0.216,0.121,0.923,1.112,2.352e-4,0,0,0,0,0.003,0.004,165,213.825,79.803,4.277e-6,2,14.925,1011.899,340.344,0.05,0.113
1.941,13.065,31.961,42.143,32.552,43.079,2.403,1.508e-5,2.403,3.595e-4,6.172,8.932,22.175,120.893,9.788,4.065,0,1.817,-2.627e-5,2.593e4,1.143e4,19.132,0.103,2180.833,1973.105,1.259,0.097,6.463e6,1375.364,9.278,0.625,0.652,0.288,0.216,0.121,0.862,1.082,1.3e-4,0,0,0,0,0.003,0.004,165,213.825,79.722,6.494e-6,2,14.915,1011.718,340.337,0.05,0.114
1.991,14.716,34.1,42.875,34.738,43.836,2.723,2.004e-5,2.723,4.216e-4,6.626,9.129,22.175,120.893,9.788,3.817,0,2.217,1.569e-4,2.58e4,1.13e4,19.077,0.103,2186.063,1970.006,1.309,0.103,6.891e6,1389.417,10.503,0.625,0.649,0.288,0.216,0.121,0.803,1.047,3.734e-4,0,0,0,0,0.005,0.005,165,213.825,79.621,2.047e-5,2,14.904,1011.524,340.331,0.05,0.114
2.041,16.476,36.288,43.849,36.974,44.845,3.066,2.587e-5,3.066,4.834e-4,7.093,9.397,22.175,120.893,9.788,3.567,0,2.657,2.876e-5,2.567e4,1.117e4,19.021,0.102,2191.454,1966.831,1.361,0.11,7.328e6,1409.711,11.831,0.625,0.646,0.288,0.216,0.122,0.745,1.007,-1.297e-4,0,0,0,0,0.006,0.005,165,213.825,79.499,4.343e-5,2,14.893,1011.318,340.324,0.05,0.114
2.091,18.346,38.518,44.702,39.255,45.737,3.433,3.262e-5,3.433,5.444e-4,7.573,9.675,22.175,120.893,9.788,3.311,0,3.133,2.994e-4,2.554e4,1.104e4,18.964,0.102,2197.051,1963.584,1.415,0.117,7.773e6,1426.753,13.265,0.625,0.644,0.287,0.216,0.122,0.685,0.962,-1.66e-4,0,0,0,0,0.007,0.005,165,213.825,79.355,4.555e-5,2,14.881,1011.098,340.317,0.05,0.114
2.141,20.329,40.777,45.275,41.566,46.352,3.824,4.035e-5,3.824,6.046e-4,8.064,9.935,22.175,120.893,9.788,3.05,0,3.644,4.729e-4,2.541e4,1.091e4,18.906,0.102,2202.885,1960.282,1.47,0.123,8.224e6,1436.554,14.798,0.626,0.642,0.287,0.216,0.122,0.626,0.912,-4.311e-4,0,0,0,0,0.009,0.006,165,213.825,79.185,1.197e-5,2,14.868,1010.866,340.309,0.05,0.115
2.191,22.425,43.068,45.924,43.913,47.054,4.24,4.909e-5,4.24,6.634e-4,8.571,10.248,22.175,120.893,9.788,2.78,0,4.183,6.595e-4,2.528e4,1.078e4,18.847,0.102,2209.019,1956.918,1.528,0.13,8.682e6,1448.404,16.437,0.626,0.64,0.287,0.216,0.122,0.565,0.854,-4.961e-4,0,0,0,0,0.01,0.006,165,213.825,78.99,-4.699e-5,2,14.854,1010.62,340.301,0.05,0.115
2.241,24.636,45.394,46.607,46.296,47.8,4.681,5.886e-5,4.681,7.204e-4,9.095,10.612,22.175,120.893,9.788,2.501,-9.291e-7,4.742,5.354e-4,2.515e4,1.065e4,18.787,0.102,2215.498,1953.489,1.588,0.137,9.148e6,1461.178,18.188,0.626,0.637,0.287,0.217,0.122,0.504,0.788,-3.48e-4,0,0,0,0,0.012,0.006,165,213.825,78.767,-1.074e-4,2,14.84,1010.361,340.292,0.05,0.116
2.291,26.964,47.743,47.063,48.705,48.326,5.15,6.966e-5,5.15,7.751e-4,9.636,10.976,22.175,120.893,9.788,2.213,0,5.31,8.499e-4,2.501e4,1.051e4,18.726,0.101,2222.342,1950.006,1.651,0.144,9.618e6,1468.288,20.047,0.627,0.636,0.287,0.217,0.123,0.441,0.715,-7.913e-5,0,0,0,0,0.013,0.007,165,213.825,78.515,-1.592e-4,2,14.825,1010.088,340.283,0.05,0.116
2.341,29.41,50.093,47.088,51.119,48.424,5.645,8.153e-5,5.645,8.275e-4,10.192,11.299,22.175,120.893,9.788,1.915,0,5.875,0.001,2.488e4,1.038e4,18.664,0.101,2229.55,1946.495,1.715,0.152,1.009e7,1464.702,22.002,0.627,0.634,0.287,0.217,0.123,0.378,0.634,-4.743e-5,0,0,0,0,0.015,0.007,165,213.825,78.236,-1.922e-4,2,14.809,1009.801,340.273,0.05,0.117
2.391,31.974,52.443,47.077,53.536,48.5,6.169,9.449e-5,6.169,8.776e-4,10.765,11.661,22.175,120.893,9.788,1.608,-5.87e-7,6.418,0.001,2.475e4,1.025e4,18.602,0.101,2237.13,1942.956,1.783,0.159,1.056e7,1460.577,24.052,0.628,0.632,0.287,0.217,0.123,0.314,0.544,4.153e-4,0,0,0,0,0.016,0.007,165,213.825,77.928,-2.131e-4,2,14.792,1009.5,340.263,0.05,0.117
2.441,34.655,54.795,47.102,55.959,48.625,6.722,1.086e-4,6.722,9.254e-4,11.357,12.074,22.175,120.893,9.788,1.295,-3.256e-7,6.919,0.001,2.461e4,1.011e4,18.539,0.101,2245.071,1939.385,1.853,0.166,1.103e7,1457.734,26.205,0.628,0.631,0.287,0.217,0.124,0.25,0.446,-7.479e-5,0,0,0,0,0.017,0.008,165,213.825,77.595,-1.821e-4,2,14.775,1009.186,340.252,0.05,0.117
2.491,37.453,57.127,46.704,58.367,48.332,7.305,1.238e-4,7.305,9.713e-4,11.967,12.435,22.175,120.893,9.788,0.977,0,7.356,0.002,2.448e4,9982.7,18.477,0.101,2253.313,1935.809,1.924,0.173,1.15e7,1444.705,28.446,0.628,0.63,0.287,0.218,0.124,0.187,0.341,2.28e-5,0,0,0,0,0.018,0.008,165,213.825,77.238,-9.058e-5,2,14.757,1008.857,340.241,0.05,0.117
2.541,40.367,59.452,46.555,60.772,48.306,7.919,1.404e-4,7.919,0.001,12.599,12.888,22.175,120.893,9.788,0.657,0,7.699,0.003,2.435e4,9851.919,18.414,0.1,2261.79,1932.21,1.997,0.18,1.197e7,1438.362,30.79,0.629,0.63,0.287,0.218,0.124,0.124,0.23,-1.197e-4,0,0,0,0,0.018,0.008,165,213.825,76.861,3.452e-5,2,14.738,1008.516,340.23,0.05,0.118
2.591,43.397,61.764,46.273,63.169,48.157,8.565,1.584e-4,8.565,0.001,13.252,13.339,22.175,120.893,9.788,0.341,1.24e-6,7.924,0.006,2.422e4,9721.977,18.351,0.1,2270.379,1928.595,2.071,0.187,1.244e7,1429.136,33.235,0.629,0.63,0.287,0.218,0.125,0.064,0.114,-3.345e-4,0,0,0,0,0.018,0.009,165,213.825,76.47,2.204e-4,2,14.718,1008.16,340.218,0.05,0.118
2.641,46.544,64.083,46.432,65.581,48.473,9.245,1.781e-4,9.245,0.001,13.934,13.919,22.175,120.893,9.788,0.035,-2.038e-6,8.002,0.058,2.409e4,9591.843,18.287,0.1,2278.927,1924.936,2.145,0.194,1.291e7,1431.244,35.812,0.63,0.63,0.287,0.218,0.125,0.006,-0.003,-2.621e-4,0,0,0,0,0.017,0.009,165,213.825,76.071,4.563e-4,2,14.697,1007.791,340.206,0.05,0.119
2.691,49.806,66.406,46.478,68.001,48.683,9.959,1.998e-4,9.959,0.001,14.644,14.487,22.175,120.893,9.788,0.256,0,-7.907,0.008,2.396e4,9461.748,18.222,0.1,2272.994,1921.238,2.132,0.201,1.338e7,1430.823,38.517,0.63,0.63,0.287,0.218,0.125,0.048,0.117,1.031e-4,0,0,0,0,-0.015,0.009,165,213.825,75.673,7.375e-4,2,14.676,1007.409,340.193,0.05,0.119
2.741,53.184,68.738,46.661,70.438,49.043,10.71,2.236e-4,10.71,0.001,15.384,15.096,22.175,120.893,9.788,0.523,0,-7.627,0.004,2.383e4,9331.363,18.157,0.1,2265.95,1917.492,2.112,0.208,1.385e7,1433.995,41.362,0.631,0.631,0.287,0.219,0.126,0.098,0.221,-1.99e-4,0,0,0,0,-0.013,0.01,165,213.825,75.284,0.001,2,14.654,1007.012,340.179,0.05,0.119
2.791,56.68,71.087,47.014,72.9,49.58,11.498,2.502e-4,11.498,0.001,16.158,15.743,22.175,120.893,9.788,0.757,-1.167e-6,-7.152,0.003,2.37e4,9200.305,18.091,0.099,2259.897,1913.685,2.098,0.216,1.433e7,1441.415,44.355,0.631,0.632,0.287,0.219,0.126,0.144,0.313,1.537e-4,0,0,0,0,-0.011,0.01,165,213.825,74.914,0.001,2,14.632,1006.602,340.166,0.05,0.12
2.841,60.293,73.451,47.31,75.384,50.055,12.326,2.798e-4,12.326,0.001,16.962,16.348,22.175,120.893,9.788,0.952,3.047e-6,-6.483,0.002,2.357e4,9068.707,18.023,0.099,2254.988,1909.819,2.092,0.223,1.481e7,1447.346,47.49,0.632,0.634,0.286,0.219,0.126,0.182,0.389,4.868e-5,0,0,0,0,-0.008,0.01,165,213.825,74.572,0.002,2,14.608,1006.179,340.151,0.05,0.12
2.891,64.025,75.809,47.197,77.869,50.095,13.195,3.132e-4,13.195,0.001,17.789,16.791,22.175,120.893,9.788,1.101,-9.293e-7,-5.626,0.002,2.344e4,8937.495,17.955,0.099,2251.347,1905.922,2.093,0.23,1.529e7,1443.113,50.735,0.633,0.635,0.286,0.219,0.127,0.212,0.449,-3.163e-4,0,0,0,0,-0.006,0.011,165,213.825,74.269,0.002,2,14.584,1005.741,340.137,0.05,0.121
2.941,67.874,78.155,46.945,80.346,49.969,14.105,3.508e-4,14.105,0.001,18.635,17.12,22.175,120.893,9.787,1.197,-1.596e-6,-4.601,0.002,2.331e4,8806.998,17.887,0.099,2249.084,1902.002,2.104,0.238,1.577e7,1435.232,54.07,0.633,0.636,0.286,0.22,0.127,0.231,0.49,4.481e-4,0,0,0,0,-0.004,0.011,165,213.825,74.013,0.003,2,14.559,1005.29,340.122,0.05,0.121
2.991,71.841,80.509,47.142,82.838,50.28,15.058,3.933e-4,15.058,0.001,19.501,17.486,22.175,120.893,9.787,1.235,-1.802e-6,-3.436,0.002,2.318e4,8676.274,17.818,0.099,2248.292,1898.031,2.123,0.245,1.625e7,1437.734,57.515,0.634,0.637,0.286,0.22,0.128,0.239,0.51,-1.325e-4,0,0,0,0,-0.002,0.011,165,213.825,73.812,0.003,2,14.533,1004.824,340.106,0.05,0.122
3.041,75.925,82.886,47.593,85.356,50.818,16.056,4.413e-4,16.056,0.002,20.387,17.817,22.175,120.893,9.787,1.214,-4.497e-7,-2.176,0.002,2.305e4,8544.831,17.748,0.098,2249.026,1893.993,2.152,0.252,1.674e7,1445.651,61.085,0.634,0.637,0.286,0.22,0.128,0.235,0.506,-2.133e-4,0,0,0,0,-7.376e-4,0.012,165,213.825,73.671,0.004,2,14.506,1004.345,340.09,0.05,0.122
3.091,80.13,85.279,47.941,87.895,51.207,17.097,4.952e-4,17.097,0.002,21.284,17.995,22.175,120.893,9.787,1.133,0,-0.874,0.001,2.291e4,8412.968,17.677,0.098,2251.283,1889.896,2.19,0.26,1.723e7,1450.255,64.768,0.635,0.638,0.286,0.22,0.129,0.219,0.479,2.17e-4,0,0,0,0,-1.124e-4,0.012,165,213.825,73.595,0.004,2,14.479,1003.852,340.073,0.05,0.122
3.141,84.453,87.68,48.131,90.443,51.385,18.184,5.557e-4,18.184,0.002,22.184,17.994,22.175,120.893,9.787,0.996,0,0.4,0.002,2.278e4,8281.109,17.605,0.098,2255.004,1885.751,2.238,0.267,1.772e7,1450.225,68.556,0.636,0.638,0.286,0.221,0.129,0.191,0.428,-4.762e-4,0,0,0,0,2.223e-5,0.012,165,213.825,73.584,0.004,2,14.451,1003.345,340.056,0.05,0.123
