# Time (s),Altitude (m),Vertical velocity (m/s),Vertical acceleration (m/s²),Total velocity (m/s),Total acceleration (m/s²),Position East of launch (m),Position North of launch (m),Lateral distance (m),Lateral direction (°),Lateral velocity (m/s),Lateral acceleration (m/s²),Latitude (°),Longitude (°),Gravitational acceleration (m/s²),Angle of attack (°),Roll rate (°/s),Pitch rate (°/s),Yaw rate (°/s),Mass (g),Motor mass (g),Longitudinal moment of inertia (kg·m²),Rotational moment of inertia (kg·m²),CP location (mm),CG location (mm),Stability margin calibers (​),Mach number (​),Reynolds number (​),Thrust (N),Drag force (N),Drag coefficient (​),Axial drag coefficient (​),Friction drag coefficient (​),Pressure drag coefficient (​),Base drag coefficient (​),Normal force coefficient (​),Pitch moment coefficient (​),Yaw moment coefficient (​),Side force coefficient (​),Roll moment coefficient (​),Roll forcing coefficient (​),Roll damping coefficient (​),Pitch damping coefficient (​),Coriolis acceleration (m/s²),Reference length (mm),Reference area (cm²),Vertical orientation (zenith) (°),Lateral orientation (azimuth) (°),Wind velocity (m/s),Air temperature (°C),Air pressure (mbar),Speed of sound (m/s),Simulation time step (s),Computation time (s)
0.01,-4.664e-4,-0.093,-9.324,0.095,9.468,-8.224e-5,0,8.224e-5,180,0.016,1.644,22.175,120.893,9.788,81.341,0,0,0,2.8e4,1.35e4,19.963,0.106,NaN,2019.994,NaN,0.012,7.815e5,4.784,0.001,0.693,0.005,0.357,0.215,0.12,NaN,NaN,NaN,NaN,NaN,NaN,NaN,NaN,1.282e-5,165,213.825,80,0,4,15,1013.25,340.389,0.01,0.006
0.02,-4.668e-4,-0.093,-9.336,0.095,9.48,-8.231e-5,0,8.231e-5,180,0.016,1.646,22.175,120.893,9.788,81.343,0,0,0,2.8e4,1.35e4,19.963,0.106,NaN,2019.992,NaN,0.012,7.815e5,4.461,0.001,0.693,0.005,0.357,0.215,0.12,NaN,NaN,NaN,NaN,NaN,NaN,NaN,NaN,1.283e-5,165,213.825,80,0,4,15,1013.25,340.389,0.01,0.007
0.03,-4.67e-4,-0.093,-9.34,0.095,9.484,-8.234e-5,0,8.234e-5,180,0.016,1.647,22.175,120.893,9.788,81.343,0,0,0,2.8e4,1.35e4,19.963,0.106,NaN,2019.991,NaN,0.012,7.815e5,4.343,0.001,0.693,0.005,0.357,0.215,0.12,NaN,NaN,NaN,NaN,NaN,NaN,NaN,NaN,1.284e-5,165,213.825,80,0,4,15,1013.25,340.389,0.01,0.008
0.04,-4.672e-4,-0.093,-9.343,0.095,9.487,-8.237e-5,0,8.237e-5,180,0.016,1.647,22.175,120.893,9.788,81.344,0,0,0,2.8e4,1.35e4,19.963,0.106,NaN,2019.989,NaN,0.012,7.815e5,4.249,0.001,0.693,0.005,0.357,0.215,0.12,NaN,NaN,NaN,NaN,NaN,NaN,NaN,NaN,1.285e-5,165,213.825,80,0,4,15,1013.25,340.389,0.01,0.009
0.05,-4.668e-4,-0.093,-9.336,0.095,9.48,-8.231e-5,0,8.231e-5,180,0.016,1.646,22.175,120.893,9.788,81.343,0,0,0,2.8e4,1.35e4,19.963,0.106,NaN,2019.988,NaN,0.012,7.815e5,4.443,0.001,0.693,0.005,0.357,0.215,0.12,NaN,NaN,NaN,NaN,NaN,NaN,NaN,NaN,1.284e-5,165,213.825,80,0,4,15,1013.25,340.389,0.01,0.01
0.06,-4.664e-4,-0.093,-9.328,0.095,9.472,-8.224e-5,0,8.224e-5,180,0.016,1.645,22.175,120.893,9.788,81.341,0,0,0,2.8e4,1.35e4,19.963,0.106,NaN,2019.986,NaN,0.012,7.815e5,4.681,0.001,0.693,0.005,0.357,0.215,0.12,NaN,NaN,NaN,NaN,NaN,NaN,NaN,NaN,1.282e-5,165,213.825,80,0,4,15,1013.25,340.389,0.01,0.011
0.07,-4.668e-4,-0.093,-9.337,0.095,9.481,-8.231e-5,0,8.231e-5,180,0.016,1.646,22.175,120.893,9.788,81.343,0,0,0,2.8e4,1.35e4,19.963,0.106,NaN,2019.984,NaN,0.012,7.815e5,4.438,0.001,0.693,0.005,0.357,0.215,0.12,NaN,NaN,NaN,NaN,NaN,NaN,NaN,NaN,1.284e-5,165,213.825,80,0,4,15,1013.25,340.389,0.01,0.012
0.08,-4.668e-4,-0.093,-9.335,0.095,9.479,-8.23e-5,0,8.23e-5,180,0.016,1.646,22.175,120.893,9.788,81.342,0,0,0,2.8e4,1.35e4,19.963,0.106,NaN,2019.982,NaN,0.012,7.815e5,4.479,0.001,0.693,0.005,0.357,0.215,0.12,NaN,NaN,NaN,NaN,NaN,NaN,NaN,NaN,1.283e-5,165,213.825,80,0,4,15,1013.25,340.389,0.01,0.012
0.09,-4.665e-4,-0.093,-9.331,0.095,9.475,-8.226e-5,0,8.226e-5,180,0.016,1.645,22.175,120.893,9.788,81.342,0,0,0,2.8e4,1.35e4,19.963,0.106,NaN,2019.981,NaN,0.012,7.815e5,4.603,0.001,0.693,0.005,0.357,0.215,0.12,NaN,NaN,NaN,NaN,NaN,NaN,NaN,NaN,1.283e-5,165,213.825,80,0,4,15,1013.25,340.389,0.01,0.012
0.1,-4.67e-4,-0.093,-9.341,0.095,9.485,-8.235e-5,0,8.235e-5,180,0.016,1.647,22.175,120.893,9.788,81.343,0,0,0,2.8e4,1.35e4,19.963,0.106,NaN,2019.979,NaN,0.012,7.815e5,4.315,0.001,0.693,0.005,0.357,0.215,0.12,NaN,NaN,NaN,NaN,NaN,NaN,NaN,NaN,1.284e-5,165,213.825,80,0,4,15,1013.25,340.389,0.01,0.013
0.11,-4.668e-4,-0.093,-9.337,0.095,9.481,-8.232e-5,0,8.232e-5,180,0.016,1.646,22.175,120.893,9.788,81.343,0,0,0,2.8e4,1.35e4,19.963,0.106,NaN,2019.977,NaN,0.012,7.815e5,4.431,0.001,0.693,0.005,0.357,0.215,0.12,NaN,NaN,NaN,NaN,NaN,NaN,NaN,NaN,1.284e-5,165,213.825,80,0,4,15,1013.25,340.389,0.01,0.014
0.12,-4.668e-4,-0.093,-9.337,0.095,9.481,-8.231e-5,0,8.231e-5,180,0.016,1.646,22.175,120.893,9.788,81.343,0,0,0,2.8e4,1.35e4,19.962,0.106,NaN,2019.976,NaN,0.012,7.815e5,4.436,0.001,0.693,0.005,0.357,0.215,0.12,NaN,NaN,NaN,NaN,NaN,NaN,NaN,NaN,1.284e-5,165,213.825,80,0,4,15,1013.25,340.389,0.01,0.015
0.13,-4.665e-4,-0.093,-9.33,0.095,9.474,-8.226e-5,0,8.226e-5,180,0.016,1.645,22.175,120.893,9.788,81.342,0,0,0,2.8e4,1.35e4,19.962,0.106,NaN,2019.974,NaN,0.012,7.815e5,4.62,0.001,0.693,0.005,0.357,0.215,0.12,NaN,NaN,NaN,NaN,NaN,NaN,NaN,NaN,1.283e-5,165,213.825,80,0,4,15,1013.25,340.389,0.01,0.015
0.14,-4.669e-4,-0.093,-9.338,0.095,9.482,-8.232e-5,0,8.232e-5,180,0.016,1.646,22.175,120.893,9.788,81.343,0,0,0,2.8e4,1.35e4,19.962,0.106,NaN,2019.972,NaN,0.012,7.815e5,4.404,0.001,0.693,0.005,0.357,0.215,0.12,NaN,NaN,NaN,NaN,NaN,NaN,NaN,NaN,1.284e-5,165,213.825,80,0,4,15,1013.25,340.389,0.01,0.016
0.15,-4.668e-4,-0.093,-9.336,0.095,9.48,-8.231e-5,0,8.231e-5,180,0.016,1.646,22.175,120.893,9.788,81.343,0,0,0,2.8e4,1.35e4,19.962,0.106,NaN,2019.97,NaN,0.012,7.815e5,4.444,0.001,0.693,0.005,0.357,0.215,0.12,NaN,NaN,NaN,NaN,NaN,NaN,NaN,NaN,1.284e-5,165,213.825,80,0,4,15,1013.25,340.389,0.01,0.017
0.16,-4.665e-4,-0.093,-9.329,0.095,9.473,-8.225e-5,0,8.225e-5,180,0.016,1.645,22.175,120.893,9.788,81.342,0,0,0,2.8e4,1.35e4,19.962,0.106,NaN,2019.969,NaN,0.012,7.815e5,4.651,0.001,0.693,0.005,0.357,0.215,0.12,NaN,NaN,NaN,NaN,NaN,NaN,NaN,NaN,1.283e-5,165,213.825,80,0,4,15,1013.25,340.389,0.01,0.017
0.17,-4.672e-4,-0.093,-9.344,0.095,9.488,-8.238e-5,0,8.238e-5,180,0.016,1.648,22.175,120.893,9.788,81.344,0,0,0,2.8e4,1.35e4,19.962,0.106,NaN,2019.967,NaN,0.012,7.814e5,4.218,0.001,0.693,0.005,0.357,0.215,0.12,NaN,NaN,NaN,NaN,NaN,NaN,NaN,NaN,1.285e-5,165,213.825,80,0,4,15,1013.25,340.389,0.01,0.017
0.18,-4.672e-4,-0.093,-9.344,0.095,9.488,-8.238e-5,0,8.238e-5,180,0.016,1.648,22.175,120.893,9.788,81.344,0,0,0,2.8e4,1.35e4,19.962,0.106,NaN,2019.965,NaN,0.012,7.815e5,4.225,0.001,0.693,0.005,0.357,0.215,0.12,NaN,NaN,NaN,NaN,NaN,NaN,NaN,NaN,1.285e-5,165,213.825,80,0,4,15,1013.25,340.389,0.01,0.018
0.19,-4.67e-4,-0.093,-9.341,0.095,9.485,-8.235e-5,0,8.235e-5,180,0.016,1.647,22.175,120.893,9.788,81.343,0,0,0,2.8e4,1.35e4,19.962,0.106,NaN,2019.964,NaN,0.012,7.815e5,4.321,0.001,0.693,0.005,0.357,0.215,0.12,NaN,NaN,NaN,NaN,NaN,NaN,NaN,NaN,1.284e-5,165,213.825,80,0,4,15,1013.25,340.389,0.01,0.019
0.2,-4.673e-4,-0.093,-9.346,0.095,9.49,-8.24e-5,0,8.24e-5,180,0.016,1.648,22.175,120.893,9.788,81.344,0,0,0,2.8e4,1.35e4,19.962,0.106,NaN,2019.962,NaN,0.012,7.814e5,4.174,0.001,0.693,0.005,0.357,0.215,0.12,NaN,NaN,NaN,NaN,NaN,NaN,NaN,NaN,1.285e-5,165,213.825,80,0,4,15,1013.25,340.389,0.01,0.019
0.21,-4.669e-4,-0.093,-9.339,0.095,9.483,-8.233e-5,0,8.233e-5,180,0.016,1.647,22.175,120.893,9.788,81.343,0,0,0,2.8e4,1.35e4,19.962,0.106,NaN,2019.961,NaN,0.012,7.815e5,4.381,0.001,0.693,0.005,0.357,0.215,0.12,NaN,NaN,NaN,NaN,NaN,NaN,NaN,NaN,1.284e-5,165,213.825,80,0,4,15,1013.25,340.389,0.01,0.019
0.22,-4.664e-4,-0.093,-9.329,0.095,9.473,-8.225e-5,0,8.225e-5,180,0.016,1.645,22.175,120.893,9.788,81.342,0,0,0,2.8e4,1.35e4,19.962,0.106,NaN,2019.959,NaN,0.012,7.815e5,4.657,0.001,0.693,0.005,0.357,0.215,0.12,NaN,NaN,NaN,NaN,NaN,NaN,NaN,NaN,1.283e-5,165,213.825,80,0,4,15,1013.25,340.389,0.01,0.02
0.23,-4.669e-4,-0.093,-9.338,0.095,9.482,-8.233e-5,0,8.233e-5,180,0.016,1.647,22.175,120.893,9.788,81.343,0,0,0,2.8e4,1.35e4,19.962,0.106,NaN,2019.957,NaN,0.012,7.815e5,4.392,0.001,0.693,0.005,0.357,0.215,0.12,NaN,NaN,NaN,NaN,NaN,NaN,NaN,NaN,1.284e-5,165,213.825,80,0,4,15,1013.25,340.389,0.01,0.02
0.24,-4.667e-4,-0.093,-9.334,0.095,9.478,-8.229e-5,0,8.229e-5,180,0.016,1.646,22.175,120.893,9.788,81.342,0,0,0,2.8e4,1.35e4,19.962,0.106,NaN,2019.955,NaN,0.012,7.815e5,4.513,0.001,0.693,0.005,0.357,0.215,0.12,NaN,NaN,NaN,NaN,NaN,NaN,NaN,NaN,1.283e-5,165,213.825,80,0,4,15,1013.25,340.389,0.01,0.021
0.25,-4.666e-4,-0.093,-9.331,0.095,9.475,-8.227e-5,0,8.227e-5,180,0.016,1.645,22.175,120.893,9.788,81.342,0,0,0,2.8e4,1.35e4,19.962,0.106,NaN,2019.954,NaN,0.012,7.815e5,4.587,0.001,0.693,0.005,0.357,0.215,0.12,NaN,NaN,NaN,NaN,NaN,NaN,NaN,NaN,1.283e-5,165,213.825,80,0,4,15,1013.25,340.389,0.01,0.021
0.26,-4.668e-4,-0.093,-9.337,0.095,9.481,-8.232e-5,0,8.232e-5,180,0.016,1.646,22.175,120.893,9.788,81.343,0,0,0,2.8e4,1.35e4,19.962,0.106,NaN,2019.952,NaN,0.012,7.815e5,4.429,0.001,0.693,0.005,0.357,0.215,0.12,NaN,NaN,NaN,NaN,NaN,NaN,NaN,NaN,1.284e-5,165,213.825,80,0,4,15,1013.25,340.389,0.01,0.022
0.27,-4.667e-4,-0.093,-9.333,0.095,9.477,-8.229e-5,0,8.229e-5,180,0.016,1.646,22.175,120.893,9.788,81.342,0,0,0,2.8e4,1.35e4,19.962,0.106,NaN,2019.95,NaN,0.012,7.815e5,4.527,0.001,0.693,0.005,0.357,0.215,0.12,NaN,NaN,NaN,NaN,NaN,NaN,NaN,NaN,1.283e-5,165,213.825,80,0,4,15,1013.25,340.389,0.01,0.022
0.28,-4.667e-4,-0.093,-9.335,0.095,9.479,-8.23e-5,0,8.23e-5,180,0.016,1.646,22.175,120.893,9.788,81.342,0,0,0,2.8e4,1.35e4,19.962,0.106,NaN,2019.949,NaN,0.012,7.815e5,4.488,0.001,0.693,0.005,0.357,0.215,0.12,NaN,NaN,NaN,NaN,NaN,NaN,NaN,NaN,1.283e-5,165,213.825,80,0,4,15,1013.25,340.389,0.01,0.022
0.29,-4.665e-4,-0.093,-9.33,0.095,9.474,-8.226e-5,0,8.226e-5,180,0.016,1.645,22.175,120.893,9.788,81.342,0,0,0,2.8e4,1.35e4,19.962,0.106,NaN,2019.947,NaN,0.012,7.815e5,4.616,0.001,0.693,0.005,0.357,0.215,0.12,NaN,NaN,NaN,NaN,NaN,NaN,NaN,NaN,1.283e-5,165,213.825,80,0,4,15,1013.25,340.389,0.01,0.023
0.3,-4.666e-4,-0.093,-9.333,0.095,9.477,-8.228e-5,0,8.228e-5,180,0.016,1.646,22.175,120.893,9.788,81.342,0,0,0,2.8e4,1.35e4,19.962,0.106,NaN,2019.945,NaN,0.012,7.815e5,4.548,0.001,0.693,0.005,0.357,0.215,0.12,NaN,NaN,NaN,NaN,NaN,NaN,NaN,NaN,1.283e-5,165,213.825,80,0,4,15,1013.25,340.389,0.01,0.024
0.31,-4.664e-4,-0.093,-9.327,0.095,9.471,-8.223e-5,0,8.223e-5,180,0.016,1.645,22.175,120.893,9.788,81.341,0,0,0,2.8e4,1.35e4,19.962,0.106,NaN,2019.943,NaN,0.012,7.815e5,4.706,0.001,0.693,0.005,0.357,0.215,0.12,NaN,NaN,NaN,NaN,NaN,NaN,NaN,NaN,1.282e-5,165,213.825,80,0,4,15,1013.25,340.389,0.01,0.024
0.32,-4.67e-4,-0.093,-9.34,0.095,9.484,-8.235e-5,0,8.235e-5,180,0.016,1.647,22.175,120.893,9.788,81.343,0,0,0,2.8e4,1.35e4,19.962,0.106,NaN,2019.942,NaN,0.012,7.815e5,4.332,0.001,0.693,0.005,0.357,0.215,0.12,NaN,NaN,NaN,NaN,NaN,NaN,NaN,NaN,1.284e-5,165,213.825,80,0,4,15,1013.25,340.389,0.01,0.025
0.33,-4.667e-4,-0.093,-9.335,0.095,9.479,-8.23e-5,0,8.23e-5,180,0.016,1.646,22.175,120.893,9.788,81.342,0,0,0,2.8e4,1.35e4,19.962,0.106,NaN,2019.94,NaN,0.012,7.815e5,4.483,0.001,0.693,0.005,0.357,0.215,0.12,NaN,NaN,NaN,NaN,NaN,NaN,NaN,NaN,1.283e-5,165,213.825,80,0,4,15,1013.25,340.389,0.01,0.025
0.34,-4.666e-4,-0.093,-9.332,0.095,9.476,-8.227e-5,0,8.227e-5,180,0.016,1.645,22.175,120.893,9.788,81.342,0,0,0,2.8e4,1.35e4,19.962,0.106,NaN,2019.938,NaN,0.012,7.815e5,4.57,0.001,0.693,0.005,0.357,0.215,0.12,NaN,NaN,NaN,NaN,NaN,NaN,NaN,NaN,1.283e-5,165,213.825,80,0,4,15,1013.25,340.389,0.01,0.025
0.35,-4.669e-4,-0.093,-9.337,0.095,9.481,-8.232e-5,0,8.232e-5,180,0.016,1.646,22.175,120.893,9.788,81.343,0,0,0,2.8e4,1.35e4,19.962,0.106,NaN,2019.936,NaN,0.012,7.815e5,4.419,0.001,0.693,0.005,0.357,0.215,0.12,NaN,NaN,NaN,NaN,NaN,NaN,NaN,NaN,1.284e-5,165,213.825,80,0,4,15,1013.25,340.389,0.01,0.026
0.36,-4.67e-4,-0.093,-9.341,0.095,9.485,-8.235e-5,0,8.235e-5,180,0.016,1.647,22.175,120.893,9.788,81.343,0,0,0,2.8e4,1.35e4,19.962,0.106,NaN,2019.935,NaN,0.012,7.815e5,4.317,0.001,0.693,0.005,0.357,0.215,0.12,NaN,NaN,NaN,NaN,NaN,NaN,NaN,NaN,1.284e-5,165,213.825,80,0,4,15,1013.25,340.389,0.01,0.026
0.37,-4.667e-4,-0.093,-9.334,0.095,9.478,-8.229e-5,0,8.229e-5,180,0.016,1.646,22.175,120.893,9.788,81.342,0,0,0,2.8e4,1.35e4,19.962,0.106,NaN,2019.933,NaN,0.012,7.815e5,4.522,0.001,0.693,0.005,0.357,0.215,0.12,NaN,NaN,NaN,NaN,NaN,NaN,NaN,NaN,1.283e-5,165,213.825,80,0,4,15,1013.25,340.389,0.01,0.026
0.38,-4.668e-4,-0.093,-9.337,0.095,9.481,-8.232e-5,0,8.232e-5,180,0.016,1.646,22.175,120.893,9.788,81.343,0,0,0,2.8e4,1.35e4,19.962,0.106,NaN,2019.931,NaN,0.012,7.815e5,4.433,0.001,0.693,0.005,0.357,0.215,0.12,NaN,NaN,NaN,NaN,NaN,NaN,NaN,NaN,1.284e-5,165,213.825,80,0,4,15,1013.25,340.389,0.01,0.026
0.39,-4.664e-4,-0.093,-9.328,0.095,9.472,-8.224e-5,0,8.224e-5,180,0.016,1.645,22.175,120.893,9.788,81.341,0,0,0,2.8e4,1.35e4,19.962,0.106,NaN,2019.93,NaN,0.012,7.815e5,4.673,0.001,0.693,0.005,0.357,0.215,0.12,NaN,NaN,NaN,NaN,NaN,NaN,NaN,NaN,1.282e-5,165,213.825,80,0,4,15,1013.25,340.389,0.01,0.027
0.4,-4.662e-4,-0.093,-9.323,0.095,9.467,-8.22e-5,0,8.22e-5,180,0.016,1.644,22.175,120.893,9.788,81.341,0,0,0,2.8e4,1.35e4,19.962,0.106,NaN,2019.928,NaN,0.012,7.815e5,4.812,0.001,0.693,0.005,0.357,0.215,0.12,NaN,NaN,NaN,NaN,NaN,NaN,NaN,NaN,1.282e-5,165,213.825,80,0,4,15,1013.25,340.389,0.01,0.027
0.41,-4.665e-4,-0.093,-9.331,0.095,9.475,-8.227e-5,0,8.227e-5,180,0.016,1.645,22.175,120.893,9.788,81.342,0,0,0,2.8e4,1.35e4,19.962,0.106,NaN,2019.926,NaN,0.012,7.815e5,4.595,0.001,0.693,0.005,0.357,0.215,0.12,NaN,NaN,NaN,NaN,NaN,NaN,NaN,NaN,1.283e-5,165,213.825,80,0,4,15,1013.25,340.389,0.01,0.027
0.42,-4.665e-4,-0.093,-9.329,0.095,9.473,-8.225e-5,0,8.225e-5,180,0.016,1.645,22.175,120.893,9.788,81.342,0,0,0,2.8e4,1.35e4,19.962,0.106,NaN,2019.924,NaN,0.012,7.815e5,4.638,0.001,0.693,0.005,0.357,0.215,0.12,NaN,NaN,NaN,NaN,NaN,NaN,NaN,NaN,1.283e-5,165,213.825,80,0,4,15,1013.25,340.389,0.01,0.028
0.43,-4.662e-4,-0.093,-9.323,0.095,9.467,-8.22e-5,0,8.22e-5,180,0.016,1.644,22.175,120.893,9.788,81.341,0,0,0,2.8e4,1.35e4,19.962,0.106,NaN,2019.922,NaN,0.012,7.815e5,4.811,0.001,0.693,0.005,0.357,0.215,0.12,NaN,NaN,NaN,NaN,NaN,NaN,NaN,NaN,1.282e-5,165,213.825,80,0,4,15,1013.25,340.389,0.01,0.028
0.44,-4.66e-4,-0.093,-9.32,0.095,9.463,-8.216e-5,0,8.216e-5,180,0.016,1.643,22.175,120.893,9.788,81.34,0,0,0,2.8e4,1.35e4,19.962,0.106,NaN,2019.921,NaN,0.012,7.815e5,4.919,0.001,0.693,0.005,0.357,0.215,0.12,NaN,NaN,NaN,NaN,NaN,NaN,NaN,NaN,1.281e-5,165,213.825,80,0,4,15,1013.25,340.389,0.01,0.028
0.45,-4.666e-4,-0.093,-9.331,0.095,9.475,-8.227e-5,0,8.227e-5,180,0.016,1.645,22.175,120.893,9.788,81.342,0,0,0,2.8e4,1.35e4,19.961,0.106,NaN,2019.919,NaN,0.012,7.815e5,4.583,0.001,0.693,0.005,0.357,0.215,0.12,NaN,NaN,NaN,NaN,NaN,NaN,NaN,NaN,1.283e-5,165,213.825,80,0,4,15,1013.25,340.389,0.01,0.028
0.46,-4.668e-4,-0.093,-9.337,0.095,9.481,-8.232e-5,0,8.232e-5,180,0.016,1.646,22.175,120.893,9.788,81.343,0,0,0,2.8e4,1.35e4,19.961,0.106,NaN,2019.917,NaN,0.012,7.815e5,4.429,0.001,0.693,0.005,0.357,0.215,0.12,NaN,NaN,NaN,NaN,NaN,NaN,NaN,NaN,1.284e-5,165,213.825,80,0,4,15,1013.25,340.389,0.01,0.029
0.47,-4.668e-4,-0.093,-9.336,0.095,9.48,-8.231e-5,0,8.231e-5,180,0.016,1.646,22.175,120.893,9.788,81.343,0,0,0,2.8e4,1.35e4,19.961,0.106,NaN,2019.915,NaN,0.012,7.815e5,4.45,0.001,0.693,0.005,0.357,0.215,0.12,NaN,NaN,NaN,NaN,NaN,NaN,NaN,NaN,1.284e-5,165,213.825,80,0,4,15,1013.25,340.389,0.01,0.029
0.48,-4.66e-4,-0.093,-9.32,0.095,9.464,-8.217e-5,0,8.217e-5,180,0.016,1.643,22.175,120.893,9.788,81.34,0,0,0,2.8e4,1.35e4,19.961,0.106,NaN,2019.914,NaN,0.012,7.815e5,4.905,0.001,0.693,0.005,0.357,0.215,0.12,NaN,NaN,NaN,NaN,NaN,NaN,NaN,NaN,1.281e-5,165,213.825,80,0,4,15,1013.25,340.389,0.01,0.029
0.49,-4.663e-4,-0.093,-9.326,0.095,9.469,-8.222e-5,0,8.222e-5,180,0.016,1.644,22.175,120.893,9.788,81.341,0,0,0,2.8e4,1.35e4,19.961,0.106,NaN,2019.912,NaN,0.012,7.815e5,4.746,0.001,0.693,0.005,0.357,0.215,0.12,NaN,NaN,NaN,NaN,NaN,NaN,NaN,NaN,1.282e-5,165,213.825,80,0,4,15,1013.25,340.389,0.01,0.029
0.5,-4.668e-4,-0.093,-9.335,0.095,9.479,-8.23e-5,0,8.23e-5,180,0.016,1.646,22.175,120.893,9.788,81.342,0,0,0,2.8e4,1.35e4,19.961,0.106,NaN,2019.91,NaN,0.012,7.815e5,4.47,0.001,0.693,0.005,0.357,0.215,0.12,NaN,NaN,NaN,NaN,NaN,NaN,NaN,NaN,1.283e-5,165,213.825,80,0,4,15,1013.25,340.389,0.01,0.03
0.51,-4.664e-4,-0.093,-9.329,0.095,9.473,-8.225e-5,0,8.225e-5,180,0.016,1.645,22.175,120.893,9.788,81.342,0,0,0,2.8e4,1.35e4,19.961,0.106,NaN,2019.908,NaN,0.012,7.815e5,4.657,0.001,0.693,0.005,0.357,0.215,0.12,NaN,NaN,NaN,NaN,NaN,NaN,NaN,NaN,1.283e-5,165,213.825,80,0,4,15,1013.25,340.389,0.01,0.03
0.52,-4.656e-4,-0.093,-9.313,0.095,9.456,-8.21e-5,0,8.21e-5,180,0.016,1.642,22.175,120.893,9.788,81.339,0,0,0,2.8e4,1.35e4,19.961,0.106,NaN,2019.906,NaN,0.012,7.815e5,5.115,0.001,0.693,0.005,0.357,0.215,0.12,NaN,NaN,NaN,NaN,NaN,NaN,NaN,NaN,1.28e-5,165,213.825,80,0,4,15,1013.25,340.389,0.01,0.049
0.53,-4.652e-4,-0.093,-9.305,0.094,9.448,-8.203e-5,0,8.203e-5,180,0.016,1.641,22.175,120.893,9.788,81.338,0,0,0,2.8e4,1.35e4,19.961,0.106,NaN,2019.904,NaN,0.012,7.815e5,5.339,0.001,0.693,0.005,0.357,0.215,0.12,NaN,NaN,NaN,NaN,NaN,NaN,NaN,NaN,1.279e-5,165,213.825,80,0,4,15,1013.25,340.389,0.01,0.05
0.54,-4.665e-4,-0.093,-9.329,0.095,9.473,-8.225e-5,0,8.225e-5,180,0.016,1.645,22.175,120.893,9.788,81.342,0,0,0,2.8e4,1.35e4,19.961,0.106,NaN,2019.903,NaN,0.012,7.815e5,4.638,0.001,0.693,0.005,0.357,0.215,0.12,NaN,NaN,NaN,NaN,NaN,NaN,NaN,NaN,1.283e-5,165,213.825,80,0,4,15,1013.25,340.389,0.01,0.051
0.55,-4.662e-4,-0.093,-9.323,0.095,9.467,-8.22e-5,0,8.22e-5,180,0.016,1.644,22.175,120.893,9.788,81.341,0,0,0,2.8e4,1.35e4,19.961,0.106,NaN,2019.901,NaN,0.012,7.815e5,4.82,0.001,0.693,0.005,0.357,0.215,0.12,NaN,NaN,NaN,NaN,NaN,NaN,NaN,NaN,1.282e-5,165,213.825,80,0,4,15,1013.25,340.389,0.01,0.051
0.56,-4.656e-4,-0.093,-9.312,0.095,9.455,-8.21e-5,0,8.21e-5,180,0.016,1.642,22.175,120.893,9.788,81.339,0,0,0,2.8e4,1.35e4,19.961,0.106,NaN,2019.899,NaN,0.012,7.815e5,5.14,0.001,0.693,0.005,0.357,0.215,0.12,NaN,NaN,NaN,NaN,NaN,NaN,NaN,NaN,1.28e-5,165,213.825,80,0,4,15,1013.25,340.389,0.01,0.052
0.57,-4.655e-4,-0.093,-9.311,0.095,9.455,-8.209e-5,0,8.209e-5,180,0.016,1.642,22.175,120.893,9.788,81.339,0,0,0,2.8e4,1.35e4,19.961,0.106,NaN,2019.897,NaN,0.012,7.815e5,5.164,0.001,0.693,0.005,0.357,0.215,0.12,NaN,NaN,NaN,NaN,NaN,NaN,NaN,NaN,1.28e-5,165,213.825,80,0,4,15,1013.25,340.389,0.01,0.052
0.58,-4.656e-4,-0.093,-9.312,0.095,9.456,-8.21e-5,0,8.21e-5,180,0.016,1.642,22.175,120.893,9.788,81.339,0,0,0,2.8e4,1.35e4,19.961,0.106,NaN,2019.895,NaN,0.012,7.815e5,5.125,0.001,0.693,0.005,0.357,0.215,0.12,NaN,NaN,NaN,NaN,NaN,NaN,NaN,NaN,1.28e-5,165,213.825,80,0,4,15,1013.25,340.389,0.01,0.053
0.59,-4.653e-4,-0.093,-9.306,0.094,9.45,-8.205e-5,0,8.205e-5,180,0.016,1.641,22.175,120.893,9.788,81.338,0,0,0,2.8e4,1.35e4,19.961,0.106,NaN,2019.893,NaN,0.012,7.815e5,5.296,0.001,0.693,0.005,0.357,0.215,0.12,NaN,NaN,NaN,NaN,NaN,NaN,NaN,NaN,1.279e-5,165,213.825,80,0,4,15,1013.25,340.389,0.01,0.053
0.6,-4.648e-4,-0.093,-9.297,0.094,9.44,-8.196e-5,0,8.196e-5,180,0.016,1.639,22.175,120.893,9.788,81.337,0,0,0,2.8e4,1.349e4,19.961,0.106,NaN,2019.891,NaN,0.012,7.815e5,5.567,0.001,0.693,0.005,0.357,0.215,0.12,NaN,NaN,NaN,NaN,NaN,NaN,NaN,NaN,1.278e-5,165,213.825,80,0,4,15,1013.25,340.389,0.01,0.053
0.61,-4.646e-4,-0.093,-9.291,0.094,9.435,-8.192e-5,0,8.192e-5,180,0.016,1.638,22.175,120.893,9.788,81.336,0,0,0,2.8e4,1.349e4,19.961,0.106,NaN,2019.889,NaN,0.012,7.815e5,5.717,0.001,0.693,0.005,0.357,0.215,0.12,NaN,NaN,NaN,NaN,NaN,NaN,NaN,NaN,1.277e-5,165,213.825,80,0,4,15,1013.25,340.389,0.01,0.054
0.62,-4.652e-4,-0.093,-9.304,0.094,9.447,-8.203e-5,0,8.203e-5,180,0.016,1.641,22.175,120.893,9.788,81.338,0,0,0,2.8e4,1.349e4,19.961,0.106,NaN,2019.887,NaN,0.012,7.815e5,5.366,0.001,0.693,0.005,0.357,0.215,0.12,NaN,NaN,NaN,NaN,NaN,NaN,NaN,NaN,1.279e-5,165,213.825,80,0,4,15,1013.25,340.389,0.01,0.054
0.63,-4.644e-4,-0.093,-9.287,0.094,9.43,-8.188e-5,0,8.188e-5,180,0.016,1.638,22.175,120.893,9.788,81.335,0,0,0,2.799e4,1.349e4,19.961,0.106,NaN,2019.884,NaN,0.012,7.815e5,5.844,0.001,0.693,0.005,0.357,0.215,0.12,NaN,NaN,NaN,NaN,NaN,NaN,NaN,NaN,1.277e-5,165,213.825,80,0,4,15,1013.25,340.389,0.01,0.055
0.64,-4.645e-4,-0.093,-9.289,0.094,9.432,-8.19e-5,0,8.19e-5,180,0.016,1.638,22.175,120.893,9.788,81.336,0,0,0,2.799e4,1.349e4,19.961,0.106,NaN,2019.882,NaN,0.012,7.815e5,5.786,0.001,0.693,0.005,0.357,0.215,0.12,NaN,NaN,NaN,NaN,NaN,NaN,NaN,NaN,1.277e-5,165,213.825,80,0,4,15,1013.25,340.389,0.01,0.055
0.65,-4.641e-4,-0.093,-9.283,0.094,9.426,-8.184e-5,0,8.184e-5,180,0.016,1.637,22.175,120.893,9.788,81.335,0,0,0,2.799e4,1.349e4,19.961,0.106,NaN,2019.88,NaN,0.012,7.815e5,5.968,0.001,0.693,0.005,0.357,0.215,0.12,NaN,NaN,NaN,NaN,NaN,NaN,NaN,NaN,1.276e-5,165,213.825,80,0,4,15,1013.25,340.389,0.01,0.056
0.66,-4.631e-4,-0.093,-9.262,0.094,9.405,-8.166e-5,0,8.166e-5,180,0.016,1.633,22.175,120.893,9.788,81.332,0,0,0,2.799e4,1.349e4,19.961,0.106,NaN,2019.877,NaN,0.012,7.815e5,6.551,0.001,0.693,0.005,0.357,0.215,0.12,NaN,NaN,NaN,NaN,NaN,NaN,NaN,NaN,1.273e-5,165,213.825,80,0,4,15,1013.25,340.389,0.01,0.056
0.67,-4.628e-4,-0.093,-9.256,0.094,9.399,-8.161e-5,0,8.161e-5,180,0.016,1.632,22.175,120.893,9.788,81.331,0,0,0,2.799e4,1.349e4,19.961,0.106,NaN,2019.875,NaN,0.012,7.815e5,6.72,0.001,0.693,0.005,0.357,0.215,0.12,NaN,NaN,NaN,NaN,NaN,NaN,NaN,NaN,1.273e-5,165,213.825,80,0,4,15,1013.25,340.389,0.01,0.057
0.68,-4.618e-4,-0.092,-9.236,0.094,9.378,-8.143e-5,0,8.143e-5,180,0.016,1.629,22.175,120.893,9.788,81.328,0,0,0,2.799e4,1.349e4,19.961,0.106,NaN,2019.872,NaN,0.012,7.815e5,7.299,0.001,0.693,0.005,0.357,0.215,0.12,NaN,NaN,NaN,NaN,NaN,NaN,NaN,NaN,1.27e-5,165,213.825,80,0,4,15,1013.25,340.389,0.01,0.057
0.69,-4.615e-4,-0.092,-9.23,0.094,9.372,-8.137e-5,0,8.137e-5,180,0.016,1.627,22.175,120.893,9.788,81.327,0,0,0,2.799e4,1.349e4,19.961,0.106,NaN,2019.869,NaN,0.012,7.815e5,7.467,0.001,0.693,0.006,0.357,0.215,0.12,NaN,NaN,NaN,NaN,NaN,NaN,NaN,NaN,1.269e-5,165,213.825,80,0,4,15,1013.25,340.389,0.01,0.058
0.7,-4.606e-4,-0.092,-9.213,0.094,9.355,-8.122e-5,0,8.122e-5,180,0.016,1.624,22.175,120.893,9.788,81.325,0,0,0,2.799e4,1.349e4,19.961,0.106,NaN,2019.866,NaN,0.012,7.815e5,7.951,0.001,0.693,0.006,0.357,0.215,0.12,NaN,NaN,NaN,NaN,NaN,NaN,NaN,NaN,1.267e-5,165,213.825,80,0,4,15,1013.25,340.389,0.01,0.058
0.71,-4.589e-4,-0.092,-9.178,0.093,9.32,-8.092e-5,0,8.092e-5,180,0.016,1.618,22.175,120.893,9.788,81.32,0,0,0,2.799e4,1.349e4,19.96,0.106,NaN,2019.863,NaN,0.012,7.815e5,8.938,0.001,0.692,0.006,0.357,0.215,0.12,NaN,NaN,NaN,NaN,NaN,NaN,NaN,NaN,1.262e-5,165,213.825,80,0,4,15,1013.25,340.389,0.01,0.058
0.72,-4.584e-4,-0.092,-9.167,0.093,9.308,-8.082e-5,0,8.082e-5,180,0.016,1.616,22.175,120.893,9.788,81.318,0,0,0,2.799e4,1.349e4,19.96,0.106,NaN,2019.859,NaN,0.012,7.815e5,9.255,0.001,0.692,0.006,0.357,0.215,0.12,NaN,NaN,NaN,NaN,NaN,NaN,NaN,NaN,1.26e-5,165,213.825,80,0,4,15,1013.25,340.389,0.01,0.059
0.73,-4.567e-4,-0.091,-9.134,0.093,9.275,-8.053e-5,0,8.053e-5,180,0.016,1.611,22.175,120.893,9.788,81.313,0,0,0,2.799e4,1.349e4,19.96,0.106,NaN,2019.855,NaN,0.012,7.815e5,10.185,0.001,0.692,0.006,0.357,0.215,0.12,NaN,NaN,NaN,NaN,NaN,NaN,NaN,NaN,1.256e-5,165,213.825,80,0,4,15,1013.25,340.389,0.01,0.059
0.74,-4.548e-4,-0.091,-9.096,0.092,9.236,-8.019e-5,0,8.019e-5,180,0.016,1.604,22.175,120.893,9.788,81.308,0,0,0,2.799e4,1.349e4,19.96,0.106,NaN,2019.851,NaN,0.012,7.815e5,11.275,0.001,0.692,0.006,0.357,0.215,0.12,NaN,NaN,NaN,NaN,NaN,NaN,NaN,NaN,1.251e-5,165,213.825,80,0,4,15,1013.25,340.389,0.01,0.06
0.75,-4.53e-4,-0.091,-9.059,0.092,9.199,-7.987e-5,0,7.987e-5,180,0.016,1.597,22.175,120.893,9.788,81.303,0,0,0,2.799e4,1.349e4,19.96,0.106,NaN,2019.846,NaN,0.012,7.815e5,12.322,0.001,0.692,0.006,0.357,0.215,0.12,NaN,NaN,NaN,NaN,NaN,NaN,NaN,NaN,1.245e-5,165,213.825,80,0,4,15,1013.25,340.389,0.01,0.06
0.76,-4.506e-4,-0.09,-9.012,0.092,9.151,-7.945e-5,0,7.945e-5,180,0.016,1.589,22.175,120.893,9.788,81.296,0,0,0,2.799e4,1.349e4,19.96,0.106,NaN,2019.841,NaN,0.012,7.815e5,13.663,0.001,0.692,0.006,0.357,0.215,0.12,NaN,NaN,NaN,NaN,NaN,NaN,NaN,NaN,1.239e-5,165,213.825,80,0,4,15,1013.25,340.389,0.01,0.06
0.77,-4.495e-4,-0.09,-8.989,0.091,9.128,-7.925e-5,0,7.925e-5,180,0.016,1.585,22.175,120.893,9.788,81.293,0,0,0,2.799e4,1.349e4,19.96,0.106,NaN,2019.836,NaN,0.012,7.816e5,14.302,0.001,0.692,0.006,0.357,0.215,0.12,NaN,NaN,NaN,NaN,NaN,NaN,NaN,NaN,1.236e-5,165,213.825,80,0,4,15,1013.25,340.389,0.01,0.061
0.78,-4.469e-4,-0.089,-8.938,0.091,9.076,-7.88e-5,0,7.88e-5,180,0.016,1.576,22.175,120.893,9.788,81.285,0,0,0,2.799e4,1.349e4,19.96,0.106,NaN,2019.83,NaN,0.012,7.816e5,15.77,0.001,0.692,0.006,0.357,0.215,0.12,NaN,NaN,NaN,NaN,NaN,NaN,NaN,NaN,1.229e-5,165,213.825,80,0,4,15,1013.25,340.389,0.01,0.067
0.79,-4.449e-4,-0.089,-8.897,0.09,9.034,-7.844e-5,0,7.844e-5,180,0.016,1.569,22.175,120.893,9.788,81.279,0,0,0,2.799e4,1.349e4,19.96,0.106,NaN,2019.823,NaN,0.012,7.816e5,16.927,0.001,0.692,0.006,0.357,0.215,0.12,NaN,NaN,NaN,NaN,NaN,NaN,NaN,NaN,1.223e-5,165,213.825,80,0,4,15,1013.25,340.389,0.01,0.068
0.8,-4.428e-4,-0.089,-8.855,0.09,8.992,-7.807e-5,0,7.807e-5,180,0.016,1.561,22.175,120.893,9.788,81.273,0,0,0,2.799e4,1.349e4,19.96,0.106,NaN,2019.816,NaN,0.012,7.816e5,18.121,0.001,0.692,0.006,0.357,0.215,0.12,NaN,NaN,NaN,NaN,NaN,NaN,NaN,NaN,1.217e-5,165,213.825,80,0,4,15,1013.25,340.389,0.01,0.068
0.81,-4.404e-4,-0.088,-8.809,0.089,8.945,-7.766e-5,0,7.766e-5,180,0.016,1.553,22.175,120.893,9.788,81.266,0,0,0,2.799e4,1.349e4,19.96,0.106,NaN,2019.809,NaN,0.012,7.816e5,19.438,0.001,0.692,0.006,0.357,0.215,0.12,NaN,NaN,NaN,NaN,NaN,NaN,NaN,NaN,1.211e-5,165,213.825,80,0,4,15,1013.25,340.389,0.01,0.069
0.82,-4.392e-4,-0.088,-8.783,0.089,8.919,-7.744e-5,0,7.744e-5,180,0.015,1.549,22.175,120.893,9.788,81.263,0,0,0,2.799e4,1.349e4,19.959,0.106,NaN,2019.801,NaN,0.012,7.816e5,20.155,0.001,0.692,0.006,0.357,0.215,0.12,NaN,NaN,NaN,NaN,NaN,NaN,NaN,NaN,1.208e-5,165,213.825,80,0,4,15,1013.25,340.389,0.01,0.069
0.83,-4.343e-4,-0.087,-8.687,0.088,8.821,-7.659e-5,0,7.659e-5,180,0.015,1.532,22.175,120.893,9.788,81.249,0,0,0,2.799e4,1.349e4,19.959,0.106,NaN,2019.793,NaN,0.012,7.816e5,22.899,0.001,0.692,0.006,0.357,0.215,0.12,NaN,NaN,NaN,NaN,NaN,NaN,NaN,NaN,1.194e-5,165,213.825,80,0,4,15,1013.25,340.389,0.01,0.07
0.84,-4.256e-4,-0.085,-8.511,0.086,8.643,-7.504e-5,0,7.504e-5,180,0.015,1.501,22.175,120.893,9.788,81.224,0,0,0,2.799e4,1.349e4,19.959,0.106,NaN,2019.782,NaN,0.012,7.817e5,27.886,0.001,0.692,0.006,0.357,0.215,0.12,NaN,NaN,NaN,NaN,NaN,NaN,NaN,NaN,1.17e-5,165,213.825,80,0,4,15,1013.25,340.389,0.01,0.07
0.85,-4.183e-4,-0.084,-8.365,0.085,8.494,-7.375e-5,0,7.375e-5,180,0.015,1.475,22.175,120.893,9.788,81.203,0,0,0,2.799e4,1.349e4,19.959,0.106,NaN,2019.77,NaN,0.012,7.817e5,32.036,0.001,0.692,0.006,0.357,0.215,0.12,NaN,NaN,NaN,NaN,NaN,NaN,NaN,NaN,1.15e-5,165,213.825,80,0,4,15,1013.25,340.389,0.01,0.071
0.86,-4.106e-4,-0.082,-8.212,0.083,8.339,-7.24e-5,0,7.24e-5,180,0.014,1.448,22.175,120.893,9.788,81.18,0,0,0,2.799e4,1.349e4,19.959,0.106,NaN,2019.756,NaN,0.012,7.818e5,36.392,0.001,0.692,0.006,0.357,0.215,0.12,NaN,NaN,NaN,NaN,NaN,NaN,NaN,NaN,1.129e-5,165,213.825,80,0,4,15,1013.25,340.389,0.01,0.071
0.87,-4.032e-4,-0.081,-8.065,0.082,8.189,-7.11e-5,0,7.11e-5,180,0.014,1.422,22.175,120.893,9.788,81.159,0,0,0,2.799e4,1.349e4,19.958,0.106,NaN,2019.74,NaN,0.012,7.818e5,40.581,0.001,0.692,0.006,0.357,0.215,0.12,NaN,NaN,NaN,NaN,NaN,NaN,NaN,NaN,1.109e-5,165,213.825,80,0,4,15,1013.25,340.389,0.01,0.071
0.88,-3.96e-4,-0.079,-7.92,0.08,8.043,-6.983e-5,0,6.983e-5,180,0.014,1.397,22.175,120.893,9.788,81.138,0,0,0,2.799e4,1.349e4,19.958,0.106,NaN,2019.723,NaN,0.012,7.819e5,44.682,0.001,0.692,0.006,0.357,0.215,0.12,NaN,NaN,NaN,NaN,NaN,NaN,NaN,NaN,1.089e-5,165,213.825,80,0,4,15,1013.25,340.389,0.01,0.072
0.89,-3.897e-4,-0.078,-7.793,0.079,7.913,-6.871e-5,0,6.871e-5,180,0.014,1.374,22.175,120.893,9.788,81.12,0,0,0,2.799e4,1.349e4,19.958,0.106,NaN,2019.705,NaN,0.012,7.819e5,48.294,0.001,0.692,0.006,0.357,0.215,0.12,NaN,NaN,NaN,NaN,NaN,NaN,NaN,NaN,1.071e-5,165,213.825,80,0,4,15,1013.25,340.389,0.01,0.073
0.9,-3.836e-4,-0.077,-7.671,0.078,7.79,-6.763e-5,0,6.763e-5,180,0.014,1.353,22.175,120.893,9.788,81.102,0,0,0,2.799e4,1.349e4,19.957,0.106,NaN,2019.685,NaN,0.012,7.82e5,51.752,0.001,0.692,0.006,0.357,0.215,0.12,NaN,NaN,NaN,NaN,NaN,NaN,NaN,NaN,1.055e-5,165,213.825,80,0,4,15,1013.25,340.389,0.01,0.073
0.91,-3.755e-4,-0.075,-7.511,0.076,7.627,-6.622e-5,0,6.622e-5,180,0.013,1.324,22.175,120.893,9.788,81.079,0,0,0,2.798e4,1.348e4,19.957,0.106,NaN,2019.664,NaN,0.012,7.82e5,56.319,0.001,0.692,0.006,0.357,0.215,0.12,NaN,NaN,NaN,NaN,NaN,NaN,NaN,NaN,1.033e-5,165,213.825,80,0,4,15,1013.25,340.389,0.01,0.073
0.92,-3.677e-4,-0.074,-7.355,0.075,7.468,-6.484e-5,0,6.484e-5,180,0.013,1.297,22.175,120.893,9.788,81.057,0,0,0,2.798e4,1.348e4,19.957,0.106,NaN,2019.641,NaN,0.012,7.821e5,60.748,0.001,0.692,0.006,0.357,0.215,0.12,NaN,NaN,NaN,NaN,NaN,NaN,NaN,NaN,1.011e-5,165,213.825,80,0,4,15,1013.25,340.389,0.01,0.074
0.93,-3.561e-4,-0.071,-7.121,0.072,7.231,-6.278e-5,0,6.278e-5,180,0.013,1.256,22.175,120.893,9.788,81.023,0,0,0,2.798e4,1.348e4,19.956,0.106,NaN,2019.615,NaN,0.012,7.821e5,67.387,0.001,0.692,0.006,0.357,0.215,0.12,NaN,NaN,NaN,NaN,NaN,NaN,NaN,NaN,9.79e-6,165,213.825,80,0,4,15,1013.25,340.389,0.01,0.074
0.94,-3.418e-4,-0.068,-6.837,0.069,6.942,-6.028e-5,0,6.028e-5,180,0.012,1.206,22.175,120.893,9.788,80.982,0,0,0,2.798e4,1.348e4,19.956,0.106,NaN,2019.586,NaN,0.012,7.822e5,75.455,0.001,0.692,0.006,0.357,0.215,0.12,NaN,NaN,NaN,NaN,NaN,NaN,NaN,NaN,9.4e-6,165,213.825,80,0,4,15,1013.25,340.389,0.01,0.075
0.95,-3.257e-4,-0.065,-6.515,0.066,6.615,-5.744e-5,0,5.744e-5,180,0.011,1.149,22.175,120.893,9.788,80.936,0,0,0,2.798e4,1.348e4,19.955,0.106,NaN,2019.554,NaN,0.012,7.823e5,84.603,0.001,0.692,0.006,0.357,0.215,0.12,NaN,NaN,NaN,NaN,NaN,NaN,NaN,NaN,8.957e-6,165,213.825,80,0,4,15,1013.25,340.389,0.01,0.075
0.96,-3.058e-4,-0.061,-6.116,0.062,6.21,-5.392e-5,0,5.392e-5,180,0.011,1.078,22.175,120.893,9.788,80.878,0,0,0,2.798e4,1.348e4,19.954,0.106,NaN,2019.517,NaN,0.012,7.824e5,95.934,0.001,0.692,0.006,0.357,0.215,0.12,NaN,NaN,NaN,NaN,NaN,NaN,NaN,NaN,8.408e-6,165,213.825,80,0,4,15,1013.25,340.389,0.01,0.075
0.97,-2.857e-4,-0.057,-5.714,0.058,5.803,-5.038e-5,0,5.038e-5,180,0.01,1.008,22.175,120.893,9.788,80.821,0,0,0,2.798e4,1.348e4,19.954,0.106,NaN,2019.476,NaN,0.012,7.826e5,107.326,0.001,0.692,0.006,0.357,0.215,0.12,NaN,NaN,NaN,NaN,NaN,NaN,NaN,NaN,7.857e-6,165,213.825,80,0,4,15,1013.25,340.389,0.01,0.076
0.98,-2.598e-4,-0.052,-5.196,0.053,5.277,-4.582e-5,0,4.582e-5,180,0.009,0.916,22.175,120.893,9.788,80.746,0,0,0,2.797e4,1.347e4,19.953,0.106,NaN,2019.43,NaN,0.012,7.827e5,122.033,0.001,0.692,0.007,0.357,0.215,0.12,NaN,NaN,NaN,NaN,NaN,NaN,NaN,NaN,7.144e-6,165,213.825,80,0,4,15,1013.25,340.389,0.01,0.076
0.99,-2.264e-4,-0.045,-4.527,0.046,4.597,-3.992e-5,0,3.992e-5,180,0.008,0.798,22.175,120.893,9.788,80.65,0,0,0,2.797e4,1.347e4,19.952,0.106,NaN,2019.376,NaN,0.012,7.83e5,141.022,0.001,0.692,0.007,0.357,0.215,0.12,NaN,NaN,NaN,NaN,NaN,NaN,NaN,NaN,6.225e-6,165,213.825,80,0,4,15,1013.25,340.389,0.01,0.076
1,-1.775e-4,-0.035,-3.549,0.036,3.604,-3.129e-5,0,3.129e-5,180,0.006,0.626,22.175,120.893,9.788,80.509,0,0,0,2.797e4,1.347e4,19.951,0.106,NaN,2019.312,NaN,0.012,7.833e5,168.795,0.001,0.692,0.007,0.357,0.215,0.12,NaN,NaN,NaN,NaN,NaN,NaN,NaN,NaN,4.88e-6,165,213.825,80,0,4,15,1013.25,340.389,0.01,0.077
1.01,-1.08e-4,-0.022,-2.16,0.022,2.193,-1.905e-5,0,1.905e-5,180,0.004,0.381,22.175,120.893,9.788,80.31,0,0,0,2.796e4,1.346e4,19.949,0.106,NaN,2019.232,NaN,0.012,7.837e5,208.221,0.002,0.692,0.008,0.357,0.215,0.12,NaN,NaN,NaN,NaN,NaN,NaN,NaN,NaN,2.97e-6,165,213.825,80,0,4,15,1013.25,340.389,0.01,0.077
1.02,-4.34e-5,-0.009,-0.867,0.009,0.88,-7.652e-6,0,7.652e-6,180,0.002,0.153,22.175,120.893,9.788,80.124,0,0,0,2.796e4,1.346e4,19.948,0.106,NaN,2019.139,NaN,0.012,7.842e5,244.886,0.002,0.692,0.008,0.357,0.215,0.12,NaN,NaN,NaN,NaN,NaN,NaN,NaN,NaN,1.193e-6,165,213.825,80,0,4,15,1013.25,340.389,0.01,0.078
1.03,2.651e-5,0.005,0.531,0.005,0.54,4.675e-6,0,4.675e-6,0,9.354e-4,0.094,22.175,120.893,9.788,79.924,0,0,0,2.795e4,1.345e4,19.946,0.106,NaN,2019.03,NaN,0.012,7.847e5,284.538,0.002,0.692,0.008,0.357,0.215,0.12,NaN,NaN,NaN,NaN,NaN,NaN,NaN,NaN,7.294e-7,165,213.825,80,0,4,15,1013.25,340.389,0.01,0.08
1.04,1.812e-4,0.026,2.035,0.026,2.066,3.195e-5,0,3.195e-5,0,0.005,0.359,22.175,120.893,9.788,79.633,0,0,0,2.795e4,1.345e4,19.943,0.106,NaN,2018.905,NaN,0.012,7.854e5,327.142,0.002,0.692,0.009,0.357,0.215,0.12,NaN,NaN,NaN,NaN,NaN,NaN,NaN,NaN,3.525e-6,165,213.825,80,0,4,15,1013.25,340.389,0.01,0.08
1.05,6.197e-4,0.062,3.643,0.063,3.699,1.093e-4,0,1.093e-4,0,0.011,0.642,22.175,120.893,9.788,79.114,0,0,0,2.794e4,1.344e4,19.941,0.106,NaN,2018.763,NaN,0.012,7.867e5,372.693,0.002,0.692,0.011,0.357,0.215,0.12,NaN,NaN,NaN,NaN,NaN,NaN,NaN,NaN,8.531e-6,165,213.825,80,0,4,15,1013.25,340.389,0.01,0.081
1.06,0.002,0.118,5.603,0.12,5.689,2.681e-4,0,2.681e-4,0,0.021,0.988,22.175,120.893,9.788,78.318,0,0,0,2.793e4,1.343e4,19.938,0.106,NaN,2018.599,NaN,0.012,7.889e5,428.171,0.003,0.692,0.013,0.357,0.215,0.12,NaN,NaN,NaN,NaN,NaN,NaN,NaN,NaN,1.623e-5,165,213.825,80,0,4,15,1013.25,340.389,0.01,0.082
1.07,0.003,0.193,7.537,0.196,7.653,5.426e-4,0,5.426e-4,0,0.034,1.329,22.175,120.893,9.788,77.255,0,0,0,2.792e4,1.342e4,19.935,0.106,NaN,2018.415,NaN,0.012,7.921e5,482.882,0.004,0.692,0.017,0.356,0.215,0.12,NaN,NaN,NaN,NaN,NaN,NaN,NaN,NaN,2.659e-5,165,213.825,80,0,4,15,1013.25,340.389,0.01,0.083
1.08,0.005,0.291,9.756,0.295,9.906,9.696e-4,0,9.696e-4,0,0.051,1.72,22.175,120.893,9.788,75.893,0,0,0,2.791e4,1.341e4,19.931,0.106,NaN,2018.206,NaN,0.012,7.966e5,545.617,0.005,0.691,0.022,0.356,0.215,0.12,NaN,NaN,NaN,NaN,NaN,NaN,NaN,NaN,4e-5,165,213.825,80,0,4,15,1013.249,340.389,0.01,0.083
1.09,0.009,0.414,12.278,0.42,12.467,0.002,0,0.002,0,0.073,2.165,22.175,120.893,9.788,74.201,0,0,0,2.79e4,1.34e4,19.927,0.106,NaN,2017.969,NaN,0.012,8.029e5,616.859,0.007,0.691,0.03,0.355,0.215,0.12,NaN,NaN,NaN,NaN,NaN,NaN,NaN,NaN,5.687e-5,165,213.825,80,0,4,15,1013.249,340.389,0.01,0.083
1.1,0.014,0.565,15.164,0.574,15.398,0.002,0,0.002,0,0.1,2.674,22.175,120.893,9.788,72.15,0,0,0,2.789e4,1.339e4,19.922,0.106,NaN,2017.702,NaN,0.012,8.116e5,698.307,0.01,0.69,0.043,0.355,0.215,0.12,NaN,NaN,NaN,NaN,NaN,NaN,NaN,NaN,7.771e-5,165,213.825,80,0,4,15,1013.248,340.389,0.01,0.084
1.11,0.02,0.747,18.204,0.759,18.485,0.004,0,0.004,0,0.132,3.21,22.175,120.893,9.788,69.749,0,0,0,2.788e4,1.338e4,19.917,0.106,NaN,2017.401,NaN,0.012,8.234e5,784.022,0.014,0.689,0.061,0.354,0.215,0.12,NaN,NaN,NaN,NaN,NaN,NaN,NaN,NaN,1.027e-4,165,213.825,80,0,4,15,1013.248,340.389,0.01,0.084
1.12,0.029,0.96,21.324,0.975,21.653,0.005,0,0.005,0,0.169,3.76,22.175,120.893,9.788,67.029,0,0,0,2.786e4,1.336e4,19.911,0.106,NaN,2017.066,NaN,0.013,8.391e5,871.849,0.02,0.687,0.085,0.352,0.215,0.12,NaN,NaN,NaN,NaN,NaN,NaN,NaN,NaN,1.32e-4,165,213.825,80,0,4,15,1013.247,340.389,0.01,0.085
1.13,0.04,1.205,24.498,1.224,24.876,0.007,0,0.007,0,0.213,4.32,22.175,120.893,9.788,64.034,0,0,0,2.784e4,1.334e4,19.904,0.106,NaN,2016.696,NaN,0.013,8.593e5,961.049,0.03,0.686,0.118,0.351,0.215,0.12,NaN,NaN,NaN,NaN,NaN,NaN,NaN,NaN,1.657e-4,165,213.825,80,0,4,15,1013.245,340.389,0.01,0.085
1.14,0.053,1.479,27.389,1.502,27.811,0.009,0,0.009,0,0.261,4.829,22.175,120.893,9.788,60.857,0,0,0,2.782e4,1.332e4,19.897,0.106,NaN,2016.295,NaN,0.013,8.845e5,1042.073,0.042,0.684,0.158,0.349,0.215,0.12,NaN,NaN,NaN,NaN,NaN,NaN,NaN,NaN,2.033e-4,165,213.825,80,0,4,15,1013.244,340.389,0.01,0.086
1.15,0.07,1.778,29.893,1.805,30.354,0.012,0,0.012,0,0.313,5.271,22.175,120.893,9.788,57.601,0,0,0,2.78e4,1.33e4,19.889,0.106,NaN,2015.866,NaN,0.014,9.15e5,1112.029,0.059,0.681,0.207,0.346,0.215,0.12,NaN,NaN,NaN,NaN,NaN,NaN,NaN,NaN,2.444e-4,165,213.825,80,0,4,15,1013.242,340.389,0.01,0.087
1.16,0.089,2.098,32.067,2.131,32.562,0.016,0,0.016,0,0.37,5.654,22.175,120.893,9.788,54.351,0,0,0,2.778e4,1.328e4,19.881,0.106,NaN,2015.413,NaN,0.014,9.507e5,1172.553,0.08,0.679,0.26,0.344,0.215,0.12,NaN,NaN,NaN,NaN,NaN,NaN,NaN,NaN,2.885e-4,165,213.825,80,0,4,14.999,1013.24,340.389,0.01,0.087
1.17,0.112,2.436,33.789,2.474,34.311,0.02,0,0.02,0,0.43,5.958,22.175,120.893,9.788,51.191,0,0,0,2.776e4,1.326e4,19.873,0.105,NaN,2014.941,NaN,0.015,9.914e5,1220.187,0.106,0.676,0.317,0.341,0.215,0.12,NaN,NaN,NaN,NaN,NaN,NaN,NaN,NaN,3.349e-4,165,213.825,80,0,4,14.999,1013.237,340.388,0.01,0.088
1.18,0.138,2.786,35.053,2.829,35.594,0.024,0,0.024,0,0.491,6.181,22.175,120.893,9.788,48.185,0,0,0,2.774e4,1.324e4,19.864,0.105,NaN,2014.455,NaN,0.016,1.037e6,1254.818,0.137,0.673,0.375,0.338,0.215,0.12,NaN,NaN,NaN,NaN,NaN,NaN,NaN,NaN,3.831e-4,165,213.825,80,0,4,14.999,1013.234,340.388,0.01,0.088
1.19,0.167,3.145,35.847,3.193,36.4,0.03,0,0.03,0,0.554,6.321,22.175,120.893,9.788,45.377,0,0,0,2.771e4,1.321e4,19.855,0.105,NaN,2013.959,NaN,0.016,1.085e6,1276.135,0.173,0.67,0.431,0.335,0.215,0.12,NaN,NaN,NaN,NaN,NaN,NaN,NaN,NaN,4.323e-4,165,213.825,80,0,4,14.999,1013.23,340.388,0.01,0.089
1.2,0.201,3.508,36.394,3.563,36.955,0.035,0,0.035,0,0.619,6.417,22.175,120.893,9.788,42.779,0,0,0,2.769e4,1.319e4,19.846,0.105,NaN,2013.458,NaN,0.017,1.137e6,1290.479,0.213,0.667,0.483,0.332,0.215,0.12,NaN,NaN,NaN,NaN,NaN,NaN,NaN,NaN,4.823e-4,165,213.825,80,0,4,14.999,1013.226,340.388,0.01,0.09
1.21,0.238,3.875,36.697,3.935,37.263,0.042,0,0.042,0,0.683,6.471,22.175,120.893,9.788,40.394,0,0,0,2.767e4,1.317e4,19.837,0.105,NaN,2012.952,NaN,0.018,1.192e6,1297.933,0.257,0.664,0.531,0.329,0.215,0.12,NaN,NaN,NaN,NaN,NaN,NaN,NaN,NaN,5.328e-4,165,213.825,80,0,4,14.998,1013.222,340.388,0.01,0.09
1.22,0.278,4.243,36.755,4.308,37.322,0.049,0,0.049,0,0.748,6.481,22.175,120.893,9.788,38.218,0,0,0,2.764e4,1.314e4,19.828,0.105,NaN,2012.446,NaN,0.019,1.249e6,1298.512,0.305,0.661,0.574,0.326,0.215,0.12,NaN,NaN,NaN,NaN,NaN,NaN,NaN,NaN,5.833e-4,165,213.825,80,0,4,14.998,1013.217,340.388,0.01,0.09
1.23,0.322,4.61,36.797,4.681,37.365,0.057,0,0.057,0,0.813,6.488,22.175,120.893,9.788,36.232,0,0,0,2.762e4,1.312e4,19.819,0.105,NaN,2011.938,NaN,0.02,1.307e6,1298.633,0.356,0.658,0.612,0.323,0.215,0.12,NaN,NaN,NaN,NaN,NaN,NaN,NaN,NaN,6.338e-4,165,213.825,80,0,4,14.998,1013.212,340.388,0.01,0.091
1.24,0.37,4.977,36.704,5.054,37.27,0.065,0,0.065,0,0.878,6.472,22.175,120.893,9.788,34.421,0,0,0,2.76e4,1.31e4,19.81,0.105,NaN,2011.431,NaN,0.02,1.367e6,1294.965,0.41,0.655,0.645,0.32,0.215,0.12,NaN,NaN,NaN,NaN,NaN,NaN,NaN,NaN,6.843e-4,165,213.825,80,0,4,14.998,1013.207,340.387,0.01,0.091
1.25,0.422,5.343,36.619,5.426,37.183,0.074,0,0.074,0,0.942,6.457,22.175,120.893,9.788,32.767,0,0,0,2.757e4,1.307e4,19.801,0.105,NaN,2010.925,NaN,0.021,1.427e6,1291.53,0.467,0.653,0.674,0.317,0.215,0.12,NaN,NaN,NaN,NaN,NaN,NaN,NaN,NaN,7.346e-4,165,213.825,80,0,4,14.997,1013.201,340.387,0.01,0.092
1.26,0.477,5.708,36.531,5.796,37.095,0.084,0,0.084,0,1.007,6.441,22.175,120.893,9.788,31.253,0,0,0,2.755e4,1.305e4,19.792,0.105,NaN,2010.419,NaN,0.022,1.489e6,1288.052,0.527,0.65,0.698,0.315,0.215,0.12,NaN,NaN,NaN,NaN,NaN,NaN,NaN,NaN,7.848e-4,165,213.825,80,0,4,14.997,1013.194,340.387,0.01,0.092
1.27,0.536,6.072,36.42,6.166,36.982,0.095,0,0.095,0,1.071,6.422,22.175,120.893,9.788,29.864,0,0,0,2.753e4,1.303e4,19.783,0.105,NaN,2009.914,NaN,0.023,1.551e6,1283.912,0.59,0.648,0.719,0.312,0.215,0.12,NaN,NaN,NaN,NaN,NaN,NaN,NaN,NaN,8.348e-4,165,213.825,80,0,4,14.997,1013.187,340.387,0.01,0.093
1.28,0.599,6.436,36.387,6.535,36.948,0.106,0,0.106,0,1.135,6.416,22.175,120.893,9.788,28.584,0,0,0,2.75e4,1.3e4,19.774,0.105,NaN,2009.409,NaN,0.024,1.615e6,1281.967,0.654,0.645,0.737,0.31,0.215,0.12,NaN,NaN,NaN,NaN,NaN,NaN,NaN,NaN,8.848e-4,165,213.825,80,0,4,14.996,1013.18,340.387,0.01,0.093
1.29,0.665,6.799,36.304,6.904,36.864,0.117,0,0.117,0,1.199,6.401,22.175,120.893,9.788,27.404,0,0,0,2.748e4,1.298e4,19.765,0.105,NaN,2008.904,NaN,0.025,1.678e6,1278.651,0.722,0.643,0.752,0.308,0.215,0.12,NaN,NaN,NaN,NaN,NaN,NaN,NaN,NaN,9.347e-4,165,213.825,80,0,4,14.996,1013.172,340.386,0.01,0.094
1.3,0.735,7.161,36.263,7.272,36.822,0.13,0,0.13,0,1.263,6.394,22.175,120.893,9.788,26.311,0,0,0,2.746e4,1.296e4,19.756,0.105,NaN,2008.399,NaN,0.026,1.743e6,1276.485,0.791,0.641,0.765,0.306,0.215,0.12,NaN,NaN,NaN,NaN,NaN,NaN,NaN,NaN,9.846e-4,165,213.825,80,0,4,14.995,1013.164,340.386,0.01,0.094
1.31,0.808,7.524,36.257,7.64,36.816,0.142,0,0.142,0,1.327,6.393,22.175,120.893,9.788,25.298,0,0,0,2.743e4,1.293e4,19.747,0.105,NaN,2007.894,NaN,0.027,1.808e6,1275.318,0.863,0.639,0.775,0.303,0.215,0.12,NaN,NaN,NaN,NaN,NaN,NaN,NaN,NaN,0.001,165,213.825,80,0,4,14.995,1013.155,340.386,0.01,0.094
1.32,0.885,7.886,36.229,8.007,36.788,0.156,0,0.156,0,1.39,6.388,22.175,120.893,9.788,24.355,0,0,0,2.741e4,1.291e4,19.738,0.105,NaN,2007.388,NaN,0.028,1.873e6,1273.528,0.937,0.637,0.784,0.301,0.215,0.12,NaN,NaN,NaN,NaN,NaN,NaN,NaN,NaN,0.001,165,213.825,80,0,4,14.994,1013.146,340.385,0.01,0.095
1.33,0.966,8.248,36.278,8.376,36.837,0.17,0,0.17,0,1.454,6.397,22.175,120.893,9.788,23.475,0,0,0,2.739e4,1.289e4,19.729,0.105,NaN,2006.882,NaN,0.029,1.939e6,1273.891,1.013,0.635,0.791,0.299,0.215,0.12,NaN,NaN,NaN,NaN,NaN,NaN,NaN,NaN,0.001,165,213.825,80,0,4,14.994,1013.137,340.385,0.01,0.095
1.34,1.05,8.611,36.255,8.744,36.814,0.185,0,0.185,0,1.518,6.393,22.175,120.893,9.788,22.654,0,0,0,2.736e4,1.286e4,19.72,0.105,NaN,2006.376,NaN,0.03,2.006e6,1272.247,1.09,0.633,0.796,0.298,0.215,0.12,NaN,NaN,NaN,NaN,NaN,NaN,NaN,NaN,0.001,165,213.825,80,0,4,14.993,1013.127,340.385,0.01,0.096
1.35,1.138,8.973,36.264,9.112,36.823,0.201,0,0.201,0,1.582,6.394,22.175,120.893,9.788,21.886,0,0,0,2.734e4,1.284e4,19.711,0.105,NaN,2005.868,NaN,0.031,2.072e6,1271.517,1.17,0.631,0.8,0.296,0.215,0.12,NaN,NaN,NaN,NaN,NaN,NaN,NaN,NaN,0.001,165,213.825,80,0,4,14.993,1013.117,340.384,0.01,0.096
1.36,1.23,9.336,36.301,9.48,36.861,0.217,0,0.217,0,1.646,6.401,22.175,120.893,9.788,21.164,0,0,0,2.732e4,1.282e4,19.702,0.105,NaN,2005.361,NaN,0.032,2.14e6,1271.539,1.252,0.629,0.803,0.294,0.215,0.12,NaN,NaN,NaN,NaN,NaN,NaN,NaN,NaN,0.001,165,213.825,80,0,4,14.992,1013.106,340.384,0.01,0.097
1.37,1.325,9.699,36.316,9.849,36.876,0.234,0,0.234,0,1.71,6.404,22.175,120.893,9.788,20.487,0,0,0,2.729e4,1.279e4,19.693,0.105,NaN,2004.852,NaN,0.033,2.207e6,1270.983,1.336,0.628,0.806,0.292,0.215,0.12,NaN,NaN,NaN,NaN,NaN,NaN,NaN,NaN,0.001,165,213.825,80,0,4,14.991,1013.095,340.384,0.01,0.097
1.38,1.424,10.063,36.431,10.218,36.993,0.251,0,0.251,0,1.774,6.424,22.175,120.893,9.788,19.848,0,0,0,2.727e4,1.277e4,19.684,0.105,NaN,2004.342,NaN,0.034,2.275e6,1273.167,1.422,0.626,0.807,0.291,0.215,0.12,NaN,NaN,NaN,NaN,NaN,NaN,NaN,NaN,0.001,165,213.825,80,0,4,14.991,1013.083,340.383,0.01,0.098
1.39,1.526,10.428,36.471,10.589,37.033,0.269,0,0.269,0,1.839,6.431,22.175,120.893,9.788,19.245,0,0,0,2.725e4,1.275e4,19.675,0.105,NaN,2003.83,NaN,0.035,2.344e6,1273.278,1.51,0.625,0.807,0.289,0.215,0.12,NaN,NaN,NaN,NaN,NaN,NaN,NaN,NaN,0.001,165,213.825,80,0,4,14.99,1013.071,340.383,0.01,0.098
1.4,1.632,10.793,36.557,10.96,37.121,0.288,0,0.288,0,1.903,6.446,22.175,120.893,9.788,18.676,0,0,0,2.723e4,1.273e4,19.666,0.105,NaN,2003.318,NaN,0.036,2.412e6,1274.663,1.601,0.623,0.808,0.288,0.215,0.12,NaN,NaN,NaN,NaN,NaN,NaN,NaN,NaN,0.001,165,213.825,80,0,4,14.989,1013.059,340.382,0.01,0.099
1.41,1.742,11.16,36.662,11.332,37.228,0.307,0,0.307,0,1.968,6.465,22.175,120.893,9.788,18.136,0,0,0,2.72e4,1.27e4,19.657,0.105,NaN,2002.803,NaN,0.037,2.482e6,1276.588,1.697,0.623,0.809,0.288,0.215,0.12,NaN,NaN,NaN,NaN,NaN,NaN,NaN,NaN,0.002,165,213.825,80,0,4,14.989,1013.046,340.382,0.01,0.099
1.42,1.855,11.527,36.729,11.704,37.296,0.327,0,0.327,0,2.032,6.476,22.175,120.893,9.788,17.625,0,0,0,2.718e4,1.268e4,19.648,0.105,NaN,2002.288,NaN,0.038,2.551e6,1277.444,1.795,0.623,0.81,0.288,0.215,0.12,NaN,NaN,NaN,NaN,NaN,NaN,NaN,NaN,0.002,165,213.825,80,0,4,14.988,1013.032,340.382,0.01,0.099
1.43,1.972,11.895,36.863,12.079,37.431,0.348,0,0.348,0,2.097,6.5,22.175,120.893,9.788,17.14,0,0,0,2.716e4,1.266e4,19.639,0.105,NaN,2001.77,NaN,0.039,2.621e6,1280.14,1.896,0.623,0.81,0.288,0.215,0.12,NaN,NaN,NaN,NaN,NaN,NaN,NaN,NaN,0.002,165,213.825,80,0,4,14.987,1013.019,340.381,0.01,0.099
1.44,2.093,12.264,36.918,12.453,37.488,0.369,0,0.369,0,2.162,6.51,22.175,120.893,9.788,16.679,0,0,0,2.713e4,1.263e4,19.629,0.105,NaN,2001.252,NaN,0.04,2.691e6,1280.681,1.998,0.623,0.81,0.288,0.215,0.12,NaN,NaN,NaN,NaN,NaN,NaN,NaN,NaN,0.002,165,213.825,80,0,4,14.986,1013.005,340.381,0.01,0.1
1.45,2.218,12.634,37.026,12.829,37.597,0.391,0,0.391,0,2.228,6.529,22.175,120.893,9.788,16.24,0,0,0,2.711e4,1.261e4,19.62,0.105,NaN,2000.731,NaN,0.041,2.762e6,1282.653,2.102,0.623,0.809,0.288,0.215,0.12,NaN,NaN,NaN,NaN,NaN,NaN,NaN,NaN,0.002,165,213.825,80,0,4,14.986,1012.99,340.38,0.01,0.1
1.46,2.346,13.005,37.143,13.206,37.716,0.414,0,0.414,0,2.293,6.549,22.175,120.893,9.788,15.822,0,0,0,2.709e4,1.259e4,19.611,0.104,NaN,2000.209,NaN,0.042,2.833e6,1284.861,2.208,0.623,0.808,0.288,0.215,0.12,NaN,NaN,NaN,NaN,NaN,NaN,NaN,NaN,0.002,165,213.825,80,0,4,14.985,1012.975,340.38,0.01,0.1
1.47,2.478,13.377,37.195,13.584,37.769,0.437,0,0.437,0,2.359,6.558,22.175,120.893,9.788,15.424,0,0,0,2.706e4,1.256e4,19.602,0.104,NaN,1999.686,NaN,0.044,2.904e6,1285.292,2.315,0.623,0.806,0.288,0.215,0.12,NaN,NaN,NaN,NaN,NaN,NaN,NaN,NaN,0.002,165,213.825,80,0,4,14.984,1012.959,340.379,0.01,0.1
1.48,2.613,13.75,37.315,13.962,37.891,0.461,0,0.461,0,2.425,6.58,22.175,120.893,9.788,15.043,0,0,0,2.704e4,1.254e4,19.592,0.104,NaN,1999.161,NaN,0.045,2.976e6,1287.587,2.423,0.623,0.803,0.288,0.215,0.12,NaN,NaN,NaN,NaN,NaN,NaN,NaN,NaN,0.002,165,213.825,80,0,4,14.983,1012.943,340.379,0.01,0.101
1.49,2.753,14.124,37.36,14.341,37.937,0.485,0,0.485,0,2.49,6.588,22.175,120.893,9.788,14.681,0,0,0,2.702e4,1.252e4,19.583,0.104,NaN,1998.635,NaN,0.046,3.048e6,1287.832,2.534,0.623,0.801,0.288,0.215,0.12,NaN,NaN,NaN,NaN,NaN,NaN,NaN,NaN,0.002,165,213.825,80,0,4,14.982,1012.927,340.378,0.01,0.101
1.5,2.896,14.498,37.43,14.721,38.007,0.511,0,0.511,0,2.556,6.6,22.175,120.893,9.788,14.334,0,0,0,2.699e4,1.249e4,19.574,0.104,NaN,1998.108,NaN,0.047,3.12e6,1288.735,2.645,0.623,0.798,0.288,0.215,0.12,NaN,NaN,NaN,NaN,NaN,NaN,NaN,NaN,0.002,165,213.825,80,0,4,14.981,1012.91,340.377,0.01,0.101
1.51,3.043,14.873,37.511,15.102,38.089,0.537,0,0.537,0,2.622,6.614,22.175,120.893,9.788,14.002,0,0,0,2.697e4,1.247e4,19.564,0.104,NaN,1997.579,NaN,0.048,3.192e6,1289.948,2.759,0.623,0.795,0.288,0.215,0.12,NaN,NaN,NaN,NaN,NaN,NaN,NaN,NaN,0.002,165,213.825,80,0,4,14.98,1012.893,340.377,0.01,0.102
1.52,3.193,15.248,37.527,15.483,38.106,0.563,0,0.563,0,2.689,6.617,22.175,120.893,9.788,13.685,0,0,0,2.695e4,1.244e4,19.555,0.104,NaN,1997.049,NaN,0.049,3.265e6,1289.376,2.874,0.623,0.792,0.288,0.215,0.12,NaN,NaN,NaN,NaN,NaN,NaN,NaN,NaN,0.002,165,213.825,80,0,4,14.979,1012.875,340.376,0.01,0.102
1.53,3.348,15.624,37.665,15.865,38.246,0.59,0,0.59,0,2.755,6.641,22.175,120.893,9.788,13.381,0,0,0,2.692e4,1.242e4,19.546,0.104,NaN,1996.518,NaN,0.05,3.337e6,1292.164,2.992,0.623,0.789,0.288,0.215,0.12,NaN,NaN,NaN,NaN,NaN,NaN,NaN,NaN,0.002,165,213.825,80,0,4,14.978,1012.857,340.376,0.01,0.107
1.54,3.506,16.001,37.735,16.248,38.317,0.618,0,0.618,0,2.821,6.654,22.175,120.893,9.788,13.089,0,0,0,2.69e4,1.24e4,19.536,0.104,NaN,1995.985,NaN,0.051,3.41e6,1293.051,3.111,0.623,0.785,0.288,0.215,0.12,NaN,NaN,NaN,NaN,NaN,NaN,NaN,NaN,0.002,165,213.825,80,0,4,14.977,1012.839,340.375,0.01,0.107
1.55,3.668,16.38,37.839,16.632,38.423,0.647,0,0.647,0,2.888,6.672,22.175,120.893,9.788,12.808,0,0,0,2.687e4,1.237e4,19.527,0.104,NaN,1995.451,NaN,0.052,3.484e6,1294.89,3.233,0.623,0.782,0.288,0.215,0.12,NaN,NaN,NaN,NaN,NaN,NaN,NaN,NaN,0.002,165,213.825,80,0,4,14.976,1012.82,340.374,0.01,0.107
1.56,3.833,16.759,37.963,17.018,38.548,0.676,0,0.676,0,2.955,6.694,22.175,120.893,9.788,12.539,0,0,0,2.685e4,1.235e4,19.517,0.104,NaN,1994.914,NaN,0.053,3.557e6,1297.251,3.356,0.624,0.779,0.288,0.215,0.12,NaN,NaN,NaN,NaN,NaN,NaN,NaN,NaN,0.002,165,213.825,80,0,4,14.975,1012.8,340.374,0.01,0.107
1.57,4.003,17.139,37.982,17.403,38.568,0.706,0,0.706,0,3.022,6.697,22.175,120.893,9.788,12.28,0,0,0,2.683e4,1.233e4,19.508,0.104,NaN,1994.377,NaN,0.054,3.631e6,1296.778,3.482,0.624,0.775,0.288,0.215,0.12,NaN,NaN,NaN,NaN,NaN,NaN,NaN,NaN,0.002,165,213.825,80,0,4,14.974,1012.781,340.373,0.01,0.108
1.585,4.264,17.707,37.91,17.983,38.711,0.752,1.894e-8,0.752,1.443e-6,3.14,7.833,22.175,120.893,9.788,11.959,0,0.038,-1.099e-6,2.679e4,1.229e4,19.493,0.104,2053.196,1993.568,0.361,0.056,3.743e6,1298.654,3.679,0.624,0.771,0.288,0.215,0.12,3.179,1.149,-5.75e-6,0,0,0,0,4.498e-6,0.002,165,213.825,80,1.061e-7,4,14.972,1012.75,340.372,0.015,0.108
1.608,4.672,18.563,38.114,18.857,38.913,0.825,1.205e-7,0.825,8.375e-6,3.316,7.847,22.175,120.893,9.788,11.508,0,0.102,-6.901e-6,2.674e4,1.224e4,19.472,0.104,2058.913,1992.348,0.403,0.059,3.912e6,1301.804,3.986,0.624,0.765,0.288,0.215,0.12,3.025,1.22,-2.443e-4,0,0,0,0,3.026e-5,0.003,165,213.825,79.998,9.413e-8,4,14.97,1012.702,340.37,0.023,0.108
1.641,5.321,19.859,38.452,20.179,39.25,0.941,4.467e-7,0.941,2.72e-5,3.582,7.875,22.175,120.893,9.788,10.89,0,0.218,-1.843e-6,2.666e4,1.216e4,19.439,0.104,2067.018,1990.501,0.464,0.062,4.167e6,1307.398,4.47,0.624,0.756,0.288,0.215,0.121,2.817,1.306,-3.186e-4,0,0,0,0,1.206e-4,0.003,165,213.825,79.993,-1.619e-6,4,14.965,1012.626,340.368,0.034,0.109
1.691,6.362,21.797,38.874,22.157,39.671,1.13,1.342e-6,1.13,6.806e-5,3.978,7.909,22.175,120.893,9.788,10.079,0,0.432,-7.847e-6,2.654e4,1.204e4,19.39,0.104,2078.114,1987.731,0.548,0.068,4.55e6,1313.533,5.241,0.624,0.743,0.288,0.216,0.121,2.552,1.398,-9.311e-5,0,0,0,0,3.969e-4,0.003,165,213.825,79.977,-1.699e-7,4,14.959,1012.504,340.364,0.05,0.109
1.741,7.501,23.765,39.451,24.164,40.25,1.339,2.776e-6,1.339,1.188e-4,4.376,7.981,22.175,120.893,9.788,9.365,0,0.699,-2.174e-5,2.642e4,1.192e4,19.34,0.104,2088.358,1984.915,0.627,0.074,4.939e6,1323.765,6.081,0.624,0.732,0.288,0.216,0.121,2.327,1.458,-4.352e-4,0,0,0,0,8.849e-4,0.003,165,213.825,79.949,6.708e-6,4,14.951,1012.37,340.359,0.05,0.11
1.791,8.739,25.763,40.074,26.203,40.88,1.568,4.799e-6,1.568,1.754e-4,4.78,8.076,22.175,120.893,9.788,8.724,0,1.025,1.791e-5,2.63e4,1.18e4,19.29,0.103,2097.958,1982.048,0.702,0.08,5.334e6,1335.184,6.995,0.624,0.721,0.288,0.216,0.121,2.13,1.494,1.732e-4,0,0,0,0,0.002,0.004,165,213.825,79.906,8.828e-6,4,14.943,1012.225,340.354,0.05,0.11
1.841,10.078,27.795,40.74,28.276,41.556,1.817,7.462e-6,1.817,2.353e-4,5.188,8.196,22.175,120.893,9.788,8.138,0,1.411,2.53e-5,2.617e4,1.167e4,19.238,0.103,2107.091,1979.127,0.776,0.086,5.737e6,1347.677,7.984,0.624,0.712,0.288,0.216,0.121,1.954,1.513,-3.306e-4,0,0,0,0,0.003,0.004,165,213.825,79.845,1.587e-5,4,14.934,1012.068,340.349,0.05,0.11
1.891,11.52,29.867,41.533,30.389,42.367,2.087,1.082e-5,2.087,2.97e-4,5.605,8.362,22.175,120.893,9.788,7.591,0,1.859,-6.961e-5,2.605e4,1.155e4,19.185,0.103,2115.928,1976.143,0.847,0.092,6.148e6,1363.475,9.056,0.625,0.703,0.288,0.216,0.121,1.795,1.517,-4.984e-4,0,0,0,0,0.004,0.004,165,213.825,79.764,1.957e-5,4,14.925,1011.899,340.344,0.05,0.111
1.941,13.066,31.971,42.18,32.535,43.034,2.378,1.491e-5,2.378,3.593e-4,6.029,8.53,22.175,120.893,9.788,7.074,0,2.374,1.593e-4,2.593e4,1.143e4,19.132,0.103,2124.573,1973.105,0.918,0.098,6.565e6,1375.364,10.209,0.625,0.695,0.288,0.216,0.121,1.648,1.507,4.365e-4,0,0,0,0,0.006,0.004,165,213.825,79.658,1.478e-5,4,14.915,1011.718,340.337,0.05,0.111
1.991,14.718,34.112,42.909,34.719,43.792,2.69,1.979e-5,2.69,4.215e-4,6.463,8.748,22.175,120.893,9.788,6.578,3.991e-7,2.953,2.206e-4,2.58e4,1.13e4,19.077,0.103,2133.165,1970.006,0.989,0.105,6.99e6,1389.417,11.447,0.625,0.687,0.288,0.216,0.121,1.51,1.486,-5.642e-6,0,0,0,0,0.008,0.005,165,213.825,79.525,1.602e-5,4,14.904,1011.524,340.331,0.05,0.111
2.041,16.478,36.301,43.878,36.953,44.802,3.024,2.551e-5,3.024,4.832e-4,6.912,9.05,22.175,120.893,9.788,6.092,-3.445e-7,3.599,6.605e-5,2.567e4,1.117e4,19.021,0.102,2141.859,1966.831,1.061,0.111,7.425e6,1409.711,12.781,0.625,0.68,0.288,0.216,0.122,1.378,1.451,-3.288e-4,0,0,0,0,0.01,0.005,165,213.825,79.362,1.546e-5,4,14.893,1011.317,340.324,0.05,0.112
2.091,18.349,38.532,44.723,39.232,45.696,3.381,3.21e-5,3.381,5.44e-4,7.375,9.376,22.175,120.893,9.788,5.612,0,4.308,1.522e-4,2.554e4,1.104e4,18.964,0.102,2150.736,1963.584,1.134,0.118,7.868e6,1426.753,14.211,0.626,0.673,0.287,0.216,0.122,1.251,1.406,3.58e-4,0,0,0,0,0.013,0.005,165,213.825,79.164,1.312e-5,4,14.881,1011.098,340.317,0.05,0.112
2.141,20.332,40.792,45.286,41.541,46.314,3.762,3.963e-5,3.762,6.036e-4,7.854,9.703,22.175,120.893,9.788,5.133,0,5.076,2.074e-4,2.541e4,1.091e4,18.906,0.102,2159.865,1960.282,1.21,0.125,8.318e6,1436.554,15.73,0.626,0.667,0.287,0.216,0.122,1.128,1.348,-3.82e-4,0,0,0,0,0.016,0.006,165,213.825,78.93,1.591e-5,4,14.868,1010.865,340.309,0.05,0.112
2.191,22.429,43.084,45.921,43.886,47.02,4.167,4.813e-5,4.167,6.618e-4,8.351,10.105,22.175,120.893,9.788,4.652,1.24e-6,5.894,5.704e-4,2.528e4,1.078e4,18.847,0.102,2169.358,1956.918,1.288,0.132,8.775e6,1448.404,17.344,0.626,0.661,0.287,0.217,0.122,1.007,1.276,-2.689e-4,0,0,0,0,0.02,0.006,165,213.825,78.656,-1.221e-6,4,14.854,1010.62,340.301,0.05,0.112
2.241,24.641,45.409,46.584,46.267,47.77,4.598,5.766e-5,4.598,7.186e-4,8.87,10.579,22.175,120.893,9.788,4.164,1.132e-6,6.752,7.773e-4,2.515e4,1.065e4,18.787,0.102,2179.307,1953.489,1.369,0.139,9.239e6,1461.178,19.059,0.626,0.655,0.287,0.217,0.123,0.887,1.191,-3.339e-4,0,0,0,0,0.024,0.006,165,213.825,78.34,-1.791e-5,4,14.84,1010.36,340.292,0.05,0.113
2.291,26.97,47.756,47.015,48.674,48.303,5.055,6.825e-5,5.055,7.737e-4,9.413,11.078,22.175,120.893,9.788,3.669,1.309e-6,7.632,9.269e-4,2.501e4,1.051e4,18.726,0.101,2189.77,1950.006,1.453,0.146,9.708e6,1468.288,20.872,0.627,0.649,0.287,0.217,0.123,0.769,1.091,3.912e-4,0,0,0,0,0.027,0.007,165,213.825,77.98,-4.84e-5,4,14.825,1010.087,340.283,0.05,0.113
2.341,29.416,50.103,47.01,51.087,48.409,5.539,7.994e-5,5.539,8.268e-4,9.978,11.556,22.175,120.893,9.788,3.165,-1.294e-6,8.514,7.178e-4,2.488e4,1.038e4,18.664,0.101,2200.779,1946.495,1.541,0.153,1.018e7,1464.702,22.771,0.627,0.644,0.287,0.217,0.123,0.653,0.975,1.825e-4,0,0,0,0,0.031,0.007,165,213.825,77.577,-5.623e-5,4,14.809,1009.8,340.273,0.05,0.113
2.391,31.98,52.448,46.961,53.502,48.494,6.053,9.276e-5,6.053,8.78e-4,10.568,12.097,22.175,120.893,9.788,2.653,3.54e-7,9.368,0.001,2.475e4,1.025e4,18.602,0.101,2212.379,1942.956,1.633,0.16,1.065e7,1460.577,24.76,0.628,0.64,0.287,0.217,0.123,0.538,0.844,-1.596e-4,0,0,0,0,0.034,0.007,165,213.825,77.129,-5.41e-5,4,14.792,1009.499,340.263,0.05,0.114
2.441,34.661,54.793,46.938,55.923,48.63,6.596,1.068e-4,6.596,9.274e-4,11.187,12.715,22.175,120.893,9.788,2.133,6.44e-7,10.161,0.001,2.461e4,1.011e4,18.539,0.101,2224.587,1939.385,1.728,0.167,1.112e7,1457.734,26.851,0.628,0.636,0.287,0.217,0.124,0.425,0.697,-2.48e-5,0,0,0,0,0.037,0.008,165,213.825,76.641,-2.621e-5,4,14.775,1009.185,340.252,0.05,0.114
2.491,37.459,57.116,46.486,58.329,48.349,7.172,1.22e-4,7.172,9.75e-4,11.834,13.295,22.175,120.893,9.788,1.611,-4.93e-7,10.855,0.001,2.448e4,9982.7,18.477,0.101,2237.348,1935.809,1.828,0.174,1.159e7,1444.705,29.033,0.628,0.633,0.287,0.218,0.124,0.315,0.537,-2.297e-4,0,0,0,0,0.039,0.008,165,213.825,76.115,4.96e-5,4,14.757,1008.857,340.241,0.05,0.115
2.541,40.372,59.428,46.27,60.732,48.338,7.78,1.387e-4,7.78,0.001,12.515,13.989,22.175,120.893,9.788,1.089,-7.392e-7,11.406,0.003,2.435e4,9851.919,18.414,0.1,2250.586,1932.21,1.93,0.181,1.206e7,1438.362,31.33,0.629,0.631,0.287,0.218,0.124,0.209,0.364,-1.152e-4,0,0,0,0,0.039,0.008,165,213.825,75.558,1.23e-4,4,14.738,1008.515,340.23,0.05,0.115
2.591,43.401,61.724,45.912,63.126,48.205,8.424,1.569e-4,8.424,0.001,13.229,14.691,22.175,120.893,9.788,0.575,-1.461e-6,11.768,0.005,2.422e4,9721.977,18.351,0.1,2264.138,1928.595,2.034,0.188,1.253e7,1429.136,33.749,0.629,0.63,0.287,0.218,0.125,0.108,0.182,4.05e-4,0,0,0,0,0.039,0.009,165,213.825,74.978,2.18e-4,4,14.718,1008.16,340.218,0.05,0.116
2.641,46.545,64.023,45.983,65.533,48.538,9.104,1.768e-4,9.104,0.001,13.985,15.542,22.175,120.893,9.788,0.078,1.415e-6,11.892,0.039,2.409e4,9591.843,18.287,0.1,2277.767,1924.936,2.138,0.195,1.3e7,1431.244,36.326,0.63,0.63,0.287,0.218,0.125,0.014,-0.006,4.635e-6,0,0,0,0,0.037,0.009,165,213.825,74.386,3.728e-4,4,14.697,1007.791,340.206,0.05,0.116
2.691,49.804,66.321,45.932,67.949,48.766,9.823,1.985e-4,9.823,0.001,14.783,16.382,22.175,120.893,9.788,0.392,1.742e-6,-11.738,0.008,2.396e4,9461.748,18.222,0.1,2269.331,1921.238,2.11,0.203,1.347e7,1430.823,39.065,0.63,0.631,0.287,0.218,0.125,0.073,0.188,-2.757e-4,0,0,0,0,-0.033,0.009,165,213.825,73.794,5.304e-4,4,14.676,1007.409,340.193,0.05,0.116
2.741,53.177,68.623,46.008,70.379,49.143,10.583,2.224e-4,10.583,0.001,15.626,17.272,22.175,120.893,9.788,0.821,-1.976e-6,-11.284,0.004,2.383e4,9331.363,18.157,0.1,2258.086,1917.492,2.064,0.21,1.394e7,1433.995,41.972,0.631,0.632,0.287,0.219,0.126,0.156,0.351,3.049e-5,0,0,0,0,-0.029,0.01,165,213.825,73.217,6.901e-4,4,14.654,1007.013,340.179,0.05,0.117
2.791,56.666,70.936,46.247,72.834,49.699,11.386,2.487e-4,11.386,0.001,16.515,18.199,22.175,120.893,9.788,1.198,3.846e-6,-10.523,0.002,2.37e4,9200.305,18.091,0.099,2248.555,1913.685,2.03,0.217,1.442e7,1441.415,45.051,0.632,0.634,0.287,0.219,0.126,0.231,0.493,6.419e-5,0,0,0,0,-0.023,0.01,165,213.825,72.671,8.623e-4,4,14.632,1006.604,340.166,0.05,0.117
2.841,60.271,73.259,46.429,75.309,50.192,12.235,2.777e-4,12.235,0.001,17.449,19.067,22.175,120.893,9.788,1.51,8.96e-7,-9.459,0.001,2.357e4,9068.707,18.023,0.099,2240.908,1909.819,2.007,0.224,1.49e7,1447.346,48.286,0.632,0.636,0.286,0.219,0.127,0.295,0.609,2.387e-4,0,0,0,0,-0.018,0.01,165,213.825,72.17,0.001,4,14.608,1006.181,340.151,0.05,0.117
2.891,63.992,75.571,46.215,77.783,50.249,13.132,3.096e-4,13.132,0.001,18.418,19.727,22.175,120.893,9.788,1.746,0,-8.106,0.002,2.344e4,8937.495,17.955,0.099,2235.276,1905.922,1.996,0.232,1.538e7,1443.113,51.631,0.633,0.638,0.286,0.219,0.127,0.344,0.698,-4.022e-4,0,0,0,0,-0.012,0.011,165,213.825,71.73,0.001,4,14.584,1005.745,340.137,0.05,0.117
2.941,67.828,77.865,45.879,80.249,50.139,14.078,3.448e-4,14.078,0.001,19.415,20.225,22.175,120.893,9.787,1.898,-6.385e-7,-6.497,0.001,2.331e4,8806.998,17.887,0.099,2231.769,1902.002,1.999,0.239,1.586e7,1435.232,55.054,0.633,0.64,0.286,0.22,0.127,0.376,0.758,-4.065e-4,0,0,0,0,-0.007,0.011,165,213.825,71.365,0.001,4,14.559,1005.295,340.122,0.05,0.118
2.991,71.778,80.165,46.007,82.729,50.461,15.074,3.837e-4,15.074,0.001,20.44,20.729,22.175,120.893,9.787,1.959,1.271e-6,-4.676,7.641e-4,2.318e4,8676.274,17.818,0.099,2230.487,1898.031,2.015,0.246,1.635e7,1437.734,58.564,0.634,0.641,0.286,0.22,0.128,0.389,0.787,1.943e-4,0,0,0,0,-0.004,0.011,165,213.825,71.085,0.001,4,14.533,1004.832,340.106,0.05,0.118
3.041,75.845,82.483,46.413,85.237,51.005,16.122,4.264e-4,16.122,0.002,21.491,21.15,22.175,120.893,9.787,1.926,-1.415e-6,-2.704,0.001,2.305e4,8544.831,17.748,0.098,2231.489,1893.993,2.045,0.254,1.683e7,1445.651,62.165,0.635,0.641,0.286,0.22,0.128,0.382,0.783,4.831e-4,0,0,0,0,-0.001,0.012,165,213.825,70.9,0.002,4,14.507,1004.355,340.09,0.05,0.118
3.091,80.027,84.816,46.751,87.764,51.394,17.223,4.733e-4,17.223,0.002,22.556,21.345,22.175,120.893,9.787,1.798,3.551e-7,-0.666,-5.833e-4,2.291e4,8412.968,17.677,0.098,2234.775,1889.896,2.09,0.261,1.732e7,1450.255,65.844,0.635,0.641,0.286,0.221,0.129,0.355,0.743,1.567e-4,0,0,0,0,-6.451e-5,0.012,165,213.825,70.817,0.002,4,14.48,1003.864,340.074,0.05,0.119
3.141,84.326,87.159,46.968,90.303,51.565,18.378,5.244e-4,18.378,0.002,23.622,21.282,22.175,120.893,9.787,1.582,0,1.338,5.633e-4,2.278e4,8281.109,17.605,0.098,2240.28,1885.751,2.149,0.269,1.782e7,1450.225,69.592,0.636,0.641,0.286,0.221,0.129,0.31,0.667,-4.154e-4,0,0,0,0,2.459e-4,0.012,165,213.825,70.834,0.002,4,14.452,1003.36,340.057,0.05,0.119
3.191,88.744,89.53,47.559,92.871,52.043,19.585,5.798e-4,19.585,0.002,24.686,21.133,22.175,120.893,9.787,1.287,5.556e-7,3.178,-8.398e-5,2.265e4,8148.585,17.532,0.098,2247.861,1881.536,2.22,0.276,1.831e7,1457.538,73.457,0.637,0.64,0.286,0.221,0.13,0.25,0.553,3.394e-4,0,0,0,0,0.001,0.013,165,213.825,70.948,0.002,4,14.423,1002.842,340.039,0.05,0.12
