# Time (s),Altitude (m),Vertical velocity (m/s),Vertical acceleration (m/s²),Total velocity (m/s),Total acceleration (m/s²),Position East of launch (m),Position North of launch (m),Lateral distance (m),Lateral direction (°),Lateral velocity (m/s),Lateral acceleration (m/s²),Latitude (°),Longitude (°),Gravitational acceleration (m/s²),Angle of attack (°),Roll rate (°/s),Pitch rate (°/s),Yaw rate (°/s),Mass (g),Motor mass (g),Longitudinal moment of inertia (kg·m²),Rotational moment of inertia (kg·m²),CP location (mm),CG location (mm),Stability margin calibers (​),Mach number (​),Reynolds number (​),Thrust (N),Drag force (N),Drag coefficient (​),Axial drag coefficient (​),Friction drag coefficient (​),Pressure drag coefficient (​),Base drag coefficient (​),Normal force coefficient (​),Pitch moment coefficient (​),Yaw moment coefficient (​),Side force coefficient (​),Roll moment coefficient (​),Roll forcing coefficient (​),Roll damping coefficient (​),Pitch damping coefficient (​),Coriolis acceleration (m/s²),Reference length (mm),Reference area (cm²),Vertical orientation (zenith) (°),Lateral orientation (azimuth) (°),Wind velocity (m/s),Air temperature (°C),Air pressure (mbar),Speed of sound (m/s),Simulation time step (s),Computation time (s)
0.01,-4.757e-4,-0.095,-9.511,0.096,9.563,-5e-5,0,5e-5,180,0.01,1,22.175,120.893,9.788,85.283,0,0,0,2.8e4,1.35e4,19.963,0.106,NaN,2019.994,NaN,0.012,8.331e5,4.784,2.17e-4,0.688,9.183e-4,0.353,0.215,0.12,NaN,NaN,NaN,NaN,NaN,NaN,NaN,NaN,1.293e-5,165,213.825,84,0,4.257,15,1013.25,340.389,0.01,0.003
0.02,-4.761e-4,-0.095,-9.522,0.096,9.575,-5.004e-5,0,5.004e-5,180,0.01,1.001,22.175,120.893,9.788,85.264,0,0,0,2.8e4,1.35e4,19.963,0.106,NaN,2019.992,NaN,0.013,8.464e5,4.461,2.263e-4,0.687,9.276e-4,0.352,0.215,0.12,NaN,NaN,NaN,NaN,NaN,NaN,NaN,NaN,1.294e-5,165,213.825,84,0,4.325,15,1013.25,340.389,0.01,0.004
0.03,-4.763e-4,-0.095,-9.526,0.096,9.579,-5.006e-5,0,5.006e-5,180,0.01,1.001,22.175,120.893,9.788,85.245,0,0,0,2.8e4,1.35e4,19.963,0.106,NaN,2019.991,NaN,0.013,8.597e5,4.343,2.359e-4,0.686,9.371e-4,0.351,0.215,0.12,NaN,NaN,NaN,NaN,NaN,NaN,NaN,NaN,1.295e-5,165,213.825,84,0,4.393,15,1013.25,340.389,0.01,0.004
0.04,-4.765e-4,-0.095,-9.53,0.096,9.582,-5.008e-5,0,5.008e-5,180,0.01,1.002,22.175,120.893,9.788,85.227,0,0,0,2.8e4,1.35e4,19.963,0.106,NaN,2019.989,NaN,0.013,8.731e5,4.249,2.457e-4,0.685,9.465e-4,0.349,0.215,0.12,NaN,NaN,NaN,NaN,NaN,NaN,NaN,NaN,1.295e-5,165,213.825,84,0,4.461,15,1013.25,340.389,0.01,0.005
0.05,-4.761e-4,-0.095,-9.523,0.096,9.575,-5.005e-5,0,5.005e-5,180,0.01,1.001,22.175,120.893,9.788,85.207,0,0,0,2.8e4,1.35e4,19.963,0.106,NaN,2019.988,NaN,0.013,8.864e5,4.443,2.558e-4,0.684,9.563e-4,0.348,0.215,0.12,NaN,NaN,NaN,NaN,NaN,NaN,NaN,NaN,1.294e-5,165,213.825,84,0,4.529,15,1013.25,340.389,0.01,0.015
0.06,-4.757e-4,-0.095,-9.514,0.096,9.567,-5e-5,0,5e-5,180,0.01,1,22.175,120.893,9.788,85.217,0,0,0,2.8e4,1.35e4,19.963,0.106,NaN,2019.986,NaN,0.013,8.787e5,4.681,2.502e-4,0.684,9.516e-4,0.349,0.215,0.12,NaN,NaN,NaN,NaN,NaN,NaN,NaN,NaN,1.293e-5,165,213.825,84,0,4.49,15,1013.25,340.389,0.01,0.016
0.07,-4.762e-4,-0.095,-9.523,0.096,9.576,-5.005e-5,0,5.005e-5,180,0.01,1.001,22.175,120.893,9.788,85.229,0,0,0,2.8e4,1.35e4,19.963,0.106,NaN,2019.984,NaN,0.013,8.71e5,4.438,2.443e-4,0.685,9.455e-4,0.35,0.215,0.12,NaN,NaN,NaN,NaN,NaN,NaN,NaN,NaN,1.294e-5,165,213.825,84,0,4.45,15,1013.25,340.389,0.01,0.016
0.08,-4.761e-4,-0.095,-9.522,0.096,9.574,-5.004e-5,0,5.004e-5,180,0.01,1.001,22.175,120.893,9.788,85.239,0,0,0,2.8e4,1.35e4,19.963,0.106,NaN,2019.982,NaN,0.013,8.634e5,4.479,2.386e-4,0.685,9.401e-4,0.35,0.215,0.12,NaN,NaN,NaN,NaN,NaN,NaN,NaN,NaN,1.294e-5,165,213.825,84,0,4.411,15,1013.25,340.389,0.01,0.016
0.09,-4.759e-4,-0.095,-9.517,0.096,9.57,-5.002e-5,0,5.002e-5,180,0.01,1,22.175,120.893,9.788,85.25,0,0,0,2.8e4,1.35e4,19.963,0.106,NaN,2019.981,NaN,0.013,8.557e5,4.603,2.331e-4,0.686,9.349e-4,0.351,0.215,0.12,NaN,NaN,NaN,NaN,NaN,NaN,NaN,NaN,1.294e-5,165,213.825,84,0,4.372,15,1013.25,340.389,0.01,0.017
0.1,-4.764e-4,-0.095,-9.527,0.096,9.58,-5.007e-5,0,5.007e-5,180,0.01,1.001,22.175,120.893,9.788,85.263,0,0,0,2.8e4,1.35e4,19.963,0.106,NaN,2019.979,NaN,0.013,8.48e5,4.315,2.273e-4,0.687,9.284e-4,0.352,0.215,0.12,NaN,NaN,NaN,NaN,NaN,NaN,NaN,NaN,1.295e-5,165,213.825,84,0,4.333,15,1013.25,340.389,0.01,0.017
0.11,-4.762e-4,-0.095,-9.523,0.096,9.576,-5.005e-5,0,5.005e-5,180,0.01,1.001,22.175,120.893,9.788,85.265,0,0,0,2.8e4,1.35e4,19.963,0.106,NaN,2019.977,NaN,0.013,8.46e5,4.431,2.26e-4,0.687,9.272e-4,0.352,0.215,0.12,NaN,NaN,NaN,NaN,NaN,NaN,NaN,NaN,1.294e-5,165,213.825,84,0,4.323,15,1013.25,340.389,0.01,0.017
0.12,-4.762e-4,-0.095,-9.523,0.096,9.576,-5.005e-5,0,5.005e-5,180,0.01,1.001,22.175,120.893,9.788,85.268,0,0,0,2.8e4,1.35e4,19.962,0.106,NaN,2019.976,NaN,0.013,8.44e5,4.436,2.245e-4,0.687,9.257e-4,0.352,0.215,0.12,NaN,NaN,NaN,NaN,NaN,NaN,NaN,NaN,1.294e-5,165,213.825,84,0,4.312,15,1013.25,340.389,0.01,0.017
0.13,-4.758e-4,-0.095,-9.517,0.096,9.569,-5.001e-5,0,5.001e-5,180,0.01,1,22.175,120.893,9.788,85.27,0,0,0,2.8e4,1.35e4,19.962,0.106,NaN,2019.974,NaN,0.013,8.419e5,4.62,2.232e-4,0.687,9.247e-4,0.352,0.215,0.12,NaN,NaN,NaN,NaN,NaN,NaN,NaN,NaN,1.294e-5,165,213.825,84,0,4.302,15,1013.25,340.389,0.01,0.018
0.14,-4.762e-4,-0.095,-9.524,0.096,9.577,-5.005e-5,0,5.005e-5,180,0.01,1.001,22.175,120.893,9.788,85.274,0,0,0,2.8e4,1.35e4,19.962,0.106,NaN,2019.972,NaN,0.013,8.399e5,4.404,2.216e-4,0.687,9.225e-4,0.352,0.215,0.12,NaN,NaN,NaN,NaN,NaN,NaN,NaN,NaN,1.295e-5,165,213.825,84,0,4.292,15,1013.25,340.389,0.01,0.018
0.15,-4.761e-4,-0.095,-9.523,0.096,9.575,-5.004e-5,0,5.004e-5,180,0.01,1.001,22.175,120.893,9.788,85.277,0,0,0,2.8e4,1.35e4,19.962,0.106,NaN,2019.97,NaN,0.013,8.379e5,4.444,2.202e-4,0.687,9.211e-4,0.352,0.215,0.12,NaN,NaN,NaN,NaN,NaN,NaN,NaN,NaN,1.294e-5,165,213.825,84,0,4.281,15,1013.25,340.389,0.01,0.018
0.16,-4.758e-4,-0.095,-9.516,0.096,9.568,-5.001e-5,0,5.001e-5,180,0.01,1,22.175,120.893,9.788,85.283,0,0,0,2.8e4,1.35e4,19.962,0.106,NaN,2019.969,NaN,0.012,8.334e5,4.651,2.172e-4,0.688,9.182e-4,0.353,0.215,0.12,NaN,NaN,NaN,NaN,NaN,NaN,NaN,NaN,1.293e-5,165,213.825,84,0,4.258,15,1013.25,340.389,0.01,0.018
0.17,-4.765e-4,-0.095,-9.531,0.096,9.583,-5.009e-5,0,5.009e-5,180,0.01,1.002,22.175,120.893,9.788,85.292,0,0,0,2.8e4,1.35e4,19.962,0.106,NaN,2019.967,NaN,0.012,8.289e5,4.218,2.137e-4,0.688,9.135e-4,0.353,0.215,0.12,NaN,NaN,NaN,NaN,NaN,NaN,NaN,NaN,1.295e-5,165,213.825,84,0,4.235,15,1013.25,340.389,0.01,0.018
0.18,-4.765e-4,-0.095,-9.531,0.096,9.583,-5.009e-5,0,5.009e-5,180,0.01,1.002,22.175,120.893,9.788,85.299,0,0,0,2.8e4,1.35e4,19.962,0.106,NaN,2019.965,NaN,0.012,8.244e5,4.225,2.106e-4,0.689,9.1e-4,0.354,0.215,0.12,NaN,NaN,NaN,NaN,NaN,NaN,NaN,NaN,1.295e-5,165,213.825,84,0,4.213,15,1013.25,340.389,0.01,0.019
0.19,-4.764e-4,-0.095,-9.527,0.096,9.58,-5.007e-5,0,5.007e-5,180,0.01,1.001,22.175,120.893,9.788,85.306,0,0,0,2.8e4,1.35e4,19.962,0.106,NaN,2019.964,NaN,0.012,8.199e5,4.321,2.076e-4,0.689,9.068e-4,0.354,0.215,0.12,NaN,NaN,NaN,NaN,NaN,NaN,NaN,NaN,1.295e-5,165,213.825,84,0,4.19,15,1013.25,340.389,0.01,0.019
0.2,-4.766e-4,-0.095,-9.532,0.096,9.585,-5.01e-5,0,5.01e-5,180,0.01,1.002,22.175,120.893,9.788,85.314,0,0,0,2.8e4,1.35e4,19.962,0.106,NaN,2019.962,NaN,0.012,8.154e5,4.174,2.044e-4,0.689,9.028e-4,0.354,0.215,0.12,NaN,NaN,NaN,NaN,NaN,NaN,NaN,NaN,1.296e-5,165,213.825,84,0,4.167,15,1013.25,340.389,0.01,0.019
0.21,-4.763e-4,-0.095,-9.525,0.096,9.578,-5.006e-5,0,5.006e-5,180,0.01,1.001,22.175,120.893,9.788,85.297,0,0,0,2.8e4,1.35e4,19.962,0.106,NaN,2019.961,NaN,0.012,8.25e5,4.381,2.111e-4,0.689,9.11e-4,0.353,0.215,0.12,NaN,NaN,NaN,NaN,NaN,NaN,NaN,NaN,1.295e-5,165,213.825,84,0,4.216,15,1013.25,340.389,0.01,0.02
0.22,-4.758e-4,-0.095,-9.515,0.096,9.568,-5.001e-5,0,5.001e-5,180,0.01,1,22.175,120.893,9.788,85.281,0,0,0,2.8e4,1.35e4,19.962,0.106,NaN,2019.959,NaN,0.013,8.346e5,4.657,2.18e-4,0.688,9.192e-4,0.353,0.215,0.12,NaN,NaN,NaN,NaN,NaN,NaN,NaN,NaN,1.293e-5,165,213.825,84,0,4.265,15,1013.25,340.389,0.01,0.02
0.23,-4.762e-4,-0.095,-9.525,0.096,9.577,-5.005e-5,0,5.005e-5,180,0.01,1.001,22.175,120.893,9.788,85.268,0,0,0,2.8e4,1.35e4,19.962,0.106,NaN,2019.957,NaN,0.013,8.442e5,4.392,2.247e-4,0.687,9.258e-4,0.352,0.215,0.12,NaN,NaN,NaN,NaN,NaN,NaN,NaN,NaN,1.295e-5,165,213.825,84,0,4.314,15,1013.25,340.389,0.01,0.02
0.24,-4.76e-4,-0.095,-9.52,0.096,9.573,-5.003e-5,0,5.003e-5,180,0.01,1.001,22.175,120.893,9.788,85.253,0,0,0,2.8e4,1.35e4,19.962,0.106,NaN,2019.955,NaN,0.013,8.538e5,4.513,2.317e-4,0.686,9.332e-4,0.351,0.215,0.12,NaN,NaN,NaN,NaN,NaN,NaN,NaN,NaN,1.294e-5,165,213.825,84,0,4.363,15,1013.25,340.389,0.01,0.02
0.25,-4.759e-4,-0.095,-9.518,0.096,9.57,-5.002e-5,0,5.002e-5,180,0.01,1,22.175,120.893,9.788,85.239,0,0,0,2.8e4,1.35e4,19.962,0.106,NaN,2019.954,NaN,0.013,8.634e5,4.587,2.387e-4,0.685,9.405e-4,0.35,0.215,0.12,NaN,NaN,NaN,NaN,NaN,NaN,NaN,NaN,1.294e-5,165,213.825,84,0,4.412,15,1013.25,340.389,0.01,0.02
0.26,-4.762e-4,-0.095,-9.523,0.096,9.576,-5.005e-5,0,5.005e-5,180,0.01,1.001,22.175,120.893,9.788,85.238,0,0,0,2.8e4,1.35e4,19.962,0.106,NaN,2019.952,NaN,0.013,8.645e5,4.429,2.395e-4,0.685,9.408e-4,0.35,0.215,0.12,NaN,NaN,NaN,NaN,NaN,NaN,NaN,NaN,1.294e-5,165,213.825,84,0,4.417,15,1013.25,340.389,0.01,0.021
0.27,-4.76e-4,-0.095,-9.52,0.096,9.572,-5.003e-5,0,5.003e-5,180,0.01,1.001,22.175,120.893,9.788,85.236,0,0,0,2.8e4,1.35e4,19.962,0.106,NaN,2019.95,NaN,0.013,8.657e5,4.527,2.404e-4,0.685,9.419e-4,0.35,0.215,0.12,NaN,NaN,NaN,NaN,NaN,NaN,NaN,NaN,1.294e-5,165,213.825,84,0,4.423,15,1013.25,340.389,0.01,0.021
0.28,-4.761e-4,-0.095,-9.521,0.096,9.574,-5.004e-5,0,5.004e-5,180,0.01,1.001,22.175,120.893,9.788,85.234,0,0,0,2.8e4,1.35e4,19.962,0.106,NaN,2019.949,NaN,0.013,8.668e5,4.488,2.412e-4,0.685,9.426e-4,0.35,0.215,0.12,NaN,NaN,NaN,NaN,NaN,NaN,NaN,NaN,1.294e-5,165,213.825,84,0,4.429,15,1013.25,340.389,0.01,0.021
0.29,-4.758e-4,-0.095,-9.517,0.096,9.569,-5.001e-5,0,5.001e-5,180,0.01,1,22.175,120.893,9.788,85.232,0,0,0,2.8e4,1.35e4,19.962,0.106,NaN,2019.947,NaN,0.013,8.679e5,4.616,2.421e-4,0.685,9.438e-4,0.35,0.215,0.12,NaN,NaN,NaN,NaN,NaN,NaN,NaN,NaN,1.294e-5,165,213.825,84,0,4.434,15,1013.25,340.389,0.01,0.021
0.3,-4.76e-4,-0.095,-9.519,0.096,9.572,-5.003e-5,0,5.003e-5,180,0.01,1.001,22.175,120.893,9.788,85.231,0,0,0,2.8e4,1.35e4,19.962,0.106,NaN,2019.945,NaN,0.013,8.69e5,4.548,2.429e-4,0.685,9.444e-4,0.35,0.215,0.12,NaN,NaN,NaN,NaN,NaN,NaN,NaN,NaN,1.294e-5,165,213.825,84,0,4.44,15,1013.25,340.389,0.01,0.021
0.31,-4.757e-4,-0.095,-9.514,0.096,9.566,-5e-5,0,5e-5,180,0.01,1,22.175,120.893,9.788,85.241,0,0,0,2.8e4,1.35e4,19.962,0.106,NaN,2019.943,NaN,0.013,8.613e5,4.706,2.373e-4,0.686,9.393e-4,0.35,0.215,0.12,NaN,NaN,NaN,NaN,NaN,NaN,NaN,NaN,1.293e-5,165,213.825,84,0,4.401,15,1013.25,340.389,0.01,0.022
0.32,-4.763e-4,-0.095,-9.527,0.096,9.579,-5.007e-5,0,5.007e-5,180,0.01,1.001,22.175,120.893,9.788,85.254,0,0,0,2.8e4,1.35e4,19.962,0.106,NaN,2019.942,NaN,0.013,8.536e5,4.332,2.314e-4,0.686,9.326e-4,0.351,0.215,0.12,NaN,NaN,NaN,NaN,NaN,NaN,NaN,NaN,1.295e-5,165,213.825,84,0,4.362,15,1013.25,340.389,0.01,0.022
0.33,-4.761e-4,-0.095,-9.522,0.096,9.574,-5.004e-5,0,5.004e-5,180,0.01,1.001,22.175,120.893,9.788,85.265,0,0,0,2.8e4,1.35e4,19.962,0.106,NaN,2019.94,NaN,0.013,8.459e5,4.483,2.26e-4,0.687,9.273e-4,0.352,0.215,0.12,NaN,NaN,NaN,NaN,NaN,NaN,NaN,NaN,1.294e-5,165,213.825,84,0,4.322,15,1013.25,340.389,0.01,0.022
0.34,-4.759e-4,-0.095,-9.518,0.096,9.571,-5.002e-5,0,5.002e-5,180,0.01,1,22.175,120.893,9.788,85.276,0,0,0,2.8e4,1.35e4,19.962,0.106,NaN,2019.938,NaN,0.013,8.382e5,4.57,2.205e-4,0.687,9.217e-4,0.352,0.215,0.12,NaN,NaN,NaN,NaN,NaN,NaN,NaN,NaN,1.294e-5,165,213.825,84,0,4.283,15,1013.25,340.389,0.01,0.022
0.35,-4.762e-4,-0.095,-9.524,0.096,9.576,-5.005e-5,0,5.005e-5,180,0.01,1.001,22.175,120.893,9.788,85.289,0,0,0,2.8e4,1.35e4,19.962,0.106,NaN,2019.936,NaN,0.012,8.305e5,4.419,2.15e-4,0.688,9.154e-4,0.353,0.215,0.12,NaN,NaN,NaN,NaN,NaN,NaN,NaN,NaN,1.294e-5,165,213.825,84,0,4.244,15,1013.25,340.389,0.01,0.022
0.36,-4.764e-4,-0.095,-9.527,0.096,9.58,-5.007e-5,0,5.007e-5,180,0.01,1.001,22.175,120.893,9.788,85.287,0,0,0,2.8e4,1.35e4,19.962,0.106,NaN,2019.935,NaN,0.012,8.32e5,4.317,2.16e-4,0.688,9.162e-4,0.353,0.215,0.12,NaN,NaN,NaN,NaN,NaN,NaN,NaN,NaN,1.295e-5,165,213.825,84,0,4.251,15,1013.25,340.389,0.01,0.023
0.37,-4.76e-4,-0.095,-9.52,0.096,9.573,-5.003e-5,0,5.003e-5,180,0.01,1.001,22.175,120.893,9.788,85.284,0,0,0,2.8e4,1.35e4,19.962,0.106,NaN,2019.933,NaN,0.012,8.334e5,4.522,2.171e-4,0.688,9.179e-4,0.353,0.215,0.12,NaN,NaN,NaN,NaN,NaN,NaN,NaN,NaN,1.294e-5,165,213.825,84,0,4.259,15,1013.25,340.389,0.01,0.023
0.38,-4.762e-4,-0.095,-9.523,0.096,9.576,-5.005e-5,0,5.005e-5,180,0.01,1.001,22.175,120.893,9.788,85.282,0,0,0,2.8e4,1.35e4,19.962,0.106,NaN,2019.931,NaN,0.013,8.349e5,4.433,2.181e-4,0.688,9.188e-4,0.353,0.215,0.12,NaN,NaN,NaN,NaN,NaN,NaN,NaN,NaN,1.294e-5,165,213.825,84,0,4.266,15,1013.25,340.389,0.01,0.023
0.39,-4.757e-4,-0.095,-9.515,0.096,9.567,-5e-5,0,5e-5,180,0.01,1,22.175,120.893,9.788,85.278,0,0,0,2.8e4,1.35e4,19.962,0.106,NaN,2019.93,NaN,0.013,8.364e5,4.673,2.193e-4,0.688,9.206e-4,0.352,0.215,0.12,NaN,NaN,NaN,NaN,NaN,NaN,NaN,NaN,1.293e-5,165,213.825,84,0,4.274,15,1013.25,340.389,0.01,0.023
0.4,-4.755e-4,-0.095,-9.51,0.096,9.562,-4.998e-5,0,4.998e-5,180,0.01,1,22.175,120.893,9.788,85.276,0,0,0,2.8e4,1.35e4,19.962,0.106,NaN,2019.928,NaN,0.013,8.378e5,4.812,2.204e-4,0.688,9.22e-4,0.352,0.215,0.12,NaN,NaN,NaN,NaN,NaN,NaN,NaN,NaN,1.293e-5,165,213.825,84,0,4.281,15,1013.25,340.389,0.01,0.023
0.41,-4.759e-4,-0.095,-9.518,0.096,9.57,-5.002e-5,0,5.002e-5,180,0.01,1,22.175,120.893,9.788,85.27,0,0,0,2.8e4,1.35e4,19.962,0.106,NaN,2019.926,NaN,0.013,8.424e5,4.595,2.235e-4,0.687,9.249e-4,0.352,0.215,0.12,NaN,NaN,NaN,NaN,NaN,NaN,NaN,NaN,1.294e-5,165,213.825,84,0,4.304,15,1013.25,340.389,0.01,0.024
0.42,-4.758e-4,-0.095,-9.516,0.096,9.568,-5.001e-5,0,5.001e-5,180,0.01,1,22.175,120.893,9.788,85.263,0,0,0,2.8e4,1.35e4,19.962,0.106,NaN,2019.924,NaN,0.013,8.47e5,4.638,2.268e-4,0.687,9.285e-4,0.352,0.215,0.12,NaN,NaN,NaN,NaN,NaN,NaN,NaN,NaN,1.293e-5,165,213.825,84,0,4.328,15,1013.25,340.389,0.01,0.024
0.43,-4.755e-4,-0.095,-9.51,0.096,9.562,-4.998e-5,0,4.998e-5,180,0.01,1,22.175,120.893,9.788,85.255,0,0,0,2.8e4,1.35e4,19.962,0.106,NaN,2019.922,NaN,0.013,8.516e5,4.811,2.303e-4,0.686,9.324e-4,0.351,0.215,0.12,NaN,NaN,NaN,NaN,NaN,NaN,NaN,NaN,1.293e-5,165,213.825,84,0,4.351,15,1013.25,340.389,0.01,0.024
0.44,-4.753e-4,-0.095,-9.506,0.096,9.558,-4.996e-5,0,4.996e-5,180,0.01,0.999,22.175,120.893,9.788,85.248,0,0,0,2.8e4,1.35e4,19.962,0.106,NaN,2019.921,NaN,0.013,8.562e5,4.919,2.337e-4,0.686,9.361e-4,0.351,0.215,0.12,NaN,NaN,NaN,NaN,NaN,NaN,NaN,NaN,1.292e-5,165,213.825,84,0,4.375,15,1013.25,340.389,0.01,0.024
0.45,-4.759e-4,-0.095,-9.518,0.096,9.57,-5.002e-5,0,5.002e-5,180,0.01,1,22.175,120.893,9.788,85.243,0,0,0,2.8e4,1.35e4,19.961,0.106,NaN,2019.919,NaN,0.013,8.608e5,4.583,2.368e-4,0.686,9.386e-4,0.35,0.215,0.12,NaN,NaN,NaN,NaN,NaN,NaN,NaN,NaN,1.294e-5,165,213.825,84,0,4.398,15,1013.25,340.389,0.01,0.025
0.46,-4.762e-4,-0.095,-9.523,0.096,9.576,-5.005e-5,0,5.005e-5,180,0.01,1.001,22.175,120.893,9.788,85.246,0,0,0,2.8e4,1.35e4,19.961,0.106,NaN,2019.917,NaN,0.013,8.587e5,4.429,2.352e-4,0.686,9.366e-4,0.351,0.215,0.12,NaN,NaN,NaN,NaN,NaN,NaN,NaN,NaN,1.294e-5,165,213.825,84,0,4.388,15,1013.25,340.389,0.01,0.025
0.47,-4.761e-4,-0.095,-9.523,0.096,9.575,-5.004e-5,0,5.004e-5,180,0.01,1.001,22.175,120.893,9.788,85.249,0,0,0,2.8e4,1.35e4,19.961,0.106,NaN,2019.915,NaN,0.013,8.567e5,4.45,2.337e-4,0.686,9.352e-4,0.351,0.215,0.12,NaN,NaN,NaN,NaN,NaN,NaN,NaN,NaN,1.294e-5,165,213.825,84,0,4.377,15,1013.25,340.389,0.01,0.025
0.48,-4.753e-4,-0.095,-9.507,0.096,9.559,-4.996e-5,0,4.996e-5,180,0.01,0.999,22.175,120.893,9.788,85.25,0,0,0,2.8e4,1.35e4,19.961,0.106,NaN,2019.914,NaN,0.013,8.546e5,4.905,2.325e-4,0.686,9.349e-4,0.351,0.215,0.12,NaN,NaN,NaN,NaN,NaN,NaN,NaN,NaN,1.292e-5,165,213.825,84,0,4.367,15,1013.25,340.389,0.01,0.025
0.49,-4.756e-4,-0.095,-9.512,0.096,9.565,-4.999e-5,0,4.999e-5,180,0.01,1,22.175,120.893,9.788,85.254,0,0,0,2.8e4,1.35e4,19.961,0.106,NaN,2019.912,NaN,0.013,8.525e5,4.746,2.309e-4,0.686,9.329e-4,0.351,0.215,0.12,NaN,NaN,NaN,NaN,NaN,NaN,NaN,NaN,1.293e-5,165,213.825,84,0,4.356,15,1013.25,340.389,0.01,0.025
0.5,-4.761e-4,-0.095,-9.522,0.096,9.574,-5.004e-5,0,5.004e-5,180,0.01,1.001,22.175,120.893,9.788,85.258,0,0,0,2.8e4,1.35e4,19.961,0.106,NaN,2019.91,NaN,0.013,8.504e5,4.47,2.292e-4,0.686,9.306e-4,0.351,0.215,0.12,NaN,NaN,NaN,NaN,NaN,NaN,NaN,NaN,1.294e-5,165,213.825,84,0,4.345,15,1013.25,340.389,0.01,0.026
0.51,-4.758e-4,-0.095,-9.515,0.096,9.568,-5.001e-5,0,5.001e-5,180,0.01,1,22.175,120.893,9.788,85.253,0,0,0,2.8e4,1.35e4,19.961,0.106,NaN,2019.908,NaN,0.013,8.533e5,4.657,2.314e-4,0.686,9.332e-4,0.351,0.215,0.12,NaN,NaN,NaN,NaN,NaN,NaN,NaN,NaN,1.293e-5,165,213.825,84,0,4.36,15,1013.25,340.389,0.01,0.026
0.52,-4.75e-4,-0.095,-9.499,0.096,9.551,-4.992e-5,0,4.992e-5,180,0.01,0.998,22.175,120.893,9.788,85.247,0,0,0,2.8e4,1.35e4,19.961,0.106,NaN,2019.906,NaN,0.013,8.562e5,5.115,2.338e-4,0.686,9.366e-4,0.351,0.215,0.12,NaN,NaN,NaN,NaN,NaN,NaN,NaN,NaN,1.291e-5,165,213.825,84,0,4.375,15,1013.25,340.389,0.01,0.026
0.53,-4.746e-4,-0.095,-9.491,0.095,9.543,-4.988e-5,0,4.988e-5,180,0.01,0.998,22.175,120.893,9.788,85.242,0,0,0,2.8e4,1.35e4,19.961,0.106,NaN,2019.904,NaN,0.013,8.59e5,5.339,2.36e-4,0.686,9.393e-4,0.351,0.215,0.12,NaN,NaN,NaN,NaN,NaN,NaN,NaN,NaN,1.29e-5,165,213.825,84,0,4.389,15,1013.25,340.389,0.01,0.026
0.54,-4.758e-4,-0.095,-9.516,0.096,9.568,-5.001e-5,0,5.001e-5,180,0.01,1,22.175,120.893,9.788,85.241,0,0,0,2.8e4,1.35e4,19.961,0.106,NaN,2019.903,NaN,0.013,8.619e5,4.638,2.376e-4,0.685,9.395e-4,0.35,0.215,0.12,NaN,NaN,NaN,NaN,NaN,NaN,NaN,NaN,1.293e-5,165,213.825,84,0,4.404,15,1013.25,340.389,0.01,0.026
0.55,-4.755e-4,-0.095,-9.51,0.096,9.562,-4.997e-5,0,4.997e-5,180,0.01,0.999,22.175,120.893,9.788,85.236,0,0,0,2.8e4,1.35e4,19.961,0.106,NaN,2019.901,NaN,0.013,8.647e5,4.82,2.399e-4,0.685,9.42e-4,0.35,0.215,0.12,NaN,NaN,NaN,NaN,NaN,NaN,NaN,NaN,1.293e-5,165,213.825,84,0,4.418,15,1013.25,340.389,0.01,0.027
0.56,-4.749e-4,-0.095,-9.498,0.096,9.55,-4.991e-5,0,4.991e-5,180,0.01,0.998,22.175,120.893,9.788,85.235,0,0,0,2.8e4,1.35e4,19.961,0.106,NaN,2019.899,NaN,0.013,8.643e5,5.14,2.397e-4,0.685,9.426e-4,0.35,0.215,0.12,NaN,NaN,NaN,NaN,NaN,NaN,NaN,NaN,1.291e-5,165,213.825,84,0,4.416,15,1013.25,340.389,0.01,0.027
0.57,-4.749e-4,-0.095,-9.497,0.095,9.55,-4.991e-5,0,4.991e-5,180,0.01,0.998,22.175,120.893,9.788,85.236,0,0,0,2.8e4,1.35e4,19.961,0.106,NaN,2019.897,NaN,0.013,8.638e5,5.164,2.394e-4,0.685,9.423e-4,0.35,0.215,0.12,NaN,NaN,NaN,NaN,NaN,NaN,NaN,NaN,1.291e-5,165,213.825,84,0,4.413,15,1013.25,340.389,0.01,0.027
0.58,-4.749e-4,-0.095,-9.499,0.096,9.551,-4.992e-5,0,4.992e-5,180,0.01,0.998,22.175,120.893,9.788,85.236,0,0,0,2.8e4,1.35e4,19.961,0.106,NaN,2019.895,NaN,0.013,8.633e5,5.125,2.39e-4,0.685,9.418e-4,0.35,0.215,0.12,NaN,NaN,NaN,NaN,NaN,NaN,NaN,NaN,1.291e-5,165,213.825,84,0,4.411,15,1013.25,340.389,0.01,0.027
0.59,-4.746e-4,-0.095,-9.493,0.095,9.545,-4.989e-5,0,4.989e-5,180,0.01,0.998,22.175,120.893,9.788,85.236,0,0,0,2.8e4,1.35e4,19.961,0.106,NaN,2019.893,NaN,0.013,8.628e5,5.296,2.388e-4,0.685,9.419e-4,0.35,0.215,0.12,NaN,NaN,NaN,NaN,NaN,NaN,NaN,NaN,1.29e-5,165,213.825,84,0,4.408,15,1013.25,340.389,0.01,0.027
0.6,-4.741e-4,-0.095,-9.483,0.095,9.535,-4.984e-5,0,4.984e-5,180,0.01,0.997,22.175,120.893,9.788,85.236,0,0,0,2.8e4,1.349e4,19.961,0.106,NaN,2019.891,NaN,0.013,8.623e5,5.567,2.386e-4,0.685,9.423e-4,0.35,0.215,0.12,NaN,NaN,NaN,NaN,NaN,NaN,NaN,NaN,1.289e-5,165,213.825,84,0,4.406,15,1013.25,340.389,0.01,0.028
0.61,-4.739e-4,-0.095,-9.478,0.095,9.53,-4.981e-5,0,4.981e-5,180,0.01,0.996,22.175,120.893,9.788,85.23,0,0,0,2.8e4,1.349e4,19.961,0.106,NaN,2019.889,NaN,0.013,8.661e5,5.717,2.415e-4,0.685,9.454e-4,0.35,0.215,0.12,NaN,NaN,NaN,NaN,NaN,NaN,NaN,NaN,1.288e-5,165,213.825,84,0,4.425,15,1013.25,340.389,0.01,0.028
0.62,-4.745e-4,-0.095,-9.49,0.095,9.542,-4.987e-5,0,4.987e-5,180,0.01,0.997,22.175,120.893,9.788,85.226,0,0,0,2.8e4,1.349e4,19.961,0.106,NaN,2019.887,NaN,0.013,8.698e5,5.366,2.44e-4,0.685,9.471e-4,0.35,0.215,0.12,NaN,NaN,NaN,NaN,NaN,NaN,NaN,NaN,1.29e-5,165,213.825,84,0,4.444,15,1013.25,340.389,0.01,0.028
0.63,-4.737e-4,-0.095,-9.473,0.095,9.525,-4.978e-5,0,4.978e-5,180,0.01,0.996,22.175,120.893,9.788,85.219,0,0,0,2.799e4,1.349e4,19.961,0.106,NaN,2019.884,NaN,0.013,8.735e5,5.844,2.471e-4,0.685,9.51e-4,0.349,0.215,0.12,NaN,NaN,NaN,NaN,NaN,NaN,NaN,NaN,1.288e-5,165,213.825,84,0,4.463,15,1013.25,340.389,0.01,0.029
0.64,-4.738e-4,-0.095,-9.475,0.095,9.527,-4.979e-5,0,4.979e-5,180,0.01,0.996,22.175,120.893,9.788,85.214,0,0,0,2.799e4,1.349e4,19.961,0.106,NaN,2019.882,NaN,0.013,8.772e5,5.786,2.498e-4,0.684,9.535e-4,0.349,0.215,0.12,NaN,NaN,NaN,NaN,NaN,NaN,NaN,NaN,1.288e-5,165,213.825,84,0,4.482,15,1013.25,340.389,0.01,0.029
0.65,-4.734e-4,-0.095,-9.469,0.095,9.521,-4.976e-5,0,4.976e-5,180,0.01,0.995,22.175,120.893,9.788,85.208,0,0,0,2.799e4,1.349e4,19.961,0.106,NaN,2019.88,NaN,0.013,8.809e5,5.968,2.527e-4,0.684,9.566e-4,0.349,0.215,0.12,NaN,NaN,NaN,NaN,NaN,NaN,NaN,NaN,1.287e-5,165,213.825,84,0,4.501,15,1013.25,340.389,0.01,0.029
0.66,-4.724e-4,-0.094,-9.448,0.095,9.5,-4.965e-5,0,4.965e-5,180,0.01,0.993,22.175,120.893,9.788,85.207,0,0,0,2.799e4,1.349e4,19.961,0.106,NaN,2019.877,NaN,0.013,8.794e5,6.551,2.52e-4,0.684,9.571e-4,0.349,0.215,0.12,NaN,NaN,NaN,NaN,NaN,NaN,NaN,NaN,1.284e-5,165,213.825,84,0,4.493,15,1013.25,340.389,0.01,0.029
0.67,-4.721e-4,-0.094,-9.442,0.095,9.494,-4.962e-5,0,4.962e-5,180,0.01,0.992,22.175,120.893,9.788,85.209,0,0,0,2.799e4,1.349e4,19.961,0.106,NaN,2019.875,NaN,0.013,8.779e5,6.72,2.51e-4,0.684,9.565e-4,0.349,0.215,0.12,NaN,NaN,NaN,NaN,NaN,NaN,NaN,NaN,1.283e-5,165,213.825,84,0,4.486,15,1013.25,340.389,0.01,0.03
0.68,-4.711e-4,-0.094,-9.421,0.095,9.473,-4.951e-5,0,4.951e-5,180,0.01,0.99,22.175,120.893,9.788,85.208,0,0,0,2.799e4,1.349e4,19.961,0.106,NaN,2019.872,NaN,0.013,8.765e5,7.299,2.503e-4,0.684,9.57e-4,0.349,0.215,0.12,NaN,NaN,NaN,NaN,NaN,NaN,NaN,NaN,1.281e-5,165,213.825,84,0,4.478,15,1013.25,340.389,0.01,0.03
0.69,-4.708e-4,-0.094,-9.415,0.095,9.467,-4.948e-5,0,4.948e-5,180,0.01,0.99,22.175,120.893,9.788,85.209,0,0,0,2.799e4,1.349e4,19.961,0.106,NaN,2019.869,NaN,0.013,8.75e5,7.467,2.494e-4,0.684,9.565e-4,0.349,0.215,0.12,NaN,NaN,NaN,NaN,NaN,NaN,NaN,NaN,1.28e-5,165,213.825,84,0,4.471,15,1013.25,340.389,0.01,0.03
0.7,-4.699e-4,-0.094,-9.398,0.095,9.45,-4.939e-5,0,4.939e-5,180,0.01,0.988,22.175,120.893,9.788,85.209,0,0,0,2.799e4,1.349e4,19.961,0.106,NaN,2019.866,NaN,0.013,8.735e5,7.951,2.486e-4,0.685,9.567e-4,0.349,0.215,0.12,NaN,NaN,NaN,NaN,NaN,NaN,NaN,NaN,1.277e-5,165,213.825,84,0,4.463,15,1013.25,340.389,0.01,0.031
0.71,-4.682e-4,-0.094,-9.363,0.094,9.415,-4.921e-5,0,4.921e-5,180,0.01,0.984,22.175,120.893,9.788,85.214,0,0,0,2.799e4,1.349e4,19.96,0.106,NaN,2019.863,NaN,0.013,8.671e5,8.938,2.444e-4,0.685,9.548e-4,0.35,0.215,0.12,NaN,NaN,NaN,NaN,NaN,NaN,NaN,NaN,1.273e-5,165,213.825,84,0,4.43,15,1013.25,340.389,0.01,0.031
0.72,-4.676e-4,-0.094,-9.352,0.094,9.403,-4.915e-5,0,4.915e-5,180,0.01,0.983,22.175,120.893,9.788,85.221,0,0,0,2.799e4,1.349e4,19.96,0.106,NaN,2019.859,NaN,0.013,8.606e5,9.255,2.398e-4,0.686,9.51e-4,0.35,0.215,0.12,NaN,NaN,NaN,NaN,NaN,NaN,NaN,NaN,1.271e-5,165,213.825,84,0,4.397,15,1013.25,340.389,0.01,0.031
0.73,-4.659e-4,-0.093,-9.319,0.094,9.37,-4.897e-5,0,4.897e-5,180,0.01,0.979,22.175,120.893,9.788,85.226,0,0,0,2.799e4,1.349e4,19.96,0.106,NaN,2019.855,NaN,0.013,8.541e5,10.185,2.357e-4,0.686,9.489e-4,0.351,0.215,0.12,NaN,NaN,NaN,NaN,NaN,NaN,NaN,NaN,1.267e-5,165,213.825,84,0,4.364,15,1013.25,340.389,0.01,0.032
0.74,-4.64e-4,-0.093,-9.28,0.093,9.331,-4.877e-5,0,4.877e-5,180,0.01,0.975,22.175,120.893,9.788,85.23,0,0,0,2.799e4,1.349e4,19.96,0.106,NaN,2019.851,NaN,0.013,8.476e5,11.275,2.317e-4,0.687,9.471e-4,0.352,0.215,0.12,NaN,NaN,NaN,NaN,NaN,NaN,NaN,NaN,1.261e-5,165,213.825,84,0,4.331,15,1013.25,340.389,0.01,0.032
0.75,-4.621e-4,-0.092,-9.243,0.093,9.294,-4.857e-5,0,4.857e-5,180,0.01,0.971,22.175,120.893,9.788,85.235,0,0,0,2.799e4,1.349e4,19.96,0.106,NaN,2019.846,NaN,0.013,8.411e5,12.322,2.277e-4,0.687,9.453e-4,0.352,0.215,0.12,NaN,NaN,NaN,NaN,NaN,NaN,NaN,NaN,1.256e-5,165,213.825,84,0,4.298,15,1013.25,340.389,0.01,0.032
0.76,-4.598e-4,-0.092,-9.195,0.092,9.246,-4.832e-5,0,4.832e-5,180,0.01,0.966,22.175,120.893,9.788,85.221,0,0,0,2.799e4,1.349e4,19.96,0.106,NaN,2019.841,NaN,0.013,8.465e5,13.663,2.325e-4,0.687,9.53e-4,0.352,0.215,0.12,NaN,NaN,NaN,NaN,NaN,NaN,NaN,NaN,1.25e-5,165,213.825,84,0,4.325,15,1013.25,340.389,0.01,0.033
0.77,-4.586e-4,-0.092,-9.173,0.092,9.223,-4.82e-5,0,4.82e-5,180,0.01,0.964,22.175,120.893,9.788,85.21,0,0,0,2.799e4,1.349e4,19.96,0.106,NaN,2019.836,NaN,0.013,8.519e5,14.302,2.369e-4,0.686,9.587e-4,0.351,0.215,0.12,NaN,NaN,NaN,NaN,NaN,NaN,NaN,NaN,1.247e-5,165,213.825,84,0,4.353,15,1013.25,340.389,0.01,0.038
0.78,-4.56e-4,-0.091,-9.12,0.092,9.171,-4.793e-5,0,4.793e-5,180,0.01,0.959,22.175,120.893,9.788,85.195,0,0,0,2.799e4,1.349e4,19.96,0.106,NaN,2019.83,NaN,0.013,8.573e5,15.77,2.419e-4,0.686,9.666e-4,0.351,0.215,0.12,NaN,NaN,NaN,NaN,NaN,NaN,NaN,NaN,1.24e-5,165,213.825,84,0,4.38,15,1013.25,340.389,0.01,0.038
0.79,-4.54e-4,-0.091,-9.079,0.091,9.129,-4.771e-5,0,4.771e-5,180,0.01,0.954,22.175,120.893,9.788,85.183,0,0,0,2.799e4,1.349e4,19.96,0.106,NaN,2019.823,NaN,0.013,8.627e5,16.927,2.467e-4,0.685,9.736e-4,0.35,0.215,0.12,NaN,NaN,NaN,NaN,NaN,NaN,NaN,NaN,1.234e-5,165,213.825,84,0,4.408,15,1013.25,340.389,0.01,0.038
0.8,-4.518e-4,-0.09,-9.037,0.091,9.087,-4.749e-5,0,4.749e-5,180,0.009,0.95,22.175,120.893,9.788,85.17,0,0,0,2.799e4,1.349e4,19.96,0.106,NaN,2019.816,NaN,0.013,8.681e5,18.121,2.517e-4,0.685,9.806e-4,0.35,0.215,0.12,NaN,NaN,NaN,NaN,NaN,NaN,NaN,NaN,1.228e-5,165,213.825,84,0,4.435,15,1013.25,340.389,0.01,0.038
0.81,-4.495e-4,-0.09,-8.99,0.09,9.04,-4.725e-5,0,4.725e-5,180,0.009,0.945,22.175,120.893,9.788,85.174,0,0,0,2.799e4,1.349e4,19.96,0.106,NaN,2019.809,NaN,0.013,8.607e5,19.438,2.47e-4,0.686,9.791e-4,0.35,0.215,0.12,NaN,NaN,NaN,NaN,NaN,NaN,NaN,NaN,1.222e-5,165,213.825,84,0,4.397,15,1013.25,340.389,0.01,0.039
0.82,-4.482e-4,-0.09,-8.965,0.09,9.014,-4.711e-5,0,4.711e-5,180,0.009,0.942,22.175,120.893,9.788,85.181,0,0,0,2.799e4,1.349e4,19.959,0.106,NaN,2019.801,NaN,0.013,8.533e5,20.155,2.42e-4,0.686,9.759e-4,0.351,0.215,0.12,NaN,NaN,NaN,NaN,NaN,NaN,NaN,NaN,1.218e-5,165,213.825,84,0,4.359,15,1013.25,340.389,0.01,0.039
0.83,-4.434e-4,-0.089,-8.867,0.089,8.916,-4.66e-5,0,4.66e-5,180,0.009,0.932,22.175,120.893,9.788,85.178,0,0,0,2.799e4,1.349e4,19.959,0.106,NaN,2019.793,NaN,0.013,8.459e5,22.899,2.384e-4,0.687,9.784e-4,0.352,0.215,0.12,NaN,NaN,NaN,NaN,NaN,NaN,NaN,NaN,1.205e-5,165,213.825,84,0,4.322,15,1013.25,340.389,0.01,0.039
0.84,-4.345e-4,-0.087,-8.69,0.087,8.738,-4.567e-5,0,4.567e-5,180,0.009,0.913,22.175,120.893,9.788,85.165,0,0,0,2.799e4,1.349e4,19.959,0.106,NaN,2019.782,NaN,0.013,8.385e5,27.886,2.364e-4,0.687,9.873e-4,0.352,0.215,0.12,NaN,NaN,NaN,NaN,NaN,NaN,NaN,NaN,1.181e-5,165,213.825,84,0,4.284,15,1013.25,340.389,0.01,0.039
0.85,-4.271e-4,-0.085,-8.542,0.086,8.59,-4.489e-5,0,4.489e-5,180,0.009,0.898,22.175,120.893,9.788,85.155,0,0,0,2.799e4,1.349e4,19.959,0.106,NaN,2019.77,NaN,0.012,8.311e5,32.036,2.338e-4,0.688,9.94e-4,0.353,0.215,0.12,NaN,NaN,NaN,NaN,NaN,NaN,NaN,NaN,1.161e-5,165,213.825,84,0,4.246,15,1013.25,340.389,0.01,0.04
0.86,-4.194e-4,-0.084,-8.388,0.084,8.434,-4.408e-5,0,4.408e-5,180,0.009,0.882,22.175,120.893,9.788,85.138,0,0,0,2.799e4,1.349e4,19.959,0.106,NaN,2019.756,NaN,0.012,8.279e5,36.392,2.345e-4,0.688,0.001,0.353,0.215,0.12,NaN,NaN,NaN,NaN,NaN,NaN,NaN,NaN,1.14e-5,165,213.825,84,0,4.23,15,1013.25,340.389,0.01,0.04
0.87,-4.119e-4,-0.082,-8.239,0.083,8.284,-4.33e-5,0,4.33e-5,180,0.009,0.866,22.175,120.893,9.788,85.123,0,0,0,2.799e4,1.349e4,19.958,0.106,NaN,2019.74,NaN,0.012,8.248e5,40.581,2.35e-4,0.689,0.001,0.353,0.215,0.12,NaN,NaN,NaN,NaN,NaN,NaN,NaN,NaN,1.12e-5,165,213.825,84,0,4.213,15,1013.25,340.389,0.01,0.04
0.88,-4.047e-4,-0.081,-8.093,0.081,8.138,-4.253e-5,0,4.253e-5,180,0.009,0.851,22.175,120.893,9.788,85.107,0,0,0,2.799e4,1.349e4,19.958,0.106,NaN,2019.723,NaN,0.012,8.216e5,44.682,2.355e-4,0.689,0.001,0.354,0.215,0.12,NaN,NaN,NaN,NaN,NaN,NaN,NaN,NaN,1.1e-5,165,213.825,84,0,4.197,15,1013.25,340.389,0.01,0.04
0.89,-3.982e-4,-0.08,-7.965,0.08,8.008,-4.186e-5,0,4.186e-5,180,0.008,0.837,22.175,120.893,9.788,85.094,0,0,0,2.799e4,1.349e4,19.958,0.106,NaN,2019.705,NaN,0.012,8.185e5,48.294,2.357e-4,0.689,0.001,0.354,0.215,0.12,NaN,NaN,NaN,NaN,NaN,NaN,NaN,NaN,1.083e-5,165,213.825,84,0,4.181,15,1013.25,340.389,0.01,0.04
0.9,-3.921e-4,-0.078,-7.842,0.079,7.885,-4.121e-5,0,4.121e-5,180,0.008,0.824,22.175,120.893,9.788,85.081,0,0,0,2.799e4,1.349e4,19.957,0.106,NaN,2019.685,NaN,0.012,8.153e5,51.752,2.357e-4,0.689,0.001,0.354,0.215,0.12,NaN,NaN,NaN,NaN,NaN,NaN,NaN,NaN,1.066e-5,165,213.825,84,0,4.165,15,1013.25,340.389,0.01,0.041
0.91,-3.84e-4,-0.077,-7.679,0.077,7.722,-4.036e-5,0,4.036e-5,180,0.008,0.807,22.175,120.893,9.788,85.066,0,0,0,2.798e4,1.348e4,19.957,0.106,NaN,2019.664,NaN,0.012,8.092e5,56.319,2.344e-4,0.69,0.001,0.355,0.215,0.12,NaN,NaN,NaN,NaN,NaN,NaN,NaN,NaN,1.044e-5,165,213.825,84,0,4.133,15,1013.25,340.389,0.01,0.041
0.92,-3.761e-4,-0.075,-7.522,0.076,7.563,-3.953e-5,0,3.953e-5,180,0.008,0.791,22.175,120.893,9.788,85.053,0,0,0,2.798e4,1.348e4,19.957,0.106,NaN,2019.641,NaN,0.012,8.031e5,60.748,2.33e-4,0.691,0.001,0.355,0.215,0.12,NaN,NaN,NaN,NaN,NaN,NaN,NaN,NaN,1.022e-5,165,213.825,84,0,4.102,15,1013.25,340.389,0.01,0.041
0.93,-3.643e-4,-0.073,-7.286,0.073,7.326,-3.829e-5,0,3.829e-5,180,0.008,0.766,22.175,120.893,9.788,85.027,0,0,0,2.798e4,1.348e4,19.956,0.106,NaN,2019.615,NaN,0.012,7.97e5,67.387,2.331e-4,0.691,0.001,0.356,0.215,0.12,NaN,NaN,NaN,NaN,NaN,NaN,NaN,NaN,9.903e-6,165,213.825,84,0,4.071,15,1013.25,340.389,0.01,0.042
0.94,-3.499e-4,-0.07,-6.999,0.07,7.037,-3.678e-5,0,3.678e-5,180,0.007,0.736,22.175,120.893,9.788,84.994,0,0,0,2.798e4,1.348e4,19.956,0.106,NaN,2019.586,NaN,0.012,7.909e5,75.455,2.342e-4,0.692,0.001,0.357,0.215,0.12,NaN,NaN,NaN,NaN,NaN,NaN,NaN,NaN,9.513e-6,165,213.825,84,0,4.039,15,1013.25,340.389,0.01,0.042
0.95,-3.337e-4,-0.067,-6.674,0.067,6.71,-3.507e-5,0,3.507e-5,180,0.007,0.701,22.175,120.893,9.788,84.956,0,0,0,2.798e4,1.348e4,19.955,0.106,NaN,2019.554,NaN,0.012,7.848e5,84.603,2.362e-4,0.692,0.001,0.357,0.215,0.12,NaN,NaN,NaN,NaN,NaN,NaN,NaN,NaN,9.071e-6,165,213.825,84,0,4.008,15,1013.25,340.389,0.01,0.042
0.96,-3.135e-4,-0.063,-6.271,0.063,6.305,-3.295e-5,0,3.295e-5,180,0.007,0.659,22.175,120.893,9.788,84.893,0,0,0,2.798e4,1.348e4,19.954,0.106,NaN,2019.517,NaN,0.012,7.893e5,95.934,2.476e-4,0.692,0.001,0.357,0.215,0.12,NaN,NaN,NaN,NaN,NaN,NaN,NaN,NaN,8.523e-6,165,213.825,84,0,4.031,15,1013.25,340.389,0.01,0.042
0.97,-2.933e-4,-0.059,-5.865,0.059,5.898,-3.082e-5,0,3.082e-5,180,0.006,0.616,22.175,120.893,9.788,84.83,0,0,0,2.798e4,1.348e4,19.954,0.106,NaN,2019.476,NaN,0.012,7.938e5,107.326,2.594e-4,0.691,0.001,0.356,0.215,0.12,NaN,NaN,NaN,NaN,NaN,NaN,NaN,NaN,7.972e-6,165,213.825,84,0,4.053,15,1013.25,340.389,0.01,0.043
0.98,-2.671e-4,-0.053,-5.342,0.054,5.372,-2.808e-5,0,2.808e-5,180,0.006,0.561,22.175,120.893,9.788,84.752,0,0,0,2.797e4,1.347e4,19.953,0.106,NaN,2019.43,NaN,0.012,7.983e5,122.033,2.741e-4,0.691,0.001,0.356,0.215,0.12,NaN,NaN,NaN,NaN,NaN,NaN,NaN,NaN,7.261e-6,165,213.825,84,0,4.076,15,1013.25,340.389,0.01,0.043
0.99,-2.333e-4,-0.047,-4.667,0.047,4.692,-2.453e-5,0,2.453e-5,180,0.005,0.49,22.175,120.893,9.788,84.653,0,0,0,2.797e4,1.347e4,19.952,0.106,NaN,2019.376,NaN,0.012,8.029e5,141.022,2.927e-4,0.691,0.001,0.355,0.215,0.12,NaN,NaN,NaN,NaN,NaN,NaN,NaN,NaN,6.343e-6,165,213.825,84,0,4.099,15,1013.25,340.389,0.01,0.043
1,-1.839e-4,-0.037,-3.678,0.037,3.699,-1.933e-5,0,1.933e-5,180,0.004,0.387,22.175,120.893,9.788,84.512,0,0,0,2.797e4,1.347e4,19.951,0.106,NaN,2019.312,NaN,0.012,8.075e5,168.795,3.195e-4,0.69,0.001,0.355,0.215,0.12,NaN,NaN,NaN,NaN,NaN,NaN,NaN,NaN,5e-6,165,213.825,84,0,4.121,15,1013.25,340.389,0.01,0.043
1.01,-1.138e-4,-0.023,-2.275,0.023,2.288,-1.196e-5,0,1.196e-5,180,0.002,0.239,22.175,120.893,9.788,84.319,0,0,0,2.796e4,1.346e4,19.949,0.106,NaN,2019.232,NaN,0.012,8.007e5,208.221,3.479e-4,0.691,0.002,0.356,0.215,0.12,NaN,NaN,NaN,NaN,NaN,NaN,NaN,NaN,3.094e-6,165,213.825,84,0,4.085,15,1013.25,340.389,0.01,0.043
1.02,-4.855e-5,-0.01,-0.97,0.01,0.975,-5.103e-6,0,5.103e-6,180,0.001,0.102,22.175,120.893,9.788,84.137,0,0,0,2.796e4,1.346e4,19.948,0.106,NaN,2019.139,NaN,0.012,7.939e5,244.886,3.756e-4,0.691,0.002,0.356,0.215,0.12,NaN,NaN,NaN,NaN,NaN,NaN,NaN,NaN,1.32e-6,165,213.825,84,0,4.049,15,1013.25,340.389,0.01,0.044
1.03,2.205e-5,0.004,0.442,0.004,0.445,2.317e-6,0,2.317e-6,0,4.638e-4,0.046,22.175,120.893,9.788,83.937,0,0,0,2.795e4,1.345e4,19.946,0.106,NaN,2019.03,NaN,0.012,7.871e5,284.538,4.078e-4,0.692,0.002,0.357,0.215,0.12,NaN,NaN,NaN,NaN,NaN,NaN,NaN,NaN,5.997e-7,165,213.825,84,0,4.013,15,1013.25,340.389,0.01,0.044
1.04,1.641e-4,0.024,1.96,0.024,1.971,1.725e-5,0,1.725e-5,0,0.003,0.206,22.175,120.893,9.788,83.654,0,0,0,2.795e4,1.345e4,19.943,0.106,NaN,2018.905,NaN,0.012,7.804e5,327.142,4.586e-4,0.693,0.002,0.357,0.215,0.12,NaN,NaN,NaN,NaN,NaN,NaN,NaN,NaN,3.263e-6,165,213.825,84,0,3.977,15,1013.25,340.389,0.01,0.044
1.05,5.833e-4,0.06,3.585,0.06,3.604,6.13e-5,0,6.13e-5,0,0.006,0.377,22.175,120.893,9.788,83.131,0,0,0,2.794e4,1.344e4,19.941,0.106,NaN,2018.763,NaN,0.012,7.741e5,372.693,5.694e-4,0.693,0.003,0.358,0.215,0.12,NaN,NaN,NaN,NaN,NaN,NaN,NaN,NaN,8.133e-6,165,213.825,84,0,3.941,15,1013.25,340.389,0.01,0.044
1.06,0.001,0.115,5.563,0.116,5.594,1.534e-4,0,1.534e-4,0,0.012,0.585,22.175,120.893,9.788,82.306,0,0,0,2.793e4,1.343e4,19.938,0.106,NaN,2018.599,NaN,0.011,7.657e5,428.171,7.77e-4,0.694,0.004,0.359,0.215,0.12,NaN,NaN,NaN,NaN,NaN,NaN,NaN,NaN,1.569e-5,165,213.825,84,0,3.891,15,1013.25,340.389,0.01,0.045
1.07,0.003,0.191,7.517,0.192,7.558,3.142e-4,0,3.142e-4,0,0.02,0.79,22.175,120.893,9.788,81.174,0,0,0,2.792e4,1.342e4,19.935,0.106,NaN,2018.415,NaN,0.011,7.581e5,482.882,0.001,0.695,0.006,0.36,0.215,0.12,NaN,NaN,NaN,NaN,NaN,NaN,NaN,NaN,2.59e-5,165,213.825,84,0,3.841,15,1013.25,340.389,0.01,0.045
1.08,0.005,0.288,9.758,0.29,9.812,5.658e-4,0,5.658e-4,0,0.03,1.026,22.175,120.893,9.788,79.688,0,0,0,2.791e4,1.341e4,19.931,0.106,NaN,2018.206,NaN,0.011,7.515e5,545.617,0.002,0.695,0.009,0.36,0.215,0.12,NaN,NaN,NaN,NaN,NaN,NaN,NaN,NaN,3.916e-5,165,213.825,84,0,3.791,15,1013.249,340.389,0.01,0.045
1.09,0.009,0.411,12.305,0.413,12.372,9.333e-4,0,9.333e-4,0,0.043,1.293,22.175,120.893,9.788,77.799,0,0,0,2.79e4,1.34e4,19.927,0.106,NaN,2017.969,NaN,0.011,7.465e5,616.859,0.003,0.696,0.015,0.361,0.215,0.12,NaN,NaN,NaN,NaN,NaN,NaN,NaN,NaN,5.588e-5,165,213.825,84,0,3.741,15,1013.249,340.389,0.01,0.045
1.1,0.014,0.563,15.219,0.566,15.303,0.001,0,0.001,0,0.059,1.6,22.175,120.893,9.788,75.458,0,0,0,2.789e4,1.339e4,19.922,0.106,NaN,2017.702,NaN,0.011,7.437e5,698.307,0.005,0.696,0.024,0.361,0.215,0.12,NaN,NaN,NaN,NaN,NaN,NaN,NaN,NaN,7.656e-5,165,213.825,84,0,3.691,15,1013.248,340.389,0.01,0.045
1.11,0.02,0.746,18.289,0.75,18.39,0.002,0,0.002,0,0.078,1.922,22.175,120.893,9.788,72.948,0,0,0,2.788e4,1.338e4,19.917,0.106,NaN,2017.401,NaN,0.011,7.632e5,784.022,0.008,0.694,0.038,0.359,0.215,0.12,NaN,NaN,NaN,NaN,NaN,NaN,NaN,NaN,1.014e-4,165,213.825,84,0,3.741,15,1013.248,340.389,0.01,0.046
1.12,0.029,0.96,21.44,0.966,21.558,0.003,0,0.003,0,0.101,2.253,22.175,120.893,9.788,70.14,0,0,0,2.786e4,1.336e4,19.911,0.106,NaN,2017.066,NaN,0.012,7.863e5,871.849,0.012,0.692,0.058,0.357,0.215,0.12,NaN,NaN,NaN,NaN,NaN,NaN,NaN,NaN,1.305e-4,165,213.825,84,0,3.792,15,1013.247,340.389,0.01,0.046
1.13,0.04,1.207,24.646,1.213,24.781,0.004,0,0.004,0,0.127,2.59,22.175,120.893,9.788,67.087,0,0,0,2.784e4,1.334e4,19.904,0.106,NaN,2016.696,NaN,0.012,8.135e5,961.049,0.019,0.69,0.085,0.354,0.215,0.12,NaN,NaN,NaN,NaN,NaN,NaN,NaN,NaN,1.64e-4,165,213.825,84,0,3.842,15,1013.245,340.389,0.01,0.046
1.14,0.053,1.482,27.565,1.49,27.716,0.006,0,0.006,0,0.156,2.897,22.175,120.893,9.788,63.889,0,0,0,2.782e4,1.332e4,19.897,0.106,NaN,2016.295,NaN,0.013,8.454e5,1042.073,0.029,0.687,0.12,0.352,0.215,0.12,NaN,NaN,NaN,NaN,NaN,NaN,NaN,NaN,2.015e-4,165,213.825,84,0,3.892,15,1013.244,340.389,0.01,0.046
1.15,0.069,1.783,30.093,1.793,30.259,0.007,0,0.007,0,0.187,3.163,22.175,120.893,9.788,60.649,0,0,0,2.78e4,1.33e4,19.889,0.106,NaN,2015.866,NaN,0.013,8.822e5,1112.029,0.043,0.684,0.161,0.349,0.215,0.12,NaN,NaN,NaN,NaN,NaN,NaN,NaN,NaN,2.424e-4,165,213.825,84,0,3.943,15,1013.242,340.389,0.01,0.051
1.16,0.089,2.106,32.29,2.117,32.468,0.009,0,0.009,0,0.221,3.394,22.175,120.893,9.788,57.143,0,0,0,2.778e4,1.328e4,19.881,0.106,NaN,2015.413,NaN,0.014,9.142e5,1172.553,0.061,0.681,0.214,0.346,0.215,0.12,NaN,NaN,NaN,NaN,NaN,NaN,NaN,NaN,2.862e-4,165,213.825,84,0,3.937,14.999,1013.24,340.389,0.01,0.051
1.17,0.112,2.446,34.029,2.459,34.216,0.012,0,0.012,0,0.257,3.577,22.175,120.893,9.788,53.719,0,0,0,2.776e4,1.326e4,19.873,0.105,NaN,2014.941,NaN,0.014,9.513e5,1220.187,0.084,0.679,0.272,0.344,0.215,0.12,NaN,NaN,NaN,NaN,NaN,NaN,NaN,NaN,3.325e-4,165,213.825,84,0,3.932,14.999,1013.237,340.388,0.01,0.057
1.18,0.138,2.799,35.306,2.814,35.5,0.014,0,0.014,0,0.294,3.711,22.175,120.893,9.788,50.45,0,0,0,2.774e4,1.324e4,19.864,0.105,NaN,2014.455,NaN,0.015,9.932e5,1254.818,0.111,0.676,0.332,0.341,0.215,0.12,NaN,NaN,NaN,NaN,NaN,NaN,NaN,NaN,3.804e-4,165,213.825,84,0,3.926,14.999,1013.234,340.388,0.01,0.057
1.19,0.168,3.16,36.107,3.177,36.306,0.018,0,0.018,0,0.332,3.795,22.175,120.893,9.788,47.391,0,0,0,2.771e4,1.321e4,19.855,0.105,NaN,2013.959,NaN,0.016,1.039e6,1276.135,0.144,0.673,0.391,0.338,0.215,0.12,NaN,NaN,NaN,NaN,NaN,NaN,NaN,NaN,4.295e-4,165,213.825,84,0,3.921,14.999,1013.23,340.388,0.01,0.057
1.2,0.201,3.526,36.66,3.546,36.862,0.021,0,0.021,0,0.371,3.853,22.175,120.893,9.788,44.557,0,0,0,2.769e4,1.319e4,19.846,0.105,NaN,2013.458,NaN,0.016,1.088e6,1290.479,0.181,0.67,0.448,0.334,0.215,0.12,NaN,NaN,NaN,NaN,NaN,NaN,NaN,NaN,4.793e-4,165,213.825,84,0,3.916,14.999,1013.226,340.388,0.01,0.057
1.21,0.238,3.896,36.966,3.917,37.169,0.025,0,0.025,0,0.409,3.885,22.175,120.893,9.788,41.813,0,0,0,2.767e4,1.317e4,19.837,0.105,NaN,2012.952,NaN,0.017,1.138e6,1297.933,0.222,0.667,0.504,0.332,0.215,0.12,NaN,NaN,NaN,NaN,NaN,NaN,NaN,NaN,5.295e-4,165,213.825,84,0,3.889,14.998,1013.222,340.388,0.01,0.058
1.22,0.279,4.266,37.025,4.289,37.229,0.029,0,0.029,0,0.448,3.891,22.175,120.893,9.788,39.299,0,0,0,2.764e4,1.314e4,19.828,0.105,NaN,2012.446,NaN,0.018,1.189e6,1298.512,0.267,0.664,0.554,0.329,0.215,0.12,NaN,NaN,NaN,NaN,NaN,NaN,NaN,NaN,5.798e-4,165,213.825,84,0,3.862,14.998,1013.217,340.388,0.01,0.058
1.23,0.324,4.636,37.067,4.662,37.271,0.034,0,0.034,0,0.487,3.896,22.175,120.893,9.788,36.995,0,0,0,2.762e4,1.312e4,19.819,0.105,NaN,2011.938,NaN,0.019,1.243e6,1298.633,0.315,0.661,0.599,0.326,0.215,0.12,NaN,NaN,NaN,NaN,NaN,NaN,NaN,NaN,6.301e-4,165,213.825,84,0,3.835,14.998,1013.212,340.388,0.01,0.059
1.24,0.372,5.006,36.973,5.033,37.177,0.039,0,0.039,0,0.526,3.886,22.175,120.893,9.788,34.89,0,0,0,2.76e4,1.31e4,19.81,0.105,NaN,2011.431,NaN,0.019,1.299e6,1294.965,0.367,0.658,0.639,0.323,0.215,0.12,NaN,NaN,NaN,NaN,NaN,NaN,NaN,NaN,6.804e-4,165,213.825,84,0,3.808,14.998,1013.206,340.387,0.01,0.059
1.25,0.424,5.374,36.887,5.404,37.09,0.045,0,0.045,0,0.565,3.877,22.175,120.893,9.788,32.964,0,0,0,2.757e4,1.307e4,19.801,0.105,NaN,2010.925,NaN,0.02,1.356e6,1291.53,0.421,0.656,0.673,0.32,0.215,0.12,NaN,NaN,NaN,NaN,NaN,NaN,NaN,NaN,7.305e-4,165,213.825,84,0,3.782,14.997,1013.2,340.387,0.01,0.059
1.26,0.479,5.742,36.799,5.774,37.002,0.05,0,0.05,0,0.604,3.868,22.175,120.893,9.788,31.569,0,0,0,2.755e4,1.305e4,19.792,0.105,NaN,2010.419,NaN,0.021,1.421e6,1288.052,0.478,0.653,0.696,0.318,0.215,0.12,NaN,NaN,NaN,NaN,NaN,NaN,NaN,NaN,7.805e-4,165,213.825,84,0,3.814,14.997,1013.194,340.387,0.01,0.059
1.27,0.538,6.109,36.687,6.142,36.889,0.057,0,0.057,0,0.642,3.856,22.175,120.893,9.788,30.301,0,0,0,2.753e4,1.303e4,19.783,0.105,NaN,2009.914,NaN,0.022,1.486e6,1283.912,0.538,0.65,0.715,0.315,0.215,0.12,NaN,NaN,NaN,NaN,NaN,NaN,NaN,NaN,8.303e-4,165,213.825,84,0,3.845,14.997,1013.187,340.387,0.01,0.059
1.28,0.601,6.475,36.653,6.511,36.855,0.063,0,0.063,0,0.681,3.852,22.175,120.893,9.788,29.142,0,0,0,2.75e4,1.3e4,19.774,0.105,NaN,2009.409,NaN,0.023,1.553e6,1281.967,0.6,0.647,0.731,0.312,0.215,0.12,NaN,NaN,NaN,NaN,NaN,NaN,NaN,NaN,8.801e-4,165,213.825,84,0,3.877,14.996,1013.179,340.387,0.01,0.06
1.29,0.668,6.841,36.57,6.878,36.772,0.07,0,0.07,0,0.719,3.844,22.175,120.893,9.788,28.081,0,0,0,2.748e4,1.298e4,19.765,0.105,NaN,2008.904,NaN,0.024,1.62e6,1278.651,0.665,0.645,0.745,0.31,0.215,0.12,NaN,NaN,NaN,NaN,NaN,NaN,NaN,NaN,9.298e-4,165,213.825,84,0,3.909,14.996,1013.172,340.386,0.01,0.066
1.3,0.738,7.206,36.528,7.245,36.73,0.078,0,0.078,0,0.757,3.839,22.175,120.893,9.788,27.106,0,0,0,2.746e4,1.296e4,19.756,0.105,NaN,2008.399,NaN,0.025,1.687e6,1276.485,0.733,0.643,0.756,0.307,0.215,0.12,NaN,NaN,NaN,NaN,NaN,NaN,NaN,NaN,9.794e-4,165,213.825,84,0,3.941,14.995,1013.163,340.386,0.01,0.066
1.31,0.812,7.571,36.523,7.612,36.724,0.085,0,0.085,0,0.796,3.839,22.175,120.893,9.788,26.018,0,0,0,2.743e4,1.293e4,19.747,0.105,NaN,2007.894,NaN,0.026,1.751e6,1275.318,0.802,0.64,0.768,0.305,0.215,0.12,NaN,NaN,NaN,NaN,NaN,NaN,NaN,NaN,0.001,165,213.825,84,0,3.938,14.995,1013.155,340.386,0.01,0.067
1.32,0.89,7.936,36.494,7.979,36.695,0.093,0,0.093,0,0.834,3.836,22.175,120.893,9.788,25.008,0,0,0,2.741e4,1.291e4,19.738,0.105,NaN,2007.388,NaN,0.027,1.816e6,1273.528,0.874,0.638,0.778,0.303,0.215,0.12,NaN,NaN,NaN,NaN,NaN,NaN,NaN,NaN,0.001,165,213.825,84,0,3.936,14.994,1013.146,340.385,0.01,0.067
1.33,0.971,8.301,36.544,8.347,36.745,0.102,0,0.102,0,0.872,3.841,22.175,120.893,9.788,24.066,0,0,0,2.739e4,1.289e4,19.729,0.105,NaN,2006.882,NaN,0.028,1.881e6,1273.891,0.948,0.636,0.787,0.301,0.215,0.12,NaN,NaN,NaN,NaN,NaN,NaN,NaN,NaN,0.001,165,213.825,84,0,3.933,14.994,1013.136,340.385,0.01,0.067
1.34,1.056,8.666,36.52,8.714,36.721,0.111,0,0.111,0,0.911,3.838,22.175,120.893,9.788,23.188,0,0,0,2.736e4,1.286e4,19.72,0.105,NaN,2006.376,NaN,0.029,1.947e6,1272.247,1.023,0.635,0.793,0.299,0.215,0.12,NaN,NaN,NaN,NaN,NaN,NaN,NaN,NaN,0.001,165,213.825,84,0,3.93,14.993,1013.126,340.385,0.01,0.067
1.35,1.144,9.031,36.53,9.081,36.731,0.12,0,0.12,0,0.949,3.839,22.175,120.893,9.788,22.368,0,0,0,2.734e4,1.284e4,19.711,0.105,NaN,2005.868,NaN,0.03,2.013e6,1271.517,1.101,0.633,0.798,0.297,0.215,0.12,NaN,NaN,NaN,NaN,NaN,NaN,NaN,NaN,0.001,165,213.825,84,0,3.927,14.993,1013.116,340.384,0.01,0.068
1.36,1.236,9.396,36.567,9.448,36.768,0.13,0,0.13,0,0.988,3.843,22.175,120.893,9.788,21.206,0,0,0,2.732e4,1.282e4,19.702,0.105,NaN,2005.361,NaN,0.031,2.072e6,1271.539,1.177,0.631,0.805,0.296,0.215,0.12,NaN,NaN,NaN,NaN,NaN,NaN,NaN,NaN,0.001,165,213.825,84,0,3.843,14.992,1013.105,340.384,0.01,0.068
1.37,1.332,9.762,36.583,9.816,36.785,0.14,0,0.14,0,1.026,3.845,22.175,120.893,9.788,20.109,0,0,0,2.729e4,1.279e4,19.693,0.105,NaN,2004.852,NaN,0.032,2.132e6,1270.983,1.254,0.63,0.81,0.294,0.215,0.12,NaN,NaN,NaN,NaN,NaN,NaN,NaN,NaN,0.001,165,213.825,84,0,3.758,14.991,1013.094,340.384,0.01,0.068
1.38,1.431,10.129,36.699,10.185,36.901,0.15,0,0.15,0,1.065,3.857,22.175,120.893,9.788,19.07,0,0,0,2.727e4,1.277e4,19.684,0.105,NaN,2004.342,NaN,0.033,2.193e6,1273.167,1.331,0.628,0.813,0.293,0.215,0.12,NaN,NaN,NaN,NaN,NaN,NaN,NaN,NaN,0.001,165,213.825,84,0,3.674,14.991,1013.082,340.383,0.01,0.068
1.39,1.535,10.496,36.74,10.554,36.942,0.161,0,0.161,0,1.103,3.862,22.175,120.893,9.788,18.087,0,0,0,2.725e4,1.275e4,19.675,0.105,NaN,2003.83,NaN,0.034,2.255e6,1273.278,1.408,0.627,0.813,0.291,0.215,0.12,NaN,NaN,NaN,NaN,NaN,NaN,NaN,NaN,0.001,165,213.825,84,0,3.589,14.99,1013.07,340.383,0.01,0.069
1.4,1.641,10.864,36.827,10.924,37.03,0.173,0,0.173,0,1.142,3.871,22.175,120.893,9.788,17.156,0,0,0,2.723e4,1.273e4,19.666,0.105,NaN,2003.318,NaN,0.035,2.317e6,1274.663,1.486,0.625,0.813,0.29,0.215,0.12,NaN,NaN,NaN,NaN,NaN,NaN,NaN,NaN,0.001,165,213.825,84,0,3.505,14.989,1013.057,340.382,0.01,0.069
1.41,1.752,11.233,36.934,11.295,37.138,0.184,0,0.184,0,1.181,3.882,22.175,120.893,9.788,16.434,0,0,0,2.72e4,1.27e4,19.657,0.105,NaN,2002.803,NaN,0.036,2.383e6,1276.588,1.567,0.624,0.81,0.288,0.215,0.12,NaN,NaN,NaN,NaN,NaN,NaN,NaN,NaN,0.002,165,213.825,84,0,3.457,14.989,1013.045,340.382,0.01,0.07
1.42,1.866,11.603,37.002,11.667,37.206,0.196,0,0.196,0,1.22,3.889,22.175,120.893,9.788,15.75,0,0,0,2.718e4,1.268e4,19.648,0.105,NaN,2002.288,NaN,0.037,2.45e6,1277.444,1.65,0.623,0.807,0.288,0.215,0.12,NaN,NaN,NaN,NaN,NaN,NaN,NaN,NaN,0.002,165,213.825,84,0,3.41,14.988,1013.031,340.382,0.01,0.07
1.43,1.984,11.974,37.138,12.04,37.343,0.209,0,0.209,0,1.259,3.903,22.175,120.893,9.788,15.102,0,0,0,2.716e4,1.266e4,19.639,0.105,NaN,2001.77,NaN,0.038,2.517e6,1280.14,1.734,0.623,0.804,0.288,0.215,0.12,NaN,NaN,NaN,NaN,NaN,NaN,NaN,NaN,0.002,165,213.825,84,0,3.362,14.987,1013.017,340.381,0.01,0.071
1.44,2.106,12.346,37.195,12.414,37.4,0.221,0,0.221,0,1.298,3.909,22.175,120.893,9.788,14.486,0,0,0,2.713e4,1.263e4,19.629,0.105,NaN,2001.252,NaN,0.039,2.584e6,1280.681,1.818,0.623,0.799,0.288,0.215,0.12,NaN,NaN,NaN,NaN,NaN,NaN,NaN,NaN,0.002,165,213.825,84,0,3.315,14.986,1013.003,340.381,0.01,0.071
1.45,2.231,12.719,37.304,12.789,37.51,0.234,0,0.234,0,1.337,3.921,22.175,120.893,9.788,13.9,0,0,0,2.711e4,1.261e4,19.62,0.105,NaN,2000.731,NaN,0.04,2.652e6,1282.653,1.902,0.623,0.794,0.288,0.215,0.12,NaN,NaN,NaN,NaN,NaN,NaN,NaN,NaN,0.002,165,213.825,84,0,3.268,14.985,1012.988,340.38,0.01,0.071
1.46,2.36,13.093,37.422,13.165,37.629,0.248,0,0.248,0,1.376,3.933,22.175,120.893,9.788,13.615,0,0,0,2.709e4,1.259e4,19.611,0.104,NaN,2000.209,NaN,0.041,2.725e6,1284.861,2.001,0.623,0.791,0.288,0.215,0.12,NaN,NaN,NaN,NaN,NaN,NaN,NaN,NaN,0.002,165,213.825,84,0,3.29,14.985,1012.973,340.38,0.01,0.071
1.47,2.493,13.468,37.475,13.542,37.682,0.262,0,0.262,0,1.416,3.939,22.175,120.893,9.788,13.345,0,0,0,2.706e4,1.256e4,19.602,0.104,NaN,1999.686,NaN,0.042,2.799e6,1285.292,2.102,0.623,0.788,0.288,0.215,0.12,NaN,NaN,NaN,NaN,NaN,NaN,NaN,NaN,0.002,165,213.825,84,0,3.313,14.984,1012.958,340.379,0.01,0.072
1.48,2.629,13.843,37.597,13.92,37.804,0.276,0,0.276,0,1.455,3.952,22.175,120.893,9.788,13.086,0,0,0,2.704e4,1.254e4,19.592,0.104,NaN,1999.161,NaN,0.043,2.872e6,1287.587,2.206,0.623,0.785,0.288,0.215,0.12,NaN,NaN,NaN,NaN,NaN,NaN,NaN,NaN,0.002,165,213.825,84,0,3.335,14.983,1012.942,340.379,0.01,0.072
1.49,2.77,14.22,37.643,14.298,37.85,0.291,0,0.291,0,1.495,3.956,22.175,120.893,9.788,12.841,0,0,0,2.702e4,1.252e4,19.583,0.104,NaN,1998.635,NaN,0.044,2.946e6,1287.832,2.312,0.623,0.782,0.288,0.215,0.12,NaN,NaN,NaN,NaN,NaN,NaN,NaN,NaN,0.002,165,213.825,84,0,3.358,14.982,1012.925,340.378,0.01,0.072
1.5,2.914,14.597,37.713,14.677,37.921,0.306,0,0.306,0,1.534,3.964,22.175,120.893,9.788,12.607,0,0,0,2.699e4,1.249e4,19.574,0.104,NaN,1998.108,NaN,0.045,3.02e6,1288.735,2.421,0.623,0.779,0.288,0.215,0.12,NaN,NaN,NaN,NaN,NaN,NaN,NaN,NaN,0.002,165,213.825,84,0,3.38,14.981,1012.908,340.377,0.01,0.073
1.51,3.062,14.974,37.796,15.057,38.004,0.322,0,0.322,0,1.574,3.972,22.175,120.893,9.788,12.053,0,0,0,2.697e4,1.247e4,19.564,0.104,NaN,1997.579,NaN,0.046,3.088e6,1289.948,2.508,0.623,0.772,0.288,0.215,0.12,NaN,NaN,NaN,NaN,NaN,NaN,NaN,NaN,0.002,165,213.825,84,0,3.307,14.98,1012.891,340.377,0.01,0.073
1.52,3.213,15.352,37.813,15.437,38.021,0.338,0,0.338,0,1.614,3.974,22.175,120.893,9.788,11.523,0,0,0,2.695e4,1.244e4,19.555,0.104,NaN,1997.049,NaN,0.047,3.157e6,1289.376,2.595,0.623,0.765,0.288,0.215,0.12,NaN,NaN,NaN,NaN,NaN,NaN,NaN,NaN,0.002,165,213.825,84,0,3.234,14.979,1012.873,340.376,0.01,0.073
1.53,3.369,15.732,37.954,15.818,38.163,0.354,0,0.354,0,1.653,3.989,22.175,120.893,9.788,11.014,0,0,0,2.692e4,1.242e4,19.546,0.104,NaN,1996.518,NaN,0.048,3.226e6,1292.164,2.683,0.623,0.757,0.288,0.215,0.12,NaN,NaN,NaN,NaN,NaN,NaN,NaN,NaN,0.002,165,213.825,84,0,3.16,14.978,1012.855,340.376,0.01,0.073
1.54,3.528,16.112,38.025,16.2,38.235,0.371,0,0.371,0,1.693,3.997,22.175,120.893,9.788,10.527,0,0,0,2.69e4,1.24e4,19.536,0.104,NaN,1995.985,NaN,0.049,3.295e6,1293.051,2.773,0.623,0.75,0.288,0.215,0.12,NaN,NaN,NaN,NaN,NaN,NaN,NaN,NaN,0.002,165,213.825,84,0,3.087,14.977,1012.836,340.375,0.01,0.074
1.55,3.691,16.493,38.132,16.584,38.342,0.388,0,0.388,0,1.733,4.008,22.175,120.893,9.788,10.059,0,0,0,2.687e4,1.237e4,19.527,0.104,NaN,1995.451,NaN,0.05,3.365e6,1294.89,2.863,0.623,0.742,0.288,0.215,0.12,NaN,NaN,NaN,NaN,NaN,NaN,NaN,NaN,0.002,165,213.825,84,0,3.014,14.976,1012.817,340.374,0.01,0.074
1.56,3.858,16.875,38.256,16.968,38.467,0.405,0,0.405,0,1.774,4.021,22.175,120.893,9.788,10.027,0,0,0,2.685e4,1.235e4,19.517,0.104,NaN,1994.914,NaN,0.052,3.442e6,1297.251,2.994,0.623,0.742,0.288,0.215,0.12,NaN,NaN,NaN,NaN,NaN,NaN,NaN,NaN,0.002,165,213.825,84,0,3.074,14.975,1012.798,340.374,0.01,0.074
1.57,4.028,17.258,38.276,17.353,38.487,0.423,0,0.423,0,1.814,4.023,22.175,120.893,9.788,9.996,0,0,0,2.683e4,1.233e4,19.508,0.104,NaN,1994.377,NaN,0.053,3.52e6,1296.778,3.129,0.624,0.741,0.288,0.215,0.12,NaN,NaN,NaN,NaN,NaN,NaN,NaN,NaN,0.002,165,213.825,84,0,3.134,14.974,1012.778,340.373,0.01,0.075
1.585,4.292,17.832,38.339,17.932,38.617,0.451,1.137e-8,0.451,1.444e-6,1.883,4.63,22.175,120.893,9.788,9.98,0,0.041,-8.066e-6,2.679e4,1.229e4,19.493,0.104,2079.414,1993.568,0.52,0.054,3.637e6,1298.654,3.339,0.624,0.741,0.288,0.215,0.12,2.52,1.311,4.273e-4,0,0,0,0,5.711e-6,0.002,165,213.825,84,3.458e-7,3.223,14.972,1012.747,340.372,0.015,0.075
1.608,4.702,18.699,38.543,18.804,38.819,0.495,7.235e-8,0.495,8.38e-6,1.988,4.622,22.175,120.893,9.788,9.782,0,0.11,8.137e-7,2.674e4,1.224e4,19.472,0.104,2082.224,1992.348,0.545,0.057,3.809e6,1301.804,3.648,0.624,0.738,0.288,0.215,0.12,2.458,1.339,8.659e-5,0,0,0,0,3.649e-5,0.003,165,213.825,83.998,1.07e-6,3.298,14.969,1012.698,340.37,0.023,0.075
1.641,5.356,20.008,38.882,20.123,39.159,0.564,2.681e-7,0.564,2.721e-5,2.144,4.648,22.175,120.893,9.788,9.032,0,0.228,1.605e-6,2.666e4,1.216e4,19.439,0.104,2093.178,1990.501,0.622,0.061,4.062e6,1307.398,4.079,0.624,0.726,0.288,0.215,0.12,2.223,1.383,-5.484e-5,0,0,0,0,1.387e-4,0.003,165,213.825,83.992,-1.098e-6,3.232,14.965,1012.622,340.368,0.034,0.076
1.691,6.405,21.968,39.308,22.097,39.579,0.677,8.052e-7,0.677,6.81e-5,2.377,4.623,22.175,120.893,9.788,8.841,0,0.438,-4.412e-5,2.654e4,1.204e4,19.39,0.104,2096.074,1987.731,0.657,0.067,4.456e6,1313.533,4.889,0.624,0.723,0.288,0.215,0.121,2.165,1.422,-4.502e-4,0,0,0,0,4.273e-4,0.003,165,213.825,83.976,2.95e-6,3.454,14.958,1012.499,340.364,0.05,0.076
1.741,7.553,23.958,39.889,24.1,40.158,0.802,1.664e-6,0.802,1.189e-4,2.609,4.643,22.175,120.893,9.788,8.416,0,0.698,5.132e-6,2.642e4,1.192e4,19.34,0.104,2102.628,1984.915,0.713,0.073,4.85e6,1323.765,5.738,0.624,0.716,0.288,0.216,0.121,2.037,1.452,-5.246e-5,0,0,0,0,9.13e-4,0.003,165,213.825,83.948,1.773e-6,3.572,14.951,1012.364,340.359,0.05,0.076
1.791,8.802,25.979,40.518,26.134,40.789,0.938,2.874e-6,0.938,1.754e-4,2.844,4.693,22.175,120.893,9.788,7.889,0,1.008,-7.107e-5,2.63e4,1.18e4,19.29,0.103,2110.973,1982.048,0.781,0.079,5.247e6,1335.184,6.638,0.624,0.708,0.288,0.216,0.121,1.881,1.468,2.651e-4,0,0,0,0,0.002,0.004,165,213.825,83.905,1.922e-6,3.626,14.943,1012.218,340.354,0.05,0.076
1.841,10.152,28.033,41.19,28.202,41.468,1.087,4.462e-6,1.087,2.353e-4,3.082,4.788,22.175,120.893,9.788,7.225,0,1.372,6.794e-5,2.617e4,1.167e4,19.238,0.103,2121.905,1979.127,0.865,0.085,5.647e6,1347.677,7.573,0.624,0.697,0.288,0.216,0.121,1.69,1.46,-4.385e-4,0,0,0,0,0.003,0.004,165,213.825,83.846,-5.986e-6,3.586,14.934,1012.059,340.349,0.05,0.077
1.891,11.606,30.128,41.995,30.311,42.275,1.247,6.455e-6,1.247,2.966e-4,3.325,4.853,22.175,120.893,9.788,7.081,0,1.793,1.682e-4,2.605e4,1.155e4,19.185,0.103,2124.378,1976.143,0.898,0.091,6.066e6,1363.475,8.715,0.625,0.695,0.288,0.216,0.121,1.65,1.478,-2.155e-4,0,0,0,0,0.004,0.004,165,213.825,83.767,-3.252e-5,3.805,14.925,1011.889,340.343,0.05,0.077
1.941,13.165,32.256,42.653,32.453,42.942,1.419,8.875e-6,1.419,3.583e-4,3.571,4.973,22.175,120.893,9.788,6.61,0,2.283,4.577e-5,2.593e4,1.143e4,19.132,0.103,2132.525,1973.105,0.966,0.097,6.484e6,1375.364,9.853,0.625,0.688,0.288,0.216,0.121,1.519,1.462,-8.688e-5,0,0,0,0,0.005,0.004,165,213.825,83.665,-6.222e-5,3.843,14.914,1011.706,340.337,0.05,0.077
1.991,14.832,34.42,43.396,34.632,43.7,1.604,1.174e-5,1.604,4.192e-4,3.826,5.141,22.175,120.893,9.788,6.116,0,2.829,2.346e-4,2.58e4,1.13e4,19.077,0.103,2141.336,1970.006,1.038,0.104,6.909e6,1389.417,11.066,0.625,0.68,0.288,0.216,0.121,1.384,1.43,-3.808e-4,0,0,0,0,0.007,0.005,165,213.825,83.538,-1.141e-4,3.855,14.904,1011.51,340.33,0.05,0.078
2.041,16.608,36.634,44.387,36.862,44.704,1.802,1.506e-5,1.802,4.787e-4,4.089,5.314,22.175,120.893,9.788,5.948,0,3.443,2.272e-4,2.567e4,1.117e4,19.021,0.102,2144.448,1966.831,1.076,0.11,7.352e6,1409.711,12.49,0.625,0.678,0.288,0.216,0.122,1.34,1.433,2.884e-5,0,0,0,0,0.01,0.005,165,213.825,83.381,-1.705e-4,4.077,14.892,1011.302,340.323,0.05,0.078
2.091,18.497,38.892,45.256,39.136,45.593,2.013,1.884e-5,2.013,5.361e-4,4.362,5.527,22.175,120.893,9.788,5.687,0,4.139,3.12e-4,2.554e4,1.104e4,18.964,0.102,2149.321,1963.584,1.126,0.117,7.802e6,1426.753,13.993,0.625,0.674,0.287,0.216,0.122,1.271,1.418,4.164e-4,0,0,0,0,0.012,0.005,165,213.825,83.192,-2.281e-4,4.257,14.88,1011.081,340.316,0.05,0.078
2.141,20.498,41.179,45.846,41.44,46.203,2.238,2.309e-5,2.238,5.911e-4,4.644,5.735,22.175,120.893,9.788,5.485,-7.93e-7,4.914,-3.169e-5,2.541e4,1.091e4,18.906,0.102,2153.168,1960.282,1.169,0.124,8.26e6,1436.554,15.626,0.626,0.672,0.287,0.216,0.122,1.218,1.409,-8.704e-5,0,0,0,0,0.016,0.006,165,213.825,82.966,-2.483e-4,4.499,14.867,1010.846,340.308,0.05,0.078
2.191,22.615,43.5,46.51,43.779,46.905,2.478,2.783e-5,2.478,6.435e-4,4.94,6.071,22.175,120.893,9.788,5.02,7.213e-7,5.766,1.916e-4,2.528e4,1.078e4,18.847,0.102,2162.137,1956.918,1.244,0.131,8.717e6,1448.404,17.244,0.626,0.666,0.287,0.217,0.122,1.099,1.348,-4.384e-4,0,0,0,0,0.019,0.006,165,213.825,82.699,-2.442e-4,4.56,14.853,1010.598,340.3,0.05,0.079
2.241,24.849,45.855,47.208,46.155,47.65,2.733,3.308e-5,2.733,6.937e-4,5.256,6.481,22.175,120.893,9.788,4.541,3.855e-7,6.663,2.367e-4,2.515e4,1.065e4,18.787,0.102,2171.655,1953.489,1.322,0.138,9.182e6,1461.178,18.96,0.626,0.66,0.287,0.217,0.122,0.979,1.272,3.006e-4,0,0,0,0,0.023,0.006,165,213.825,82.389,-2.288e-4,4.619,14.838,1010.336,340.291,0.05,0.079
2.291,27.201,48.234,47.666,48.557,48.186,3.004,3.889e-5,3.004,7.418e-4,5.594,7.061,22.175,120.893,9.788,3.637,-1.499e-6,7.57,-1.324e-4,2.501e4,1.051e4,18.726,0.101,2190.434,1950.006,1.457,0.145,9.637e6,1468.288,20.554,0.627,0.649,0.287,0.217,0.123,0.762,1.082,-2.923e-4,0,0,0,0,0.027,0.007,165,213.825,82.033,-1.454e-4,4.31,14.823,1010.06,340.282,0.05,0.079
2.341,29.672,50.614,47.691,50.964,48.291,3.293,4.53e-5,3.293,7.884e-4,5.96,7.594,22.175,120.893,9.788,2.945,-1.274e-6,8.4,2.059e-4,2.488e4,1.038e4,18.664,0.101,2205.638,1946.495,1.571,0.152,1.01e7,1464.702,22.345,0.627,0.642,0.287,0.217,0.123,0.603,0.916,-4.134e-4,0,0,0,0,0.03,0.007,165,213.825,81.634,-5.249e-5,4.163,14.807,1009.77,340.272,0.05,0.079
2.391,32.263,52.995,47.681,53.374,48.369,3.6,5.24e-5,3.6,8.339e-4,6.353,8.133,22.175,120.893,9.788,2.432,1.583e-6,9.183,5.805e-4,2.475e4,1.025e4,18.602,0.101,2217.448,1942.956,1.664,0.159,1.057e7,1460.577,24.32,0.628,0.638,0.287,0.217,0.123,0.489,0.78,-2.714e-4,0,0,0,0,0.033,0.007,165,213.825,81.194,-3.507e-6,4.177,14.79,1009.466,340.262,0.05,0.079
2.441,34.972,55.377,47.706,55.789,48.497,3.928,6.025e-5,3.928,8.788e-4,6.774,8.724,22.175,120.893,9.788,1.967,-7.782e-7,9.907,3.613e-4,2.461e4,1.011e4,18.539,0.101,2228.539,1939.385,1.752,0.166,1.104e7,1457.734,26.424,0.628,0.635,0.287,0.217,0.124,0.389,0.647,4.302e-4,0,0,0,0,0.035,0.008,165,213.825,80.716,6.241e-5,4.242,14.773,1009.148,340.251,0.05,0.08
2.491,37.8,57.738,47.285,58.189,48.214,4.278,6.893e-5,4.278,9.232e-4,7.224,9.418,22.175,120.893,9.788,1.184,3.214e-6,10.498,0.001,2.448e4,9982.7,18.477,0.101,2248,1935.809,1.892,0.173,1.15e7,1444.705,28.487,0.628,0.631,0.287,0.218,0.124,0.228,0.395,-4.002e-4,0,0,0,0,0.037,0.008,165,213.825,80.205,1.912e-4,3.976,14.754,1008.817,340.24,0.05,0.08
2.541,40.746,60.092,47.124,60.585,48.191,4.651,7.856e-5,4.651,9.677e-4,7.711,10.082,22.175,120.893,9.788,0.73,2.639e-6,10.857,0.002,2.435e4,9851.919,18.414,0.1,2259.883,1932.21,1.986,0.18,1.197e7,1438.362,30.809,0.629,0.63,0.287,0.218,0.124,0.138,0.239,-4.647e-4,0,0,0,0,0.036,0.008,165,213.825,79.671,2.913e-4,4.032,14.735,1008.471,340.228,0.05,0.08
2.591,43.809,62.432,46.826,62.972,48.045,5.05,8.925e-5,5.05,0.001,8.23,10.752,22.175,120.893,9.788,0.287,3.235e-7,11.071,0.006,2.422e4,9721.977,18.351,0.1,2271.867,1928.595,2.08,0.187,1.244e7,1429.136,33.249,0.629,0.629,0.287,0.218,0.125,0.053,0.076,-2.961e-4,0,0,0,0,0.035,0.009,165,213.825,79.122,3.086e-4,4.091,14.715,1008.112,340.216,0.05,0.08
2.641,46.989,64.779,46.955,65.372,48.37,5.475,1.011e-4,5.475,0.001,8.789,11.613,22.175,120.893,9.788,0.332,-3.532e-6,-11.043,0.006,2.409e4,9591.843,18.287,0.1,2270.772,1924.936,2.096,0.194,1.29e7,1431.244,35.799,0.63,0.63,0.287,0.218,0.125,0.062,0.162,1.07e-4,0,0,0,0,-0.032,0.009,165,213.825,78.568,3.001e-4,3.918,14.695,1007.739,340.204,0.05,0.08
2.691,50.286,67.126,46.964,67.78,48.588,5.929,1.141e-4,5.929,0.001,9.391,12.455,22.175,120.893,9.788,0.867,3.645e-6,-10.611,0.002,2.396e4,9461.748,18.222,0.1,2256.714,1921.238,2.033,0.201,1.336e7,1430.823,38.535,0.63,0.632,0.287,0.218,0.125,0.165,0.364,6.22e-5,0,0,0,0,-0.028,0.009,165,213.825,78.026,3.308e-4,3.785,14.673,1007.352,340.191,0.05,0.081
2.741,53.702,69.481,47.121,70.202,48.951,6.415,1.284e-4,6.415,0.001,10.035,13.26,22.175,120.893,9.788,1.229,4.758e-6,-9.895,0.001,2.383e4,9331.363,18.157,0.1,2247.562,1917.492,2,0.208,1.384e7,1433.995,41.443,0.631,0.634,0.287,0.219,0.126,0.237,0.498,4.833e-4,0,0,0,0,-0.022,0.009,165,213.825,77.513,3.864e-4,3.795,14.651,1006.952,340.177,0.05,0.081
2.791,57.235,71.854,47.467,72.649,49.489,6.934,1.44e-4,6.934,0.001,10.719,14.002,22.175,120.893,9.788,1.419,1.526e-6,-8.948,0.001,2.37e4,9200.305,18.091,0.099,2242.945,1913.685,1.996,0.216,1.432e7,1441.415,44.497,0.631,0.635,0.287,0.219,0.126,0.276,0.568,-7.749e-6,0,0,0,0,-0.017,0.01,165,213.825,77.041,4.644e-4,3.951,14.628,1006.537,340.163,0.05,0.081
2.841,60.887,74.24,47.753,75.116,49.966,7.487,1.612e-4,7.487,0.001,11.438,14.708,22.175,120.893,9.788,1.616,0,-7.804,0.001,2.357e4,9068.707,18.023,0.099,2238.249,1909.819,1.99,0.223,1.48e7,1447.346,47.686,0.632,0.637,0.286,0.219,0.126,0.317,0.642,4.43e-4,0,0,0,0,-0.012,0.01,165,213.825,76.621,5.265e-4,4.02,14.604,1006.109,340.149,0.05,0.081
2.891,64.659,76.62,47.624,77.583,50.01,8.078,1.801e-4,8.078,0.001,12.187,15.263,22.175,120.893,9.787,1.795,3.633e-6,-6.423,4.04e-6,2.344e4,8937.495,17.955,0.099,2234.047,1905.922,1.989,0.23,1.528e7,1443.113,50.975,0.633,0.638,0.286,0.219,0.127,0.354,0.712,-3.092e-4,0,0,0,0,-0.008,0.01,165,213.825,76.265,5.373e-4,4.014,14.58,1005.667,340.134,0.05,0.082
2.941,68.549,78.986,47.35,80.042,49.89,8.706,2.007e-4,8.706,0.001,12.96,15.716,22.175,120.893,9.787,1.965,3.12e-7,-4.802,9.45e-5,2.331e4,8806.998,17.887,0.099,2230.121,1902.002,1.989,0.237,1.576e7,1435.232,54.343,0.633,0.64,0.286,0.22,0.127,0.39,0.78,-3.111e-4,0,0,0,0,-0.004,0.011,165,213.825,75.984,5.41e-4,3.902,14.554,1005.21,340.119,0.05,0.082
2.991,72.558,81.361,47.553,82.516,50.202,9.374,2.231e-4,9.374,0.001,13.757,16.094,22.175,120.893,9.787,1.988,-2.747e-6,-2.962,0.001,2.318e4,8676.274,17.818,0.099,2229.755,1898.031,2.01,0.245,1.624e7,1437.734,57.785,0.634,0.641,0.286,0.22,0.128,0.395,0.795,2.431e-4,0,0,0,0,-0.001,0.011,165,213.825,75.79,5.316e-4,3.867,14.528,1004.74,340.103,0.05,0.082
3.041,76.686,83.759,48.015,85.017,50.743,10.082,2.474e-4,10.082,0.001,14.572,16.412,22.175,120.893,9.787,1.974,0,-0.997,6.759e-4,2.305e4,8544.831,17.748,0.098,2230.276,1893.993,2.038,0.252,1.672e7,1445.651,61.324,0.634,0.642,0.286,0.22,0.128,0.392,0.8,8.009e-6,0,0,0,0,-1.552e-4,0.012,165,213.825,75.69,5.73e-4,3.744,14.502,1004.256,340.087,0.05,0.083
