# Time (s),Altitude (m),Vertical velocity (m/s),Vertical acceleration (m/s²),Total velocity (m/s),Total acceleration (m/s²),Position East of launch (m),Position North of launch (m),Lateral distance (m),Lateral direction (°),Lateral velocity (m/s),Lateral acceleration (m/s²),Latitude (°),Longitude (°),Gravitational acceleration (m/s²),Angle of attack (°),Roll rate (°/s),Pitch rate (°/s),Yaw rate (°/s),Mass (g),Motor mass (g),Longitudinal moment of inertia (kg·m²),Rotational moment of inertia (kg·m²),CP location (mm),CG location (mm),Stability margin calibers (​),Mach number (​),Reynolds number (​),Thrust (N),Drag force (N),Drag coefficient (​),Axial drag coefficient (​),Friction drag coefficient (​),Pressure drag coefficient (​),Base drag coefficient (​),Normal force coefficient (​),Pitch moment coefficient (​),Yaw moment coefficient (​),Side force coefficient (​),Roll moment coefficient (​),Roll forcing coefficient (​),Roll damping coefficient (​),Pitch damping coefficient (​),Coriolis acceleration (m/s²),Reference length (mm),Reference area (cm²),Vertical orientation (zenith) (°),Lateral orientation (azimuth) (°),Wind velocity (m/s),Air temperature (°C),Air pressure (mbar),Speed of sound (m/s),Simulation time step (s),Computation time (s)
0.01,-4.664e-4,-0.093,-9.324,0.095,9.468,-8.224e-5,0,8.224e-5,180,0.016,1.644,22.175,120.893,9.788,80.901,0,0,0,2.8e4,1.35e4,19.963,0.106,NaN,2019.994,NaN,0.017,1.162e6,4.784,0.003,0.665,0.006,0.33,0.215,0.12,NaN,NaN,NaN,NaN,NaN,NaN,NaN,NaN,1.282e-5,165,213.825,80,0,5.942,15,1013.25,340.389,0.01,0.002
0.02,-4.668e-4,-0.093,-9.336,0.095,9.48,-8.231e-5,0,8.231e-5,180,0.016,1.646,22.175,120.893,9.788,80.901,0,0,0,2.8e4,1.35e4,19.963,0.106,NaN,2019.992,NaN,0.017,1.164e6,4.461,0.003,0.665,0.006,0.33,0.215,0.12,NaN,NaN,NaN,NaN,NaN,NaN,NaN,NaN,1.283e-5,165,213.825,80,0,5.95,15,1013.25,340.389,0.01,0.003
0.03,-4.67e-4,-0.093,-9.34,0.095,9.484,-8.234e-5,0,8.234e-5,180,0.016,1.647,22.175,120.893,9.788,80.901,0,0,0,2.8e4,1.35e4,19.963,0.106,NaN,2019.991,NaN,0.017,1.165e6,4.343,0.003,0.665,0.006,0.33,0.215,0.12,NaN,NaN,NaN,NaN,NaN,NaN,NaN,NaN,1.284e-5,165,213.825,80,0,5.958,15,1013.25,340.389,0.01,0.004
0.04,-4.672e-4,-0.093,-9.343,0.095,9.487,-8.237e-5,0,8.237e-5,180,0.016,1.647,22.175,120.893,9.788,80.9,0,0,0,2.8e4,1.35e4,19.963,0.106,NaN,2019.989,NaN,0.017,1.167e6,4.249,0.003,0.665,0.006,0.33,0.215,0.12,NaN,NaN,NaN,NaN,NaN,NaN,NaN,NaN,1.285e-5,165,213.825,80,0,5.966,15,1013.25,340.389,0.01,0.005
0.05,-4.668e-4,-0.093,-9.336,0.095,9.48,-8.231e-5,0,8.231e-5,180,0.016,1.646,22.175,120.893,9.788,80.898,0,0,0,2.8e4,1.35e4,19.963,0.106,NaN,2019.988,NaN,0.018,1.168e6,4.443,0.003,0.665,0.006,0.33,0.215,0.12,NaN,NaN,NaN,NaN,NaN,NaN,NaN,NaN,1.284e-5,165,213.825,80,0,5.974,15,1013.25,340.389,0.01,0.015
0.06,-4.664e-4,-0.093,-9.328,0.095,9.472,-8.224e-5,0,8.224e-5,180,0.016,1.645,22.175,120.893,9.788,80.897,0,0,0,2.8e4,1.35e4,19.963,0.106,NaN,2019.986,NaN,0.018,1.169e6,4.681,0.003,0.665,0.006,0.33,0.215,0.12,NaN,NaN,NaN,NaN,NaN,NaN,NaN,NaN,1.282e-5,165,213.825,80,0,5.975,15,1013.25,340.389,0.01,0.015
0.07,-4.668e-4,-0.093,-9.337,0.095,9.481,-8.231e-5,0,8.231e-5,180,0.016,1.646,22.175,120.893,9.788,80.897,0,0,0,2.8e4,1.35e4,19.963,0.106,NaN,2019.984,NaN,0.018,1.169e6,4.438,0.003,0.665,0.006,0.33,0.215,0.12,NaN,NaN,NaN,NaN,NaN,NaN,NaN,NaN,1.284e-5,165,213.825,80,0,5.977,15,1013.25,340.389,0.01,0.016
0.08,-4.668e-4,-0.093,-9.335,0.095,9.479,-8.23e-5,0,8.23e-5,180,0.016,1.646,22.175,120.893,9.788,80.897,0,0,0,2.8e4,1.35e4,19.963,0.106,NaN,2019.982,NaN,0.018,1.17e6,4.479,0.003,0.665,0.006,0.33,0.215,0.12,NaN,NaN,NaN,NaN,NaN,NaN,NaN,NaN,1.283e-5,165,213.825,80,0,5.979,15,1013.25,340.389,0.01,0.016
0.09,-4.665e-4,-0.093,-9.331,0.095,9.475,-8.226e-5,0,8.226e-5,180,0.016,1.645,22.175,120.893,9.788,80.896,0,0,0,2.8e4,1.35e4,19.963,0.106,NaN,2019.981,NaN,0.018,1.17e6,4.603,0.003,0.665,0.006,0.33,0.215,0.12,NaN,NaN,NaN,NaN,NaN,NaN,NaN,NaN,1.283e-5,165,213.825,80,0,5.981,15,1013.25,340.389,0.01,0.016
0.1,-4.67e-4,-0.093,-9.341,0.095,9.485,-8.235e-5,0,8.235e-5,180,0.016,1.647,22.175,120.893,9.788,80.897,0,0,0,2.8e4,1.35e4,19.963,0.106,NaN,2019.979,NaN,0.018,1.17e6,4.315,0.003,0.665,0.006,0.33,0.215,0.12,NaN,NaN,NaN,NaN,NaN,NaN,NaN,NaN,1.284e-5,165,213.825,80,0,5.983,15,1013.25,340.389,0.01,0.017
0.11,-4.668e-4,-0.093,-9.337,0.095,9.481,-8.232e-5,0,8.232e-5,180,0.016,1.646,22.175,120.893,9.788,80.916,0,0,0,2.8e4,1.35e4,19.963,0.106,NaN,2019.977,NaN,0.017,1.145e6,4.431,0.003,0.666,0.006,0.331,0.215,0.12,NaN,NaN,NaN,NaN,NaN,NaN,NaN,NaN,1.284e-5,165,213.825,80,0,5.855,15,1013.25,340.389,0.01,0.017
0.12,-4.668e-4,-0.093,-9.337,0.095,9.481,-8.232e-5,0,8.232e-5,180,0.016,1.646,22.175,120.893,9.788,80.937,0,0,0,2.8e4,1.35e4,19.962,0.106,NaN,2019.976,NaN,0.017,1.12e6,4.436,0.003,0.668,0.006,0.333,0.215,0.12,NaN,NaN,NaN,NaN,NaN,NaN,NaN,NaN,1.284e-5,165,213.825,80,0,5.727,15,1013.25,340.389,0.01,0.017
0.13,-4.665e-4,-0.093,-9.33,0.095,9.474,-8.226e-5,0,8.226e-5,180,0.016,1.645,22.175,120.893,9.788,80.958,0,0,0,2.8e4,1.35e4,19.962,0.106,NaN,2019.974,NaN,0.016,1.095e6,4.62,0.002,0.669,0.006,0.334,0.215,0.12,NaN,NaN,NaN,NaN,NaN,NaN,NaN,NaN,1.283e-5,165,213.825,80,0,5.598,15,1013.25,340.389,0.01,0.018
0.14,-4.669e-4,-0.093,-9.338,0.095,9.482,-8.232e-5,0,8.232e-5,180,0.016,1.646,22.175,120.893,9.788,80.981,0,0,0,2.8e4,1.35e4,19.962,0.106,NaN,2019.972,NaN,0.016,1.07e6,4.404,0.002,0.671,0.006,0.336,0.215,0.12,NaN,NaN,NaN,NaN,NaN,NaN,NaN,NaN,1.284e-5,165,213.825,80,0,5.47,15,1013.25,340.389,0.01,0.018
0.15,-4.668e-4,-0.093,-9.336,0.095,9.48,-8.231e-5,0,8.231e-5,180,0.016,1.646,22.175,120.893,9.788,81.004,0,0,0,2.8e4,1.35e4,19.962,0.106,NaN,2019.97,NaN,0.016,1.045e6,4.444,0.002,0.672,0.006,0.337,0.215,0.12,NaN,NaN,NaN,NaN,NaN,NaN,NaN,NaN,1.284e-5,165,213.825,80,0,5.342,15,1013.25,340.389,0.01,0.019
0.16,-4.665e-4,-0.093,-9.329,0.095,9.473,-8.225e-5,0,8.225e-5,180,0.016,1.645,22.175,120.893,9.788,81.001,0,0,0,2.8e4,1.35e4,19.962,0.106,NaN,2019.969,NaN,0.016,1.048e6,4.651,0.002,0.672,0.006,0.337,0.215,0.12,NaN,NaN,NaN,NaN,NaN,NaN,NaN,NaN,1.283e-5,165,213.825,80,0,5.358,15,1013.25,340.389,0.01,0.019
0.17,-4.672e-4,-0.093,-9.344,0.095,9.488,-8.238e-5,0,8.238e-5,180,0.016,1.648,22.175,120.893,9.788,80.999,0,0,0,2.8e4,1.35e4,19.962,0.106,NaN,2019.967,NaN,0.016,1.051e6,4.218,0.002,0.672,0.006,0.337,0.215,0.12,NaN,NaN,NaN,NaN,NaN,NaN,NaN,NaN,1.285e-5,165,213.825,80,0,5.375,15,1013.25,340.389,0.01,0.019
0.18,-4.672e-4,-0.093,-9.344,0.095,9.488,-8.238e-5,0,8.238e-5,180,0.016,1.648,22.175,120.893,9.788,80.996,0,0,0,2.8e4,1.35e4,19.962,0.106,NaN,2019.965,NaN,0.016,1.054e6,4.225,0.002,0.672,0.006,0.337,0.215,0.12,NaN,NaN,NaN,NaN,NaN,NaN,NaN,NaN,1.285e-5,165,213.825,80,0,5.391,15,1013.25,340.389,0.01,0.019
0.19,-4.67e-4,-0.093,-9.341,0.095,9.485,-8.235e-5,0,8.235e-5,180,0.016,1.647,22.175,120.893,9.788,80.993,0,0,0,2.8e4,1.35e4,19.962,0.106,NaN,2019.964,NaN,0.016,1.057e6,4.321,0.002,0.672,0.006,0.336,0.215,0.12,NaN,NaN,NaN,NaN,NaN,NaN,NaN,NaN,1.284e-5,165,213.825,80,0,5.407,15,1013.25,340.389,0.01,0.02
0.2,-4.673e-4,-0.093,-9.346,0.095,9.49,-8.24e-5,0,8.24e-5,180,0.016,1.648,22.175,120.893,9.788,80.99,0,0,0,2.8e4,1.35e4,19.962,0.106,NaN,2019.962,NaN,0.016,1.061e6,4.174,0.002,0.671,0.006,0.336,0.215,0.12,NaN,NaN,NaN,NaN,NaN,NaN,NaN,NaN,1.285e-5,165,213.825,80,0,5.424,15,1013.25,340.389,0.01,0.02
0.21,-4.669e-4,-0.093,-9.339,0.095,9.483,-8.233e-5,0,8.233e-5,180,0.016,1.647,22.175,120.893,9.788,80.98,0,0,0,2.8e4,1.35e4,19.962,0.106,NaN,2019.961,NaN,0.016,1.07e6,4.381,0.002,0.671,0.006,0.336,0.215,0.12,NaN,NaN,NaN,NaN,NaN,NaN,NaN,NaN,1.284e-5,165,213.825,80,0,5.473,15,1013.25,340.389,0.01,0.02
0.22,-4.664e-4,-0.093,-9.329,0.095,9.473,-8.225e-5,0,8.225e-5,180,0.016,1.645,22.175,120.893,9.788,80.971,0,0,0,2.8e4,1.35e4,19.962,0.106,NaN,2019.959,NaN,0.016,1.08e6,4.657,0.002,0.67,0.006,0.335,0.215,0.12,NaN,NaN,NaN,NaN,NaN,NaN,NaN,NaN,1.283e-5,165,213.825,80,0,5.523,15,1013.25,340.389,0.01,0.021
0.23,-4.669e-4,-0.093,-9.338,0.095,9.482,-8.233e-5,0,8.233e-5,180,0.016,1.647,22.175,120.893,9.788,80.963,0,0,0,2.8e4,1.35e4,19.962,0.106,NaN,2019.957,NaN,0.016,1.09e6,4.392,0.002,0.67,0.006,0.334,0.215,0.12,NaN,NaN,NaN,NaN,NaN,NaN,NaN,NaN,1.284e-5,165,213.825,80,0,5.573,15,1013.25,340.389,0.01,0.021
0.24,-4.667e-4,-0.093,-9.334,0.095,9.478,-8.229e-5,0,8.229e-5,180,0.016,1.646,22.175,120.893,9.788,80.954,0,0,0,2.8e4,1.35e4,19.962,0.106,NaN,2019.955,NaN,0.016,1.1e6,4.513,0.002,0.669,0.006,0.334,0.215,0.12,NaN,NaN,NaN,NaN,NaN,NaN,NaN,NaN,1.283e-5,165,213.825,80,0,5.623,15,1013.25,340.389,0.01,0.021
0.25,-4.666e-4,-0.093,-9.331,0.095,9.475,-8.227e-5,0,8.227e-5,180,0.016,1.645,22.175,120.893,9.788,80.945,0,0,0,2.8e4,1.35e4,19.962,0.106,NaN,2019.954,NaN,0.017,1.109e6,4.587,0.003,0.668,0.006,0.333,0.215,0.12,NaN,NaN,NaN,NaN,NaN,NaN,NaN,NaN,1.283e-5,165,213.825,80,0,5.673,15,1013.25,340.389,0.01,0.021
0.26,-4.668e-4,-0.093,-9.337,0.095,9.481,-8.232e-5,0,8.232e-5,180,0.016,1.646,22.175,120.893,9.788,80.951,0,0,0,2.8e4,1.35e4,19.962,0.106,NaN,2019.952,NaN,0.017,1.103e6,4.429,0.002,0.669,0.006,0.334,0.215,0.12,NaN,NaN,NaN,NaN,NaN,NaN,NaN,NaN,1.284e-5,165,213.825,80,0,5.641,15,1013.25,340.389,0.01,0.022
0.27,-4.667e-4,-0.093,-9.333,0.095,9.477,-8.229e-5,0,8.229e-5,180,0.016,1.646,22.175,120.893,9.788,80.956,0,0,0,2.8e4,1.35e4,19.962,0.106,NaN,2019.95,NaN,0.016,1.097e6,4.527,0.002,0.669,0.006,0.334,0.215,0.12,NaN,NaN,NaN,NaN,NaN,NaN,NaN,NaN,1.283e-5,165,213.825,80,0,5.61,15,1013.25,340.389,0.01,0.022
0.28,-4.667e-4,-0.093,-9.335,0.095,9.479,-8.23e-5,0,8.23e-5,180,0.016,1.646,22.175,120.893,9.788,80.962,0,0,0,2.8e4,1.35e4,19.962,0.106,NaN,2019.949,NaN,0.016,1.091e6,4.488,0.002,0.669,0.006,0.334,0.215,0.12,NaN,NaN,NaN,NaN,NaN,NaN,NaN,NaN,1.283e-5,165,213.825,80,0,5.578,15,1013.25,340.389,0.01,0.022
0.29,-4.665e-4,-0.093,-9.33,0.095,9.474,-8.226e-5,0,8.226e-5,180,0.016,1.645,22.175,120.893,9.788,80.967,0,0,0,2.8e4,1.35e4,19.962,0.106,NaN,2019.947,NaN,0.016,1.085e6,4.616,0.002,0.67,0.006,0.335,0.215,0.12,NaN,NaN,NaN,NaN,NaN,NaN,NaN,NaN,1.283e-5,165,213.825,80,0,5.546,15,1013.25,340.389,0.01,0.023
0.3,-4.666e-4,-0.093,-9.333,0.095,9.477,-8.228e-5,0,8.228e-5,180,0.016,1.646,22.175,120.893,9.788,80.972,0,0,0,2.8e4,1.35e4,19.962,0.106,NaN,2019.945,NaN,0.016,1.078e6,4.548,0.002,0.67,0.006,0.335,0.215,0.12,NaN,NaN,NaN,NaN,NaN,NaN,NaN,NaN,1.283e-5,165,213.825,80,0,5.515,15,1013.25,340.389,0.01,0.023
0.31,-4.664e-4,-0.093,-9.327,0.095,9.471,-8.223e-5,0,8.223e-5,180,0.016,1.645,22.175,120.893,9.788,80.946,0,0,0,2.8e4,1.35e4,19.962,0.106,NaN,2019.943,NaN,0.017,1.108e6,4.706,0.003,0.668,0.006,0.333,0.215,0.12,NaN,NaN,NaN,NaN,NaN,NaN,NaN,NaN,1.282e-5,165,213.825,80,0,5.666,15,1013.25,340.389,0.01,0.023
0.32,-4.67e-4,-0.093,-9.34,0.095,9.484,-8.235e-5,0,8.235e-5,180,0.016,1.647,22.175,120.893,9.788,80.923,0,0,0,2.8e4,1.35e4,19.962,0.106,NaN,2019.942,NaN,0.017,1.138e6,4.332,0.003,0.667,0.006,0.332,0.215,0.12,NaN,NaN,NaN,NaN,NaN,NaN,NaN,NaN,1.284e-5,165,213.825,80,0,5.817,15,1013.25,340.389,0.01,0.023
0.33,-4.667e-4,-0.093,-9.335,0.095,9.479,-8.23e-5,0,8.23e-5,180,0.016,1.646,22.175,120.893,9.788,80.899,0,0,0,2.8e4,1.35e4,19.962,0.106,NaN,2019.94,NaN,0.017,1.167e6,4.483,0.003,0.665,0.006,0.33,0.215,0.12,NaN,NaN,NaN,NaN,NaN,NaN,NaN,NaN,1.283e-5,165,213.825,80,0,5.968,15,1013.25,340.389,0.01,0.023
0.34,-4.666e-4,-0.093,-9.332,0.095,9.476,-8.227e-5,0,8.227e-5,180,0.016,1.645,22.175,120.893,9.788,80.876,0,0,0,2.8e4,1.35e4,19.962,0.106,NaN,2019.938,NaN,0.018,1.197e6,4.57,0.003,0.663,0.006,0.328,0.215,0.12,NaN,NaN,NaN,NaN,NaN,NaN,NaN,NaN,1.283e-5,165,213.825,80,0,6.119,15,1013.25,340.389,0.01,0.024
0.35,-4.669e-4,-0.093,-9.337,0.095,9.481,-8.232e-5,0,8.232e-5,180,0.016,1.646,22.175,120.893,9.788,80.855,0,0,0,2.8e4,1.35e4,19.962,0.106,NaN,2019.936,NaN,0.018,1.226e6,4.419,0.003,0.662,0.006,0.327,0.215,0.12,NaN,NaN,NaN,NaN,NaN,NaN,NaN,NaN,1.284e-5,165,213.825,80,0,6.27,15,1013.25,340.389,0.01,0.024
0.36,-4.67e-4,-0.093,-9.341,0.095,9.485,-8.235e-5,0,8.235e-5,180,0.016,1.647,22.175,120.893,9.788,80.861,0,0,0,2.8e4,1.35e4,19.962,0.106,NaN,2019.935,NaN,0.018,1.22e6,4.317,0.003,0.662,0.006,0.327,0.215,0.12,NaN,NaN,NaN,NaN,NaN,NaN,NaN,NaN,1.284e-5,165,213.825,80,0,6.234,15,1013.25,340.389,0.01,0.024
0.37,-4.667e-4,-0.093,-9.334,0.095,9.478,-8.229e-5,0,8.229e-5,180,0.016,1.646,22.175,120.893,9.788,80.865,0,0,0,2.8e4,1.35e4,19.962,0.106,NaN,2019.933,NaN,0.018,1.213e6,4.522,0.003,0.663,0.006,0.327,0.215,0.12,NaN,NaN,NaN,NaN,NaN,NaN,NaN,NaN,1.283e-5,165,213.825,80,0,6.199,15,1013.25,340.389,0.01,0.024
0.38,-4.668e-4,-0.093,-9.337,0.095,9.481,-8.232e-5,0,8.232e-5,180,0.016,1.646,22.175,120.893,9.788,80.87,0,0,0,2.8e4,1.35e4,19.962,0.106,NaN,2019.931,NaN,0.018,1.206e6,4.433,0.003,0.663,0.006,0.328,0.215,0.12,NaN,NaN,NaN,NaN,NaN,NaN,NaN,NaN,1.284e-5,165,213.825,80,0,6.163,15,1013.25,340.389,0.01,0.025
0.39,-4.664e-4,-0.093,-9.328,0.095,9.472,-8.224e-5,0,8.224e-5,180,0.016,1.645,22.175,120.893,9.788,80.874,0,0,0,2.8e4,1.35e4,19.962,0.106,NaN,2019.93,NaN,0.018,1.199e6,4.673,0.003,0.663,0.006,0.328,0.215,0.12,NaN,NaN,NaN,NaN,NaN,NaN,NaN,NaN,1.282e-5,165,213.825,80,0,6.128,15,1013.25,340.389,0.01,0.025
0.4,-4.662e-4,-0.093,-9.323,0.095,9.467,-8.22e-5,0,8.22e-5,180,0.016,1.644,22.175,120.893,9.788,80.879,0,0,0,2.8e4,1.35e4,19.962,0.106,NaN,2019.928,NaN,0.018,1.192e6,4.812,0.003,0.664,0.006,0.329,0.215,0.12,NaN,NaN,NaN,NaN,NaN,NaN,NaN,NaN,1.282e-5,165,213.825,80,0,6.092,15,1013.25,340.389,0.01,0.025
0.41,-4.666e-4,-0.093,-9.331,0.095,9.475,-8.227e-5,0,8.227e-5,180,0.016,1.645,22.175,120.893,9.788,80.879,0,0,0,2.8e4,1.35e4,19.962,0.106,NaN,2019.926,NaN,0.018,1.193e6,4.595,0.003,0.664,0.006,0.329,0.215,0.12,NaN,NaN,NaN,NaN,NaN,NaN,NaN,NaN,1.283e-5,165,213.825,80,0,6.098,15,1013.25,340.389,0.01,0.025
0.42,-4.665e-4,-0.093,-9.33,0.095,9.473,-8.225e-5,0,8.225e-5,180,0.016,1.645,22.175,120.893,9.788,80.878,0,0,0,2.8e4,1.35e4,19.962,0.106,NaN,2019.924,NaN,0.018,1.194e6,4.638,0.003,0.664,0.006,0.328,0.215,0.12,NaN,NaN,NaN,NaN,NaN,NaN,NaN,NaN,1.283e-5,165,213.825,80,0,6.103,15,1013.25,340.389,0.01,0.026
0.43,-4.662e-4,-0.093,-9.323,0.095,9.467,-8.22e-5,0,8.22e-5,180,0.016,1.644,22.175,120.893,9.788,80.877,0,0,0,2.8e4,1.35e4,19.962,0.106,NaN,2019.922,NaN,0.018,1.195e6,4.811,0.003,0.664,0.006,0.328,0.215,0.12,NaN,NaN,NaN,NaN,NaN,NaN,NaN,NaN,1.282e-5,165,213.825,80,0,6.108,15,1013.25,340.389,0.01,0.026
0.44,-4.66e-4,-0.093,-9.32,0.095,9.463,-8.217e-5,0,8.217e-5,180,0.016,1.643,22.175,120.893,9.788,80.876,0,0,0,2.8e4,1.35e4,19.962,0.106,NaN,2019.921,NaN,0.018,1.196e6,4.919,0.003,0.664,0.006,0.328,0.215,0.12,NaN,NaN,NaN,NaN,NaN,NaN,NaN,NaN,1.281e-5,165,213.825,80,0,6.114,15,1013.25,340.389,0.01,0.026
0.45,-4.666e-4,-0.093,-9.331,0.095,9.475,-8.227e-5,0,8.227e-5,180,0.016,1.645,22.175,120.893,9.788,80.876,0,0,0,2.8e4,1.35e4,19.961,0.106,NaN,2019.919,NaN,0.018,1.197e6,4.583,0.003,0.663,0.006,0.328,0.215,0.12,NaN,NaN,NaN,NaN,NaN,NaN,NaN,NaN,1.283e-5,165,213.825,80,0,6.119,15,1013.25,340.389,0.01,0.027
0.46,-4.668e-4,-0.093,-9.337,0.095,9.481,-8.232e-5,0,8.232e-5,180,0.016,1.646,22.175,120.893,9.788,80.872,0,0,0,2.8e4,1.35e4,19.961,0.106,NaN,2019.917,NaN,0.018,1.203e6,4.429,0.003,0.663,0.006,0.328,0.215,0.12,NaN,NaN,NaN,NaN,NaN,NaN,NaN,NaN,1.284e-5,165,213.825,80,0,6.151,15,1013.25,340.389,0.01,0.027
0.47,-4.668e-4,-0.093,-9.336,0.095,9.48,-8.231e-5,0,8.231e-5,180,0.016,1.646,22.175,120.893,9.788,80.867,0,0,0,2.8e4,1.35e4,19.961,0.106,NaN,2019.915,NaN,0.018,1.209e6,4.45,0.003,0.663,0.006,0.328,0.215,0.12,NaN,NaN,NaN,NaN,NaN,NaN,NaN,NaN,1.284e-5,165,213.825,80,0,6.183,15,1013.25,340.389,0.01,0.027
0.48,-4.66e-4,-0.093,-9.32,0.095,9.464,-8.217e-5,0,8.217e-5,180,0.016,1.643,22.175,120.893,9.788,80.861,0,0,0,2.8e4,1.35e4,19.961,0.106,NaN,2019.914,NaN,0.018,1.216e6,4.905,0.003,0.662,0.006,0.327,0.215,0.12,NaN,NaN,NaN,NaN,NaN,NaN,NaN,NaN,1.281e-5,165,213.825,80,0,6.215,15,1013.25,340.389,0.01,0.028
0.49,-4.663e-4,-0.093,-9.326,0.095,9.47,-8.222e-5,0,8.222e-5,180,0.016,1.644,22.175,120.893,9.788,80.858,0,0,0,2.8e4,1.35e4,19.961,0.106,NaN,2019.912,NaN,0.018,1.222e6,4.746,0.003,0.662,0.006,0.327,0.215,0.12,NaN,NaN,NaN,NaN,NaN,NaN,NaN,NaN,1.282e-5,165,213.825,80,0,6.247,15,1013.25,340.389,0.01,0.028
0.5,-4.668e-4,-0.093,-9.335,0.095,9.479,-8.23e-5,0,8.23e-5,180,0.016,1.646,22.175,120.893,9.788,80.854,0,0,0,2.8e4,1.35e4,19.961,0.106,NaN,2019.91,NaN,0.018,1.228e6,4.47,0.003,0.662,0.006,0.327,0.215,0.12,NaN,NaN,NaN,NaN,NaN,NaN,NaN,NaN,1.283e-5,165,213.825,80,0,6.279,15,1013.25,340.389,0.01,0.028
0.51,-4.664e-4,-0.093,-9.329,0.095,9.473,-8.225e-5,0,8.225e-5,180,0.016,1.645,22.175,120.893,9.788,80.857,0,0,0,2.8e4,1.35e4,19.961,0.106,NaN,2019.908,NaN,0.018,1.224e6,4.657,0.003,0.662,0.006,0.327,0.215,0.12,NaN,NaN,NaN,NaN,NaN,NaN,NaN,NaN,1.283e-5,165,213.825,80,0,6.256,15,1013.25,340.389,0.01,0.029
0.52,-4.656e-4,-0.093,-9.313,0.095,9.456,-8.21e-5,0,8.21e-5,180,0.016,1.642,22.175,120.893,9.788,80.858,0,0,0,2.8e4,1.35e4,19.961,0.106,NaN,2019.906,NaN,0.018,1.219e6,5.115,0.003,0.662,0.006,0.327,0.215,0.12,NaN,NaN,NaN,NaN,NaN,NaN,NaN,NaN,1.28e-5,165,213.825,80,0,6.233,15,1013.25,340.389,0.01,0.029
0.53,-4.652e-4,-0.093,-9.305,0.094,9.448,-8.203e-5,0,8.203e-5,180,0.016,1.641,22.175,120.893,9.788,80.861,0,0,0,2.8e4,1.35e4,19.961,0.106,NaN,2019.904,NaN,0.018,1.215e6,5.339,0.003,0.663,0.006,0.327,0.215,0.12,NaN,NaN,NaN,NaN,NaN,NaN,NaN,NaN,1.279e-5,165,213.825,80,0,6.21,15,1013.25,340.389,0.01,0.029
0.54,-4.665e-4,-0.093,-9.33,0.095,9.473,-8.225e-5,0,8.225e-5,180,0.016,1.645,22.175,120.893,9.788,80.866,0,0,0,2.8e4,1.35e4,19.961,0.106,NaN,2019.903,NaN,0.018,1.21e6,4.638,0.003,0.663,0.006,0.328,0.215,0.12,NaN,NaN,NaN,NaN,NaN,NaN,NaN,NaN,1.283e-5,165,213.825,80,0,6.187,15,1013.25,340.389,0.01,0.03
0.55,-4.662e-4,-0.093,-9.323,0.095,9.467,-8.22e-5,0,8.22e-5,180,0.016,1.644,22.175,120.893,9.788,80.869,0,0,0,2.8e4,1.35e4,19.961,0.106,NaN,2019.901,NaN,0.018,1.206e6,4.82,0.003,0.663,0.006,0.328,0.215,0.12,NaN,NaN,NaN,NaN,NaN,NaN,NaN,NaN,1.282e-5,165,213.825,80,0,6.165,15,1013.25,340.389,0.01,0.03
0.56,-4.656e-4,-0.093,-9.312,0.095,9.455,-8.21e-5,0,8.21e-5,180,0.016,1.642,22.175,120.893,9.788,80.868,0,0,0,2.8e4,1.35e4,19.961,0.106,NaN,2019.899,NaN,0.018,1.206e6,5.14,0.003,0.663,0.006,0.328,0.215,0.12,NaN,NaN,NaN,NaN,NaN,NaN,NaN,NaN,1.28e-5,165,213.825,80,0,6.163,15,1013.25,340.389,0.01,0.03
0.57,-4.656e-4,-0.093,-9.311,0.095,9.455,-8.209e-5,0,8.209e-5,180,0.016,1.642,22.175,120.893,9.788,80.868,0,0,0,2.8e4,1.35e4,19.961,0.106,NaN,2019.897,NaN,0.018,1.205e6,5.164,0.003,0.663,0.006,0.328,0.215,0.12,NaN,NaN,NaN,NaN,NaN,NaN,NaN,NaN,1.28e-5,165,213.825,80,0,6.161,15,1013.25,340.389,0.01,0.03
0.58,-4.656e-4,-0.093,-9.312,0.095,9.456,-8.21e-5,0,8.21e-5,180,0.016,1.642,22.175,120.893,9.788,80.868,0,0,0,2.8e4,1.35e4,19.961,0.106,NaN,2019.895,NaN,0.018,1.205e6,5.125,0.003,0.663,0.006,0.328,0.215,0.12,NaN,NaN,NaN,NaN,NaN,NaN,NaN,NaN,1.28e-5,165,213.825,80,0,6.16,15,1013.25,340.389,0.01,0.031
0.59,-4.653e-4,-0.093,-9.306,0.094,9.45,-8.205e-5,0,8.205e-5,180,0.016,1.641,22.175,120.893,9.788,80.868,0,0,0,2.8e4,1.35e4,19.961,0.106,NaN,2019.893,NaN,0.018,1.205e6,5.296,0.003,0.663,0.006,0.328,0.215,0.12,NaN,NaN,NaN,NaN,NaN,NaN,NaN,NaN,1.279e-5,165,213.825,80,0,6.158,15,1013.25,340.389,0.01,0.031
0.6,-4.648e-4,-0.093,-9.297,0.094,9.44,-8.196e-5,0,8.196e-5,180,0.016,1.639,22.175,120.893,9.788,80.867,0,0,0,2.8e4,1.349e4,19.961,0.106,NaN,2019.891,NaN,0.018,1.204e6,5.567,0.003,0.663,0.006,0.328,0.215,0.12,NaN,NaN,NaN,NaN,NaN,NaN,NaN,NaN,1.278e-5,165,213.825,80,0,6.157,15,1013.25,340.389,0.01,0.031
0.61,-4.646e-4,-0.093,-9.292,0.094,9.435,-8.192e-5,0,8.192e-5,180,0.016,1.638,22.175,120.893,9.788,80.857,0,0,0,2.8e4,1.349e4,19.961,0.106,NaN,2019.889,NaN,0.018,1.218e6,5.717,0.003,0.662,0.006,0.327,0.215,0.12,NaN,NaN,NaN,NaN,NaN,NaN,NaN,NaN,1.277e-5,165,213.825,80,0,6.227,15,1013.25,340.389,0.01,0.031
0.62,-4.652e-4,-0.093,-9.304,0.094,9.447,-8.203e-5,0,8.203e-5,180,0.016,1.641,22.175,120.893,9.788,80.849,0,0,0,2.8e4,1.349e4,19.961,0.106,NaN,2019.887,NaN,0.018,1.232e6,5.366,0.003,0.662,0.006,0.326,0.215,0.12,NaN,NaN,NaN,NaN,NaN,NaN,NaN,NaN,1.279e-5,165,213.825,80,0,6.297,15,1013.25,340.389,0.01,0.032
0.63,-4.644e-4,-0.093,-9.287,0.094,9.43,-8.188e-5,0,8.188e-5,180,0.016,1.638,22.175,120.893,9.788,80.838,0,0,0,2.799e4,1.349e4,19.961,0.106,NaN,2019.884,NaN,0.019,1.246e6,5.844,0.003,0.661,0.006,0.326,0.215,0.12,NaN,NaN,NaN,NaN,NaN,NaN,NaN,NaN,1.277e-5,165,213.825,80,0,6.367,15,1013.25,340.389,0.01,0.032
0.64,-4.645e-4,-0.093,-9.289,0.094,9.432,-8.19e-5,0,8.19e-5,180,0.016,1.638,22.175,120.893,9.788,80.829,0,0,0,2.799e4,1.349e4,19.961,0.106,NaN,2019.882,NaN,0.019,1.259e6,5.786,0.003,0.66,0.006,0.325,0.215,0.12,NaN,NaN,NaN,NaN,NaN,NaN,NaN,NaN,1.277e-5,165,213.825,80,0,6.437,15,1013.25,340.389,0.01,0.032
0.65,-4.641e-4,-0.093,-9.283,0.094,9.426,-8.184e-5,0,8.184e-5,180,0.016,1.637,22.175,120.893,9.788,80.819,0,0,0,2.799e4,1.349e4,19.961,0.106,NaN,2019.88,NaN,0.019,1.273e6,5.968,0.003,0.66,0.006,0.324,0.215,0.12,NaN,NaN,NaN,NaN,NaN,NaN,NaN,NaN,1.276e-5,165,213.825,80,0,6.507,15,1013.25,340.389,0.01,0.037
0.66,-4.631e-4,-0.093,-9.262,0.094,9.405,-8.166e-5,0,8.166e-5,180,0.016,1.633,22.175,120.893,9.788,80.818,0,0,0,2.799e4,1.349e4,19.961,0.106,NaN,2019.877,NaN,0.019,1.273e6,6.551,0.003,0.66,0.006,0.324,0.215,0.12,NaN,NaN,NaN,NaN,NaN,NaN,NaN,NaN,1.273e-5,165,213.825,80,0,6.506,15,1013.25,340.389,0.01,0.037
0.67,-4.628e-4,-0.093,-9.256,0.094,9.399,-8.161e-5,0,8.161e-5,180,0.016,1.632,22.175,120.893,9.788,80.817,0,0,0,2.799e4,1.349e4,19.961,0.106,NaN,2019.875,NaN,0.019,1.273e6,6.72,0.003,0.66,0.006,0.324,0.215,0.12,NaN,NaN,NaN,NaN,NaN,NaN,NaN,NaN,1.273e-5,165,213.825,80,0,6.504,15,1013.25,340.389,0.01,0.038
0.68,-4.618e-4,-0.092,-9.236,0.094,9.378,-8.143e-5,0,8.143e-5,180,0.016,1.629,22.175,120.893,9.788,80.816,0,0,0,2.799e4,1.349e4,19.961,0.106,NaN,2019.872,NaN,0.019,1.272e6,7.299,0.003,0.66,0.006,0.324,0.215,0.12,NaN,NaN,NaN,NaN,NaN,NaN,NaN,NaN,1.27e-5,165,213.825,80,0,6.503,15,1013.25,340.389,0.01,0.038
0.69,-4.615e-4,-0.092,-9.23,0.094,9.372,-8.137e-5,0,8.137e-5,180,0.016,1.627,22.175,120.893,9.788,80.815,0,0,0,2.799e4,1.349e4,19.961,0.106,NaN,2019.869,NaN,0.019,1.272e6,7.467,0.003,0.66,0.006,0.324,0.215,0.12,NaN,NaN,NaN,NaN,NaN,NaN,NaN,NaN,1.269e-5,165,213.825,80,0,6.502,15,1013.25,340.389,0.01,0.038
0.7,-4.606e-4,-0.092,-9.213,0.094,9.355,-8.122e-5,0,8.122e-5,180,0.016,1.624,22.175,120.893,9.788,80.814,0,0,0,2.799e4,1.349e4,19.961,0.106,NaN,2019.866,NaN,0.019,1.272e6,7.951,0.003,0.66,0.006,0.324,0.215,0.12,NaN,NaN,NaN,NaN,NaN,NaN,NaN,NaN,1.267e-5,165,213.825,80,0,6.5,15,1013.25,340.389,0.01,0.038
0.71,-4.589e-4,-0.092,-9.178,0.093,9.32,-8.092e-5,0,8.092e-5,180,0.016,1.618,22.175,120.893,9.788,80.803,0,0,0,2.799e4,1.349e4,19.96,0.106,NaN,2019.863,NaN,0.019,1.284e6,8.938,0.003,0.659,0.006,0.324,0.215,0.12,NaN,NaN,NaN,NaN,NaN,NaN,NaN,NaN,1.262e-5,165,213.825,80,0,6.563,15,1013.25,340.389,0.01,0.038
0.72,-4.584e-4,-0.092,-9.167,0.093,9.309,-8.082e-5,0,8.082e-5,180,0.016,1.616,22.175,120.893,9.788,80.795,0,0,0,2.799e4,1.349e4,19.96,0.106,NaN,2019.859,NaN,0.019,1.296e6,9.255,0.004,0.658,0.006,0.323,0.215,0.12,NaN,NaN,NaN,NaN,NaN,NaN,NaN,NaN,1.26e-5,165,213.825,80,0,6.625,15,1013.25,340.389,0.01,0.039
0.73,-4.567e-4,-0.091,-9.134,0.093,9.275,-8.053e-5,0,8.053e-5,180,0.016,1.611,22.175,120.893,9.788,80.784,0,0,0,2.799e4,1.349e4,19.96,0.106,NaN,2019.855,NaN,0.02,1.309e6,10.185,0.004,0.658,0.006,0.323,0.215,0.12,NaN,NaN,NaN,NaN,NaN,NaN,NaN,NaN,1.256e-5,165,213.825,80,0,6.688,15,1013.25,340.389,0.01,0.039
0.74,-4.548e-4,-0.091,-9.096,0.092,9.236,-8.019e-5,0,8.019e-5,180,0.016,1.604,22.175,120.893,9.788,80.774,0,0,0,2.799e4,1.349e4,19.96,0.106,NaN,2019.851,NaN,0.02,1.321e6,11.275,0.004,0.657,0.006,0.322,0.215,0.12,NaN,NaN,NaN,NaN,NaN,NaN,NaN,NaN,1.251e-5,165,213.825,80,0,6.751,15,1013.25,340.389,0.01,0.039
0.75,-4.53e-4,-0.091,-9.059,0.092,9.199,-7.987e-5,0,7.987e-5,180,0.016,1.597,22.175,120.893,9.788,80.764,0,0,0,2.799e4,1.349e4,19.96,0.106,NaN,2019.846,NaN,0.02,1.333e6,12.322,0.004,0.657,0.006,0.322,0.215,0.12,NaN,NaN,NaN,NaN,NaN,NaN,NaN,NaN,1.245e-5,165,213.825,80,0,6.813,15,1013.25,340.389,0.01,0.039
0.76,-4.506e-4,-0.09,-9.012,0.092,9.151,-7.945e-5,0,7.945e-5,180,0.016,1.589,22.175,120.893,9.788,80.759,0,0,0,2.799e4,1.349e4,19.96,0.106,NaN,2019.841,NaN,0.02,1.334e6,13.663,0.004,0.657,0.006,0.321,0.215,0.12,NaN,NaN,NaN,NaN,NaN,NaN,NaN,NaN,1.239e-5,165,213.825,80,0,6.818,15,1013.25,340.389,0.01,0.04
0.77,-4.495e-4,-0.09,-8.99,0.091,9.128,-7.926e-5,0,7.926e-5,180,0.016,1.585,22.175,120.893,9.788,80.757,0,0,0,2.799e4,1.349e4,19.96,0.106,NaN,2019.836,NaN,0.02,1.335e6,14.302,0.004,0.657,0.006,0.321,0.215,0.12,NaN,NaN,NaN,NaN,NaN,NaN,NaN,NaN,1.236e-5,165,213.825,80,0,6.824,15,1013.25,340.389,0.01,0.04
0.78,-4.469e-4,-0.089,-8.938,0.091,9.076,-7.88e-5,0,7.88e-5,180,0.016,1.576,22.175,120.893,9.788,80.752,0,0,0,2.799e4,1.349e4,19.96,0.106,NaN,2019.83,NaN,0.02,1.336e6,15.77,0.004,0.657,0.006,0.321,0.215,0.12,NaN,NaN,NaN,NaN,NaN,NaN,NaN,NaN,1.229e-5,165,213.825,80,0,6.829,15,1013.25,340.389,0.01,0.04
0.79,-4.449e-4,-0.089,-8.897,0.09,9.034,-7.844e-5,0,7.844e-5,180,0.016,1.569,22.175,120.893,9.788,80.748,0,0,0,2.799e4,1.349e4,19.96,0.106,NaN,2019.823,NaN,0.02,1.337e6,16.927,0.004,0.656,0.006,0.321,0.215,0.12,NaN,NaN,NaN,NaN,NaN,NaN,NaN,NaN,1.223e-5,165,213.825,80,0,6.834,15,1013.25,340.389,0.01,0.04
0.8,-4.428e-4,-0.089,-8.855,0.09,8.992,-7.807e-5,0,7.807e-5,180,0.016,1.561,22.175,120.893,9.788,80.743,0,0,0,2.799e4,1.349e4,19.96,0.106,NaN,2019.816,NaN,0.02,1.338e6,18.121,0.004,0.656,0.006,0.321,0.215,0.12,NaN,NaN,NaN,NaN,NaN,NaN,NaN,NaN,1.217e-5,165,213.825,80,0,6.84,15,1013.25,340.389,0.01,0.04
0.81,-4.404e-4,-0.088,-8.809,0.089,8.945,-7.766e-5,0,7.766e-5,180,0.016,1.553,22.175,120.893,9.788,80.742,0,0,0,2.799e4,1.349e4,19.96,0.106,NaN,2019.809,NaN,0.02,1.335e6,19.438,0.004,0.657,0.006,0.321,0.215,0.12,NaN,NaN,NaN,NaN,NaN,NaN,NaN,NaN,1.211e-5,165,213.825,80,0,6.82,15,1013.25,340.389,0.01,0.041
0.82,-4.392e-4,-0.088,-8.784,0.089,8.919,-7.744e-5,0,7.744e-5,180,0.015,1.549,22.175,120.893,9.788,80.742,0,0,0,2.799e4,1.349e4,19.959,0.106,NaN,2019.801,NaN,0.02,1.331e6,20.155,0.004,0.657,0.006,0.322,0.215,0.12,NaN,NaN,NaN,NaN,NaN,NaN,NaN,NaN,1.208e-5,165,213.825,80,0,6.801,15,1013.25,340.389,0.01,0.041
0.83,-4.344e-4,-0.087,-8.687,0.088,8.821,-7.659e-5,0,7.659e-5,180,0.015,1.532,22.175,120.893,9.788,80.736,0,0,0,2.799e4,1.349e4,19.959,0.106,NaN,2019.793,NaN,0.02,1.327e6,22.899,0.004,0.657,0.006,0.322,0.215,0.12,NaN,NaN,NaN,NaN,NaN,NaN,NaN,NaN,1.194e-5,165,213.825,80,0,6.782,15,1013.25,340.389,0.01,0.041
0.84,-4.256e-4,-0.085,-8.512,0.086,8.643,-7.504e-5,0,7.504e-5,180,0.015,1.501,22.175,120.893,9.788,80.723,0,0,0,2.799e4,1.349e4,19.959,0.106,NaN,2019.782,NaN,0.02,1.323e6,27.886,0.004,0.657,0.006,0.322,0.215,0.12,NaN,NaN,NaN,NaN,NaN,NaN,NaN,NaN,1.17e-5,165,213.825,80,0,6.762,15,1013.25,340.389,0.01,0.041
0.85,-4.183e-4,-0.084,-8.366,0.085,8.495,-7.375e-5,0,7.375e-5,180,0.015,1.475,22.175,120.893,9.788,80.712,0,0,0,2.799e4,1.349e4,19.959,0.106,NaN,2019.77,NaN,0.02,1.32e6,32.036,0.004,0.657,0.006,0.322,0.215,0.12,NaN,NaN,NaN,NaN,NaN,NaN,NaN,NaN,1.15e-5,165,213.825,80,0,6.743,15,1013.25,340.389,0.01,0.041
0.86,-4.106e-4,-0.082,-8.212,0.083,8.339,-7.24e-5,0,7.24e-5,180,0.014,1.448,22.175,120.893,9.788,80.699,0,0,0,2.799e4,1.349e4,19.959,0.106,NaN,2019.756,NaN,0.02,1.32e6,36.392,0.004,0.657,0.006,0.322,0.215,0.12,NaN,NaN,NaN,NaN,NaN,NaN,NaN,NaN,1.129e-5,165,213.825,80,0,6.746,15,1013.25,340.389,0.01,0.042
0.87,-4.032e-4,-0.081,-8.065,0.082,8.189,-7.11e-5,0,7.11e-5,180,0.014,1.422,22.175,120.893,9.788,80.686,0,0,0,2.799e4,1.349e4,19.958,0.106,NaN,2019.74,NaN,0.02,1.321e6,40.581,0.004,0.657,0.006,0.322,0.215,0.12,NaN,NaN,NaN,NaN,NaN,NaN,NaN,NaN,1.109e-5,165,213.825,80,0,6.748,15,1013.25,340.389,0.01,0.042
0.88,-3.96e-4,-0.079,-7.92,0.08,8.043,-6.983e-5,0,6.983e-5,180,0.014,1.397,22.175,120.893,9.788,80.674,0,0,0,2.799e4,1.349e4,19.958,0.106,NaN,2019.723,NaN,0.02,1.321e6,44.682,0.004,0.657,0.006,0.322,0.215,0.12,NaN,NaN,NaN,NaN,NaN,NaN,NaN,NaN,1.089e-5,165,213.825,80,0,6.751,15,1013.25,340.389,0.01,0.042
0.89,-3.897e-4,-0.078,-7.793,0.079,7.913,-6.871e-5,0,6.871e-5,180,0.014,1.374,22.175,120.893,9.788,80.662,0,0,0,2.799e4,1.349e4,19.958,0.106,NaN,2019.705,NaN,0.02,1.322e6,48.294,0.004,0.657,0.006,0.322,0.215,0.12,NaN,NaN,NaN,NaN,NaN,NaN,NaN,NaN,1.071e-5,165,213.825,80,0,6.754,15,1013.25,340.389,0.01,0.042
0.9,-3.836e-4,-0.077,-7.672,0.078,7.79,-6.764e-5,0,6.764e-5,180,0.014,1.353,22.175,120.893,9.788,80.652,0,0,0,2.799e4,1.349e4,19.957,0.106,NaN,2019.685,NaN,0.02,1.322e6,51.752,0.004,0.657,0.006,0.322,0.215,0.12,NaN,NaN,NaN,NaN,NaN,NaN,NaN,NaN,1.055e-5,165,213.825,80,0,6.756,15,1013.25,340.389,0.01,0.043
0.91,-3.755e-4,-0.075,-7.511,0.076,7.627,-6.622e-5,0,6.622e-5,180,0.013,1.324,22.175,120.893,9.788,80.641,0,0,0,2.798e4,1.348e4,19.957,0.106,NaN,2019.664,NaN,0.02,1.318e6,56.319,0.004,0.657,0.007,0.322,0.215,0.12,NaN,NaN,NaN,NaN,NaN,NaN,NaN,NaN,1.033e-5,165,213.825,80,0,6.731,15,1013.25,340.389,0.01,0.043
0.92,-3.677e-4,-0.074,-7.355,0.075,7.468,-6.484e-5,0,6.484e-5,180,0.013,1.297,22.175,120.893,9.788,80.63,0,0,0,2.798e4,1.348e4,19.957,0.106,NaN,2019.641,NaN,0.02,1.313e6,60.748,0.004,0.658,0.007,0.322,0.215,0.12,NaN,NaN,NaN,NaN,NaN,NaN,NaN,NaN,1.011e-5,165,213.825,80,0,6.706,15,1013.25,340.389,0.01,0.043
0.93,-3.561e-4,-0.071,-7.121,0.072,7.231,-6.278e-5,0,6.278e-5,180,0.013,1.256,22.175,120.893,9.788,80.612,0,0,0,2.798e4,1.348e4,19.956,0.106,NaN,2019.615,NaN,0.02,1.308e6,67.387,0.004,0.658,0.007,0.323,0.215,0.12,NaN,NaN,NaN,NaN,NaN,NaN,NaN,NaN,9.79e-6,165,213.825,80,0,6.681,15,1013.25,340.389,0.01,0.044
0.94,-3.419e-4,-0.068,-6.837,0.069,6.942,-6.028e-5,0,6.028e-5,180,0.012,1.206,22.175,120.893,9.788,80.59,0,0,0,2.798e4,1.348e4,19.956,0.106,NaN,2019.586,NaN,0.02,1.303e6,75.455,0.004,0.658,0.007,0.323,0.215,0.12,NaN,NaN,NaN,NaN,NaN,NaN,NaN,NaN,9.4e-6,165,213.825,80,0,6.656,15,1013.25,340.389,0.01,0.044
0.95,-3.257e-4,-0.065,-6.515,0.066,6.615,-5.744e-5,0,5.744e-5,180,0.011,1.149,22.175,120.893,9.788,80.564,0,0,0,2.798e4,1.348e4,19.955,0.106,NaN,2019.554,NaN,0.019,1.298e6,84.603,0.004,0.658,0.007,0.323,0.215,0.12,NaN,NaN,NaN,NaN,NaN,NaN,NaN,NaN,8.957e-6,165,213.825,80,0,6.63,15,1013.25,340.389,0.01,0.044
0.96,-3.058e-4,-0.061,-6.116,0.062,6.21,-5.392e-5,0,5.392e-5,180,0.011,1.078,22.175,120.893,9.788,80.529,0,0,0,2.798e4,1.348e4,19.954,0.106,NaN,2019.517,NaN,0.019,1.299e6,95.934,0.004,0.658,0.007,0.323,0.215,0.12,NaN,NaN,NaN,NaN,NaN,NaN,NaN,NaN,8.408e-6,165,213.825,80,0,6.634,15,1013.25,340.389,0.01,0.044
0.97,-2.857e-4,-0.057,-5.715,0.058,5.803,-5.038e-5,0,5.038e-5,180,0.01,1.008,22.175,120.893,9.788,80.494,0,0,0,2.798e4,1.348e4,19.954,0.106,NaN,2019.476,NaN,0.019,1.3e6,107.326,0.004,0.658,0.007,0.323,0.215,0.12,NaN,NaN,NaN,NaN,NaN,NaN,NaN,NaN,7.857e-6,165,213.825,80,0,6.637,15,1013.25,340.389,0.01,0.045
0.98,-2.598e-4,-0.052,-5.196,0.053,5.277,-4.582e-5,0,4.582e-5,180,0.009,0.916,22.175,120.893,9.788,80.449,0,0,0,2.797e4,1.347e4,19.953,0.106,NaN,2019.43,NaN,0.019,1.301e6,122.033,0.004,0.658,0.007,0.323,0.215,0.12,NaN,NaN,NaN,NaN,NaN,NaN,NaN,NaN,7.144e-6,165,213.825,80,0,6.641,15,1013.25,340.389,0.01,0.046
0.99,-2.264e-4,-0.045,-4.528,0.046,4.597,-3.992e-5,0,3.992e-5,180,0.008,0.798,22.175,120.893,9.788,80.391,0,0,0,2.797e4,1.347e4,19.952,0.106,NaN,2019.376,NaN,0.019,1.301e6,141.022,0.004,0.658,0.007,0.323,0.215,0.12,NaN,NaN,NaN,NaN,NaN,NaN,NaN,NaN,6.225e-6,165,213.825,80,0,6.644,15,1013.25,340.389,0.01,0.051
1,-1.775e-4,-0.035,-3.549,0.036,3.604,-3.129e-5,0,3.129e-5,180,0.006,0.626,22.175,120.893,9.788,80.306,0,0,0,2.797e4,1.347e4,19.951,0.106,NaN,2019.312,NaN,0.02,1.302e6,168.795,0.004,0.658,0.007,0.323,0.215,0.12,NaN,NaN,NaN,NaN,NaN,NaN,NaN,NaN,4.88e-6,165,213.825,80,0,6.648,15,1013.25,340.389,0.01,0.051
1.01,-1.08e-4,-0.022,-2.16,0.022,2.193,-1.905e-5,0,1.905e-5,180,0.004,0.381,22.175,120.893,9.788,80.189,0,0,0,2.796e4,1.346e4,19.949,0.106,NaN,2019.232,NaN,0.019,1.283e6,208.221,0.004,0.659,0.007,0.324,0.215,0.12,NaN,NaN,NaN,NaN,NaN,NaN,NaN,NaN,2.97e-6,165,213.825,80,0,6.545,15,1013.25,340.389,0.01,0.051
1.02,-4.34e-5,-0.009,-0.867,0.009,0.88,-7.653e-6,0,7.653e-6,180,0.002,0.153,22.175,120.893,9.788,80.077,0,0,0,2.796e4,1.346e4,19.948,0.106,NaN,2019.139,NaN,0.019,1.263e6,244.886,0.004,0.66,0.008,0.325,0.215,0.12,NaN,NaN,NaN,NaN,NaN,NaN,NaN,NaN,1.193e-6,165,213.825,80,0,6.442,15,1013.25,340.389,0.01,0.051
1.03,2.651e-5,0.005,0.531,0.005,0.54,4.674e-6,0,4.674e-6,0,9.353e-4,0.094,22.175,120.893,9.788,79.952,0,0,0,2.795e4,1.345e4,19.946,0.106,NaN,2019.03,NaN,0.019,1.243e6,284.538,0.004,0.661,0.008,0.326,0.215,0.12,NaN,NaN,NaN,NaN,NaN,NaN,NaN,NaN,7.292e-7,165,213.825,80,0,6.34,15,1013.25,340.389,0.01,0.051
1.04,1.812e-4,0.026,2.035,0.026,2.066,3.195e-5,0,3.195e-5,0,0.005,0.359,22.175,120.893,9.788,79.765,0,0,0,2.795e4,1.345e4,19.943,0.106,NaN,2018.905,NaN,0.018,1.224e6,327.142,0.004,0.662,0.008,0.327,0.215,0.12,NaN,NaN,NaN,NaN,NaN,NaN,NaN,NaN,3.525e-6,165,213.825,80,0,6.237,15,1013.25,340.389,0.01,0.052
1.05,6.196e-4,0.062,3.643,0.063,3.699,1.093e-4,0,1.093e-4,0,0.011,0.642,22.175,120.893,9.788,79.421,0,0,0,2.794e4,1.344e4,19.941,0.106,NaN,2018.763,NaN,0.018,1.205e6,372.693,0.005,0.663,0.009,0.328,0.215,0.12,NaN,NaN,NaN,NaN,NaN,NaN,NaN,NaN,8.531e-6,165,213.825,80,0,6.134,15,1013.25,340.389,0.01,0.052
1.06,0.002,0.118,5.602,0.12,5.689,2.68e-4,0,2.68e-4,0,0.021,0.988,22.175,120.893,9.788,78.9,0,0,0,2.793e4,1.343e4,19.938,0.106,NaN,2018.599,NaN,0.018,1.206e6,428.171,0.005,0.663,0.011,0.328,0.215,0.12,NaN,NaN,NaN,NaN,NaN,NaN,NaN,NaN,1.623e-5,165,213.825,80,0,6.128,15,1013.25,340.389,0.01,0.052
1.07,0.003,0.193,7.537,0.196,7.653,5.426e-4,0,5.426e-4,0,0.034,1.329,22.175,120.893,9.788,78.2,0,0,0,2.792e4,1.342e4,19.935,0.106,NaN,2018.415,NaN,0.018,1.208e6,482.882,0.006,0.663,0.013,0.328,0.215,0.12,NaN,NaN,NaN,NaN,NaN,NaN,NaN,NaN,2.659e-5,165,213.825,80,0,6.121,15,1013.25,340.389,0.01,0.052
1.08,0.005,0.291,9.756,0.295,9.906,9.696e-4,0,9.696e-4,0,0.051,1.72,22.175,120.893,9.788,77.299,0,0,0,2.791e4,1.341e4,19.931,0.106,NaN,2018.206,NaN,0.018,1.211e6,545.617,0.008,0.663,0.016,0.328,0.215,0.12,NaN,NaN,NaN,NaN,NaN,NaN,NaN,NaN,4e-5,165,213.825,80,0,6.114,15,1013.249,340.389,0.01,0.053
1.09,0.009,0.414,12.278,0.42,12.467,0.002,0,0.002,0,0.073,2.165,22.175,120.893,9.788,76.171,0,0,0,2.79e4,1.34e4,19.927,0.106,NaN,2017.969,NaN,0.018,1.215e6,616.859,0.01,0.663,0.02,0.327,0.215,0.12,NaN,NaN,NaN,NaN,NaN,NaN,NaN,NaN,5.687e-5,165,213.825,80,0,6.108,15,1013.249,340.389,0.01,0.053
1.1,0.014,0.565,15.164,0.574,15.397,0.002,0,0.002,0,0.1,2.674,22.175,120.893,9.788,74.791,0,0,0,2.789e4,1.339e4,19.922,0.106,NaN,2017.702,NaN,0.018,1.221e6,698.307,0.013,0.662,0.026,0.327,0.215,0.12,NaN,NaN,NaN,NaN,NaN,NaN,NaN,NaN,7.771e-5,165,213.825,80,0,6.101,15,1013.248,340.389,0.01,0.053
1.11,0.02,0.747,18.204,0.759,18.485,0.004,0,0.004,0,0.132,3.21,22.175,120.893,9.788,73.204,0,0,0,2.788e4,1.338e4,19.917,0.106,NaN,2017.401,NaN,0.019,1.238e6,784.022,0.018,0.661,0.035,0.326,0.215,0.12,NaN,NaN,NaN,NaN,NaN,NaN,NaN,NaN,1.027e-4,165,213.825,80,0,6.138,15,1013.248,340.389,0.01,0.053
1.12,0.029,0.96,21.324,0.975,21.653,0.005,0,0.005,0,0.169,3.76,22.175,120.893,9.788,71.393,0,0,0,2.786e4,1.336e4,19.911,0.106,NaN,2017.066,NaN,0.019,1.258e6,871.849,0.025,0.66,0.046,0.325,0.215,0.12,NaN,NaN,NaN,NaN,NaN,NaN,NaN,NaN,1.32e-4,165,213.825,80,0,6.175,15,1013.247,340.389,0.01,0.054
1.13,0.04,1.205,24.498,1.224,24.876,0.007,0,0.007,0,0.213,4.32,22.175,120.893,9.788,69.375,0,0,0,2.784e4,1.334e4,19.904,0.106,NaN,2016.696,NaN,0.019,1.282e6,961.049,0.034,0.659,0.061,0.324,0.215,0.12,NaN,NaN,NaN,NaN,NaN,NaN,NaN,NaN,1.657e-4,165,213.825,80,0,6.212,15,1013.245,340.389,0.01,0.054
1.14,0.053,1.479,27.388,1.502,27.811,0.009,0,0.009,0,0.261,4.829,22.175,120.893,9.788,67.201,0,0,0,2.782e4,1.332e4,19.897,0.106,NaN,2016.295,NaN,0.02,1.309e6,1042.073,0.047,0.658,0.08,0.323,0.215,0.12,NaN,NaN,NaN,NaN,NaN,NaN,NaN,NaN,2.033e-4,165,213.825,80,0,6.249,15,1013.244,340.389,0.01,0.054
1.15,0.07,1.778,29.892,1.805,30.354,0.012,0,0.012,0,0.313,5.271,22.175,120.893,9.788,64.925,0,0,0,2.78e4,1.33e4,19.889,0.106,NaN,2015.866,NaN,0.02,1.34e6,1112.029,0.063,0.656,0.103,0.321,0.215,0.12,NaN,NaN,NaN,NaN,NaN,NaN,NaN,NaN,2.444e-4,165,213.825,80,0,6.286,15,1013.242,340.389,0.01,0.054
1.16,0.089,2.098,32.067,2.131,32.562,0.016,0,0.016,0,0.37,5.654,22.175,120.893,9.788,62.539,0,0,0,2.778e4,1.328e4,19.881,0.106,NaN,2015.413,NaN,0.021,1.371e6,1172.553,0.083,0.655,0.13,0.32,0.215,0.12,NaN,NaN,NaN,NaN,NaN,NaN,NaN,NaN,2.885e-4,165,213.825,80,0,6.301,14.999,1013.24,340.389,0.01,0.054
1.17,0.112,2.436,33.789,2.474,34.311,0.02,0,0.02,0,0.43,5.958,22.175,120.893,9.788,60.142,0,0,0,2.776e4,1.326e4,19.873,0.105,NaN,2014.941,NaN,0.021,1.406e6,1220.187,0.109,0.653,0.161,0.318,0.215,0.12,NaN,NaN,NaN,NaN,NaN,NaN,NaN,NaN,3.349e-4,165,213.825,80,0,6.315,14.999,1013.237,340.388,0.01,0.054
1.18,0.138,2.786,35.053,2.829,35.594,0.024,0,0.024,0,0.491,6.181,22.175,120.893,9.788,57.779,0,0,0,2.774e4,1.324e4,19.864,0.105,NaN,2014.455,NaN,0.022,1.445e6,1254.818,0.139,0.652,0.195,0.317,0.215,0.12,NaN,NaN,NaN,NaN,NaN,NaN,NaN,NaN,3.831e-4,165,213.825,80,0,6.329,14.999,1013.234,340.388,0.01,0.055
1.19,0.167,3.145,35.847,3.193,36.4,0.03,0,0.03,0,0.554,6.321,22.175,120.893,9.788,55.494,0,0,0,2.771e4,1.321e4,19.855,0.105,NaN,2013.959,NaN,0.022,1.487e6,1276.135,0.173,0.65,0.23,0.315,0.215,0.12,NaN,NaN,NaN,NaN,NaN,NaN,NaN,NaN,4.323e-4,165,213.825,80,0,6.344,14.999,1013.23,340.388,0.01,0.055
1.2,0.201,3.508,36.394,3.563,36.955,0.035,0,0.035,0,0.619,6.417,22.175,120.893,9.788,53.304,0,0,0,2.769e4,1.319e4,19.846,0.105,NaN,2013.458,NaN,0.023,1.531e6,1290.479,0.213,0.648,0.267,0.313,0.215,0.12,NaN,NaN,NaN,NaN,NaN,NaN,NaN,NaN,4.823e-4,165,213.825,80,0,6.358,14.999,1013.226,340.388,0.01,0.055
1.21,0.238,3.875,36.697,3.935,37.263,0.042,0,0.042,0,0.683,6.471,22.175,120.893,9.788,50.889,0,0,0,2.767e4,1.317e4,19.837,0.105,NaN,2012.952,NaN,0.023,1.562e6,1297.933,0.257,0.647,0.31,0.312,0.215,0.12,NaN,NaN,NaN,NaN,NaN,NaN,NaN,NaN,5.328e-4,165,213.825,80,0,6.276,14.998,1013.222,340.388,0.01,0.055
1.22,0.278,4.243,36.755,4.308,37.322,0.049,0,0.049,0,0.748,6.481,22.175,120.893,9.788,48.569,0,0,0,2.764e4,1.314e4,19.828,0.105,NaN,2012.446,NaN,0.024,1.596e6,1298.512,0.306,0.646,0.353,0.311,0.215,0.12,NaN,NaN,NaN,NaN,NaN,NaN,NaN,NaN,5.833e-4,165,213.825,80,0,6.194,14.998,1013.217,340.388,0.01,0.055
1.23,0.322,4.61,36.797,4.681,37.365,0.057,0,0.057,0,0.813,6.488,22.175,120.893,9.788,46.345,0,0,0,2.762e4,1.312e4,19.819,0.105,NaN,2011.938,NaN,0.024,1.631e6,1298.633,0.358,0.645,0.395,0.309,0.215,0.12,NaN,NaN,NaN,NaN,NaN,NaN,NaN,NaN,6.338e-4,165,213.825,80,0,6.112,14.998,1013.212,340.388,0.01,0.056
1.24,0.37,4.977,36.704,5.054,37.27,0.065,0,0.065,0,0.878,6.472,22.175,120.893,9.788,44.224,0,0,0,2.76e4,1.31e4,19.81,0.105,NaN,2011.431,NaN,0.025,1.67e6,1294.965,0.415,0.643,0.437,0.308,0.215,0.12,NaN,NaN,NaN,NaN,NaN,NaN,NaN,NaN,6.843e-4,165,213.825,80,0,6.03,14.998,1013.207,340.387,0.01,0.056
1.25,0.422,5.343,36.618,5.426,37.183,0.074,0,0.074,0,0.942,6.457,22.175,120.893,9.788,42.204,0,0,0,2.757e4,1.307e4,19.801,0.105,NaN,2010.925,NaN,0.026,1.71e6,1291.53,0.475,0.642,0.477,0.307,0.215,0.12,NaN,NaN,NaN,NaN,NaN,NaN,NaN,NaN,7.346e-4,165,213.825,80,0,5.947,14.997,1013.201,340.387,0.01,0.056
1.26,0.477,5.708,36.531,5.796,37.094,0.084,0,0.084,0,1.007,6.441,22.175,120.893,9.788,40.771,0,0,0,2.755e4,1.305e4,19.792,0.105,NaN,2010.419,NaN,0.027,1.77e6,1288.052,0.538,0.64,0.504,0.305,0.215,0.12,NaN,NaN,NaN,NaN,NaN,NaN,NaN,NaN,7.848e-4,165,213.825,80,0,5.985,14.997,1013.194,340.387,0.01,0.056
1.27,0.536,6.072,36.419,6.166,36.981,0.095,0,0.095,0,1.071,6.422,22.175,120.893,9.788,39.437,0,0,0,2.753e4,1.303e4,19.783,0.105,NaN,2009.914,NaN,0.027,1.831e6,1283.912,0.605,0.638,0.53,0.303,0.215,0.12,NaN,NaN,NaN,NaN,NaN,NaN,NaN,NaN,8.348e-4,165,213.825,80,0,6.023,14.997,1013.187,340.387,0.01,0.056
1.28,0.599,6.436,36.386,6.535,36.947,0.106,0,0.106,0,1.135,6.416,22.175,120.893,9.788,38.191,0,0,0,2.75e4,1.3e4,19.774,0.105,NaN,2009.409,NaN,0.028,1.893e6,1281.967,0.675,0.636,0.553,0.301,0.215,0.12,NaN,NaN,NaN,NaN,NaN,NaN,NaN,NaN,8.848e-4,165,213.825,80,0,6.061,14.996,1013.18,340.387,0.01,0.057
1.29,0.665,6.799,36.303,6.904,36.864,0.117,0,0.117,0,1.199,6.401,22.175,120.893,9.788,37.027,0,0,0,2.748e4,1.298e4,19.765,0.105,NaN,2008.904,NaN,0.029,1.956e6,1278.651,0.748,0.634,0.574,0.299,0.215,0.12,NaN,NaN,NaN,NaN,NaN,NaN,NaN,NaN,9.347e-4,165,213.825,80,0,6.099,14.996,1013.172,340.386,0.01,0.057
1.3,0.735,7.161,36.262,7.272,36.821,0.13,0,0.13,0,1.263,6.394,22.175,120.893,9.788,35.938,0,0,0,2.746e4,1.296e4,19.756,0.105,NaN,2008.399,NaN,0.03,2.019e6,1276.485,0.825,0.633,0.594,0.297,0.215,0.12,NaN,NaN,NaN,NaN,NaN,NaN,NaN,NaN,9.845e-4,165,213.825,80,0,6.137,14.995,1013.164,340.386,0.01,0.057
1.31,0.808,7.524,36.256,7.64,36.815,0.142,0,0.142,0,1.327,6.393,22.175,120.893,9.788,34.759,0,0,0,2.743e4,1.293e4,19.747,0.105,NaN,2007.894,NaN,0.031,2.078e6,1275.318,0.904,0.631,0.615,0.296,0.215,0.12,NaN,NaN,NaN,NaN,NaN,NaN,NaN,NaN,0.001,165,213.825,80,0,6.134,14.995,1013.155,340.386,0.01,0.057
1.32,0.885,7.886,36.227,8.007,36.786,0.156,0,0.156,0,1.39,6.388,22.175,120.893,9.788,33.646,0,0,0,2.741e4,1.291e4,19.738,0.105,NaN,2007.388,NaN,0.032,2.137e6,1273.528,0.986,0.629,0.634,0.294,0.215,0.12,NaN,NaN,NaN,NaN,NaN,NaN,NaN,NaN,0.001,165,213.825,80,0,6.131,14.994,1013.146,340.385,0.01,0.057
1.33,0.966,8.248,36.276,8.376,36.835,0.17,0,0.17,0,1.454,6.396,22.175,120.893,9.788,32.591,0,0,0,2.739e4,1.289e4,19.729,0.105,NaN,2006.882,NaN,0.033,2.197e6,1273.891,1.071,0.628,0.651,0.293,0.215,0.12,NaN,NaN,NaN,NaN,NaN,NaN,NaN,NaN,0.001,165,213.825,80,0,6.128,14.994,1013.137,340.385,0.01,0.058
1.34,1.05,8.611,36.252,8.744,36.811,0.185,0,0.185,0,1.518,6.392,22.175,120.893,9.788,31.594,0,0,0,2.736e4,1.286e4,19.72,0.105,NaN,2006.376,NaN,0.034,2.258e6,1272.247,1.158,0.627,0.667,0.291,0.215,0.12,NaN,NaN,NaN,NaN,NaN,NaN,NaN,NaN,0.001,165,213.825,80,0,6.125,14.993,1013.127,340.385,0.01,0.058
1.35,1.138,8.973,36.261,9.112,36.821,0.201,0,0.201,0,1.582,6.394,22.175,120.893,9.788,30.649,0,0,0,2.734e4,1.284e4,19.711,0.105,NaN,2005.868,NaN,0.035,2.319e6,1271.517,1.249,0.625,0.682,0.29,0.215,0.12,NaN,NaN,NaN,NaN,NaN,NaN,NaN,NaN,0.001,165,213.825,80,0,6.122,14.993,1013.117,340.384,0.01,0.058
1.36,1.23,9.336,36.297,9.48,36.857,0.217,0,0.217,0,1.646,6.4,22.175,120.893,9.788,29.986,0,0,0,2.732e4,1.282e4,19.702,0.105,NaN,2005.361,NaN,0.036,2.389e6,1271.539,1.343,0.624,0.691,0.288,0.215,0.12,NaN,NaN,NaN,NaN,NaN,NaN,NaN,NaN,0.001,165,213.825,80,0,6.184,14.992,1013.106,340.384,0.01,0.058
1.37,1.325,9.699,36.312,9.848,36.873,0.234,0,0.234,0,1.71,6.403,22.175,120.893,9.788,29.36,0,0,0,2.729e4,1.279e4,19.693,0.105,NaN,2004.852,NaN,0.037,2.46e6,1270.983,1.443,0.623,0.7,0.288,0.215,0.12,NaN,NaN,NaN,NaN,NaN,NaN,NaN,NaN,0.001,165,213.825,80,0,6.245,14.991,1013.095,340.384,0.01,0.058
1.38,1.423,10.063,36.426,10.218,36.988,0.251,0,0.251,0,1.774,6.423,22.175,120.893,9.788,28.766,0,0,0,2.727e4,1.277e4,19.684,0.105,NaN,2004.342,NaN,0.038,2.531e6,1273.167,1.547,0.623,0.709,0.288,0.215,0.12,NaN,NaN,NaN,NaN,NaN,NaN,NaN,NaN,0.001,165,213.825,80,0,6.307,14.991,1013.083,340.383,0.01,0.059
1.39,1.526,10.427,36.465,10.588,37.028,0.269,0,0.269,0,1.839,6.43,22.175,120.893,9.788,28.204,0,0,0,2.725e4,1.275e4,19.675,0.105,NaN,2003.83,NaN,0.039,2.602e6,1273.278,1.655,0.623,0.718,0.288,0.215,0.12,NaN,NaN,NaN,NaN,NaN,NaN,NaN,NaN,0.001,165,213.825,80,0,6.368,14.99,1013.071,340.383,0.01,0.059
1.4,1.632,10.793,36.551,10.959,37.115,0.288,0,0.288,0,1.903,6.445,22.175,120.893,9.788,27.671,0,0,0,2.723e4,1.273e4,19.666,0.105,NaN,2003.318,NaN,0.04,2.674e6,1274.663,1.766,0.623,0.726,0.288,0.215,0.12,NaN,NaN,NaN,NaN,NaN,NaN,NaN,NaN,0.001,165,213.825,80,0,6.43,14.989,1013.059,340.382,0.01,0.059
1.41,1.742,11.159,36.656,11.331,37.221,0.307,0,0.307,0,1.968,6.463,22.175,120.893,9.788,26.981,0,0,0,2.72e4,1.27e4,19.657,0.105,NaN,2002.803,NaN,0.041,2.739e6,1276.588,1.878,0.623,0.735,0.288,0.215,0.12,NaN,NaN,NaN,NaN,NaN,NaN,NaN,NaN,0.002,165,213.825,80,0,6.436,14.989,1013.046,340.382,0.01,0.059
1.42,1.855,11.526,36.722,11.704,37.288,0.327,0,0.327,0,2.032,6.475,22.175,120.893,9.788,26.322,0,0,0,2.718e4,1.268e4,19.648,0.105,NaN,2002.288,NaN,0.042,2.805e6,1277.444,1.993,0.623,0.744,0.288,0.215,0.12,NaN,NaN,NaN,NaN,NaN,NaN,NaN,NaN,0.002,165,213.825,80,0,6.441,14.988,1013.032,340.382,0.01,0.059
1.43,1.972,11.895,36.855,12.078,37.423,0.348,0,0.348,0,2.097,6.499,22.175,120.893,9.788,25.691,0,0,0,2.716e4,1.266e4,19.639,0.105,NaN,2001.77,NaN,0.043,2.872e6,1280.14,2.112,0.623,0.752,0.288,0.215,0.12,NaN,NaN,NaN,NaN,NaN,NaN,NaN,NaN,0.002,165,213.825,80,0,6.447,14.987,1013.019,340.381,0.01,0.06
1.44,2.093,12.263,36.91,12.453,37.479,0.369,0,0.369,0,2.162,6.508,22.175,120.893,9.788,25.088,0,0,0,2.713e4,1.263e4,19.629,0.105,NaN,2001.252,NaN,0.044,2.939e6,1280.681,2.233,0.623,0.759,0.288,0.215,0.12,NaN,NaN,NaN,NaN,NaN,NaN,NaN,NaN,0.002,165,213.825,80,0,6.453,14.986,1013.005,340.381,0.01,0.06
1.45,2.218,12.633,37.017,12.828,37.588,0.391,0,0.391,0,2.228,6.527,22.175,120.893,9.788,24.51,0,0,0,2.711e4,1.261e4,19.62,0.105,NaN,2000.731,NaN,0.045,3.006e6,1282.653,2.357,0.623,0.766,0.288,0.215,0.12,NaN,NaN,NaN,NaN,NaN,NaN,NaN,NaN,0.002,165,213.825,80,0,6.458,14.986,1012.99,340.38,0.01,0.065
1.46,2.346,13.005,37.133,13.205,37.706,0.414,0,0.414,0,2.293,6.548,22.175,120.893,9.788,24.001,0,0,0,2.709e4,1.259e4,19.611,0.104,NaN,2000.209,NaN,0.046,3.076e6,1284.861,2.485,0.623,0.771,0.288,0.215,0.12,NaN,NaN,NaN,NaN,NaN,NaN,NaN,NaN,0.002,165,213.825,80,0,6.479,14.985,1012.975,340.38,0.01,0.066
1.47,2.478,13.376,37.184,13.583,37.757,0.437,0,0.437,0,2.359,6.557,22.175,120.893,9.788,23.515,0,0,0,2.706e4,1.256e4,19.602,0.104,NaN,1999.686,NaN,0.047,3.146e6,1285.292,2.616,0.623,0.776,0.288,0.215,0.12,NaN,NaN,NaN,NaN,NaN,NaN,NaN,NaN,0.002,165,213.825,80,0,6.5,14.984,1012.959,340.379,0.01,0.066
1.48,2.613,13.749,37.303,13.961,37.878,0.461,0,0.461,0,2.424,6.578,22.175,120.893,9.788,23.048,0,0,0,2.704e4,1.254e4,19.592,0.104,NaN,1999.161,NaN,0.048,3.216e6,1287.587,2.75,0.623,0.781,0.288,0.215,0.12,NaN,NaN,NaN,NaN,NaN,NaN,NaN,NaN,0.002,165,213.825,80,0,6.521,14.983,1012.943,340.379,0.01,0.066
1.49,2.753,14.122,37.347,14.34,37.924,0.485,0,0.485,0,2.49,6.585,22.175,120.893,9.788,22.6,0,0,0,2.702e4,1.252e4,19.583,0.104,NaN,1998.635,NaN,0.049,3.287e6,1287.832,2.887,0.623,0.785,0.288,0.215,0.12,NaN,NaN,NaN,NaN,NaN,NaN,NaN,NaN,0.002,165,213.825,80,0,6.542,14.982,1012.927,340.378,0.01,0.067
1.5,2.896,14.496,37.416,14.72,37.993,0.511,0,0.511,0,2.556,6.597,22.175,120.893,9.788,22.17,0,0,0,2.699e4,1.249e4,19.574,0.104,NaN,1998.108,NaN,0.05,3.358e6,1288.735,3.027,0.623,0.788,0.288,0.215,0.12,NaN,NaN,NaN,NaN,NaN,NaN,NaN,NaN,0.002,165,213.825,80,0,6.562,14.981,1012.91,340.377,0.01,0.067
1.51,3.043,14.871,37.496,15.101,38.074,0.536,0,0.536,0,2.622,6.612,22.175,120.893,9.788,21.747,0,0,0,2.697e4,1.247e4,19.564,0.104,NaN,1997.579,NaN,0.051,3.429e6,1289.948,3.17,0.623,0.792,0.288,0.215,0.12,NaN,NaN,NaN,NaN,NaN,NaN,NaN,NaN,0.002,165,213.825,80,0,6.579,14.98,1012.893,340.377,0.01,0.067
1.52,3.193,15.246,37.51,15.481,38.089,0.563,0,0.563,0,2.688,6.614,22.175,120.893,9.788,21.341,0,0,0,2.695e4,1.244e4,19.555,0.104,NaN,1997.049,NaN,0.052,3.5e6,1289.376,3.315,0.623,0.795,0.288,0.215,0.12,NaN,NaN,NaN,NaN,NaN,NaN,NaN,NaN,0.002,165,213.825,80,0,6.596,14.979,1012.875,340.376,0.01,0.067
1.53,3.348,15.622,37.648,15.863,38.229,0.59,0,0.59,0,2.755,6.638,22.175,120.893,9.788,20.949,0,0,0,2.692e4,1.242e4,19.546,0.104,NaN,1996.518,NaN,0.054,3.572e6,1292.164,3.464,0.624,0.797,0.288,0.215,0.12,NaN,NaN,NaN,NaN,NaN,NaN,NaN,NaN,0.002,165,213.825,80,0,6.614,14.978,1012.857,340.376,0.01,0.068
1.54,3.506,15.999,37.716,16.246,38.298,0.618,0,0.618,0,2.821,6.65,22.175,120.893,9.788,20.573,0,0,0,2.69e4,1.24e4,19.536,0.104,NaN,1995.985,NaN,0.055,3.643e6,1293.051,3.615,0.624,0.8,0.288,0.215,0.12,NaN,NaN,NaN,NaN,NaN,NaN,NaN,NaN,0.002,165,213.825,80,0,6.631,14.977,1012.839,340.375,0.01,0.068
1.55,3.668,16.377,37.819,16.63,38.403,0.647,0,0.647,0,2.888,6.669,22.175,120.893,9.788,20.209,0,0,0,2.687e4,1.237e4,19.527,0.104,NaN,1995.451,NaN,0.056,3.716e6,1294.89,3.77,0.624,0.802,0.288,0.215,0.12,NaN,NaN,NaN,NaN,NaN,NaN,NaN,NaN,0.002,165,213.825,80,0,6.648,14.976,1012.82,340.374,0.01,0.068
1.56,3.833,16.757,37.942,17.015,38.527,0.676,0,0.676,0,2.955,6.69,22.175,120.893,9.788,19.761,0,0,0,2.685e4,1.235e4,19.517,0.104,NaN,1994.914,NaN,0.057,3.784e6,1297.251,3.922,0.624,0.804,0.288,0.215,0.12,NaN,NaN,NaN,NaN,NaN,NaN,NaN,NaN,0.002,165,213.825,80,0,6.627,14.975,1012.8,340.374,0.01,0.069
1.57,4.003,17.136,37.96,17.4,38.546,0.706,0,0.706,0,3.022,6.693,22.175,120.893,9.788,19.329,0,0,0,2.683e4,1.233e4,19.508,0.104,NaN,1994.377,NaN,0.058,3.854e6,1296.778,4.076,0.624,0.806,0.288,0.215,0.12,NaN,NaN,NaN,NaN,NaN,NaN,NaN,NaN,0.002,165,213.825,80,0,6.606,14.974,1012.781,340.373,0.01,0.069
1.585,4.264,17.706,37.989,17.98,38.675,0.752,1.892e-8,0.752,1.442e-6,3.13,7.25,22.175,120.893,9.788,18.73,0,-0.018,2.461e-6,2.679e4,1.229e4,19.493,0.104,1983.315,1993.568,-0.062,0.059,3.959e6,1298.654,4.313,0.624,0.808,0.288,0.215,0.12,5.794,-0.36,3.823e-4,0,0,0,0,-8.938e-7,0.002,165,213.825,80,-1.496e-7,6.575,14.972,1012.75,340.372,0.015,0.069
1.608,4.672,18.564,38.188,18.854,38.875,0.824,1.202e-7,0.824,8.354e-6,3.294,7.28,22.175,120.893,9.788,17.739,0,-0.03,2.332e-5,2.674e4,1.224e4,19.472,0.104,1991.968,1992.348,-0.002,0.062,4.112e6,1301.804,4.666,0.624,0.81,0.288,0.215,0.12,5.379,-0.012,3.551e-4,0,0,0,0,-2.363e-6,0.003,165,213.825,80.001,-1.498e-6,6.468,14.97,1012.702,340.37,0.023,0.069
1.641,5.32,19.861,38.512,20.175,39.213,0.94,4.441e-7,0.94,2.709e-5,3.542,7.379,22.175,120.893,9.788,15.96,0,-0.003,5.794e-5,2.666e4,1.216e4,19.439,0.104,2008.747,1990.501,0.111,0.065,4.331e6,1307.398,5.167,0.624,0.809,0.288,0.215,0.121,4.659,0.515,-3.831e-4,0,0,0,0,-1.631e-8,0.003,165,213.825,80.001,-3.992e-6,6.127,14.965,1012.626,340.368,0.034,0.07
1.691,6.362,21.803,38.933,22.151,39.631,1.126,1.33e-6,1.126,6.767e-5,3.913,7.407,22.175,120.893,9.788,14.531,0,0.122,5.661e-5,2.654e4,1.204e4,19.39,0.104,2023.517,1987.731,0.217,0.07,4.698e6,1313.533,6.017,0.624,0.8,0.288,0.216,0.121,4.109,0.891,2.306e-4,0,0,0,0,2.975e-5,0.003,165,213.825,79.999,-1.857e-5,6.038,14.959,1012.504,340.364,0.05,0.07
1.741,7.501,23.773,39.499,24.157,40.215,1.331,2.735e-6,1.331,1.177e-4,4.288,7.554,22.175,120.893,9.788,12.671,0,0.333,1.452e-4,2.642e4,1.192e4,19.34,0.104,2044.641,1984.915,0.362,0.076,5.05e6,1323.765,6.786,0.624,0.781,0.288,0.216,0.121,3.428,1.241,6.682e-5,0,0,0,0,1.921e-4,0.003,165,213.825,79.988,-4.174e-5,5.648,14.951,1012.37,340.359,0.05,0.07
1.791,8.74,25.774,40.128,26.194,40.839,1.555,4.696e-6,1.555,1.731e-4,4.669,7.587,22.175,120.893,9.788,11.974,0,0.637,1.533e-4,2.63e4,1.18e4,19.29,0.103,2053.203,1982.048,0.431,0.082,5.449e6,1335.184,7.808,0.624,0.772,0.288,0.216,0.121,3.185,1.373,-9.811e-5,0,0,0,0,6.031e-4,0.004,165,213.825,79.964,-6.889e-5,5.749,14.943,1012.225,340.354,0.05,0.07
1.841,10.079,27.809,40.798,28.264,41.513,1.798,7.248e-6,1.798,2.31e-4,5.052,7.672,22.175,120.893,9.788,11.159,0,1.019,-4.022e-6,2.617e4,1.167e4,19.238,0.103,2063.656,1979.127,0.512,0.088,5.847e6,1347.677,8.858,0.624,0.761,0.288,0.216,0.121,2.908,1.488,3.95e-4,0,0,0,0,0.001,0.004,165,213.825,79.923,-8.367e-5,5.755,14.934,1012.068,340.349,0.05,0.07
1.891,11.522,29.884,41.589,30.375,42.326,2.06,1.043e-5,2.06,2.899e-4,5.443,7.86,22.175,120.893,9.788,10.097,0,1.49,-8.31e-5,2.605e4,1.155e4,19.185,0.103,2078.072,1976.143,0.618,0.094,6.241e6,1363.475,9.879,0.625,0.744,0.288,0.216,0.121,2.559,1.578,-5.262e-5,0,0,0,0,0.003,0.004,165,213.825,79.861,-7.976e-5,5.574,14.925,1011.899,340.344,0.05,0.071
1.941,13.069,31.991,42.239,32.52,42.992,2.342,1.428e-5,2.342,3.492e-4,5.842,8.014,22.175,120.893,9.788,9.33,0,2.05,-6.265e-6,2.593e4,1.143e4,19.132,0.103,2089.099,1973.105,0.703,0.1,6.651e6,1375.364,11.039,0.625,0.732,0.288,0.216,0.121,2.317,1.624,-3.025e-4,0,0,0,0,0.004,0.004,165,213.825,79.772,-6.045e-5,5.523,14.915,1011.717,340.337,0.05,0.071
1.991,14.722,34.134,42.966,34.702,43.755,2.645,1.885e-5,2.645,4.084e-4,6.251,8.272,22.175,120.893,9.788,8.369,0,2.698,-8.258e-5,2.58e4,1.13e4,19.077,0.103,2103.675,1970.006,0.81,0.106,7.06e6,1389.417,12.174,0.625,0.717,0.288,0.216,0.121,2.024,1.633,1.569e-4,0,0,0,0,0.006,0.005,165,213.825,79.654,-1.696e-5,5.313,14.904,1011.523,340.331,0.05,0.071
2.041,16.483,36.326,43.936,36.934,44.766,2.968,2.422e-5,2.968,4.675e-4,6.676,8.582,22.175,120.893,9.788,7.639,0,3.426,-2.862e-4,2.567e4,1.117e4,19.021,0.102,2115.365,1966.831,0.9,0.112,7.487e6,1409.711,13.468,0.625,0.705,0.288,0.216,0.122,1.809,1.619,2.4e-4,0,0,0,0,0.009,0.005,165,213.825,79.501,6.221e-5,5.224,14.893,1011.317,340.324,0.05,0.071
2.091,18.355,38.56,44.777,39.211,45.665,3.312,3.046e-5,3.312,5.268e-4,7.117,8.959,22.175,120.893,9.788,6.791,-5.732e-7,4.23,-4.057e-4,2.554e4,1.104e4,18.964,0.102,2129.637,1963.584,1.006,0.119,7.917e6,1426.753,14.776,0.626,0.691,0.287,0.216,0.122,1.569,1.567,-3.08e-4,0,0,0,0,0.013,0.005,165,213.825,79.31,1.482e-4,5.027,14.881,1011.097,340.317,0.05,0.071
2.141,20.34,40.822,45.33,41.52,46.293,3.68,3.766e-5,3.68,5.864e-4,7.577,9.392,22.175,120.893,9.788,5.802,-6.373e-7,5.084,-2.237e-4,2.541e4,1.091e4,18.906,0.102,2147.311,1960.282,1.134,0.125,8.347e6,1436.554,16.068,0.626,0.677,0.287,0.216,0.122,1.301,1.459,1.681e-4,0,0,0,0,0.016,0.006,165,213.825,79.078,2.172e-4,4.689,14.868,1010.864,340.309,0.05,0.072
2.191,22.438,43.116,45.981,43.863,46.987,4.071,4.592e-5,4.071,6.464e-4,8.056,9.674,22.175,120.893,9.788,5.694,7.936e-7,5.993,-2.255e-5,2.528e4,1.078e4,18.847,0.102,2149.407,1956.918,1.167,0.132,8.822e6,1448.404,17.92,0.626,0.675,0.287,0.217,0.122,1.273,1.465,4.695e-4,0,0,0,0,0.02,0.006,165,213.825,78.801,2.927e-4,5.037,14.854,1010.618,340.301,0.05,0.072
2.241,24.652,45.445,46.655,46.243,47.73,4.486,5.534e-5,4.486,7.068e-4,8.552,10.073,22.175,120.893,9.788,5.393,-1.128e-6,7.021,-3.06e-4,2.515e4,1.065e4,18.787,0.102,2155.135,1953.489,1.222,0.14,9.298e6,1461.178,19.791,0.627,0.671,0.287,0.217,0.123,1.195,1.435,-3.114e-4,0,0,0,0,0.025,0.006,165,213.825,78.476,3.922e-4,5.27,14.84,1010.359,340.292,0.05,0.073
2.291,26.983,47.795,47.085,48.648,48.264,4.926,6.602e-5,4.926,7.679e-4,9.07,10.6,22.175,120.893,9.788,4.782,-1.959e-6,8.107,-4.573e-4,2.501e4,1.051e4,18.726,0.101,2167.017,1950.006,1.315,0.147,9.766e6,1468.288,21.569,0.627,0.663,0.287,0.217,0.123,1.039,1.337,2.675e-4,0,0,0,0,0.03,0.007,165,213.825,78.098,4.893e-4,5.255,14.825,1010.085,340.283,0.05,0.073
2.341,29.432,50.146,47.072,51.059,48.375,5.393,7.809e-5,5.393,8.296e-4,9.612,11.154,22.175,120.893,9.788,4.078,1.711e-6,9.2,1.833e-4,2.488e4,1.038e4,18.664,0.101,2181.318,1946.495,1.423,0.154,1.023e7,1464.702,23.363,0.627,0.655,0.287,0.217,0.123,0.867,1.198,2.25e-4,0,0,0,0,0.036,0.007,165,213.825,77.665,5.834e-4,5.158,14.809,1009.798,340.273,0.05,0.073
2.391,31.998,52.494,47.022,53.473,48.458,5.888,9.168e-5,5.888,8.921e-4,10.183,11.71,22.175,120.893,9.788,3.578,-1.389e-6,10.279,-2.938e-4,2.475e4,1.025e4,18.602,0.101,2191.937,1942.956,1.509,0.161,1.071e7,1460.577,25.383,0.628,0.649,0.287,0.217,0.123,0.748,1.089,5.382e-5,0,0,0,0,0.041,0.007,165,213.825,77.178,6.59e-4,5.267,14.792,1009.497,340.263,0.05,0.073
2.441,34.681,54.842,47.01,55.892,48.586,6.412,1.069e-4,6.412,9.553e-4,10.782,12.277,22.175,120.893,9.788,3.268,2.041e-6,11.373,4.136e-4,2.461e4,1.011e4,18.539,0.101,2198.779,1939.385,1.572,0.168,1.12e7,1457.734,27.641,0.628,0.646,0.287,0.217,0.124,0.676,1.018,4.448e-5,0,0,0,0,0.045,0.008,165,213.825,76.637,7.393e-4,5.599,14.775,1009.182,340.252,0.05,0.074
2.491,37.481,57.168,46.531,58.296,48.316,6.966,1.239e-4,6.966,0.001,11.41,13.01,22.175,120.893,9.788,2.493,0,12.432,7.566e-4,2.448e4,9982.7,18.477,0.101,2216.317,1935.809,1.7,0.175,1.166e7,1444.705,29.657,0.629,0.64,0.287,0.218,0.124,0.503,0.804,3.735e-5,0,0,0,0,0.05,0.008,165,213.825,76.041,7.863e-4,5.471,14.756,1008.854,340.241,0.05,0.074
2.541,40.398,59.483,46.3,60.697,48.307,7.553,1.428e-4,7.553,0.001,12.078,13.78,22.175,120.893,9.788,1.953,2.978e-6,13.307,7.245e-4,2.435e4,9851.919,18.414,0.1,2229.172,1932.21,1.8,0.182,1.213e7,1438.362,31.95,0.629,0.636,0.287,0.218,0.124,0.387,0.643,-1.416e-4,0,0,0,0,0.053,0.008,165,213.825,75.398,8.1e-4,5.603,14.737,1008.512,340.23,0.05,0.074
2.591,43.429,61.779,45.884,63.088,48.193,8.175,1.638e-4,8.175,0.001,12.788,14.74,22.175,120.893,9.788,1.053,-2.889e-6,13.995,0.002,2.422e4,9721.977,18.351,0.1,2251.672,1928.595,1.958,0.189,1.258e7,1429.136,34.142,0.629,0.632,0.287,0.218,0.125,0.202,0.341,-5.783e-5,0,0,0,0,0.054,0.009,165,213.825,74.714,8.062e-4,5.321,14.718,1008.156,340.218,0.05,0.075
2.641,46.575,64.076,45.923,65.493,48.53,8.833,1.868e-4,8.833,0.001,13.55,15.691,22.175,120.893,9.788,0.567,0,14.327,0.005,2.409e4,9591.843,18.287,0.1,2264.505,1924.936,2.058,0.196,1.306e7,1431.244,36.746,0.63,0.631,0.287,0.218,0.125,0.107,0.167,-1.05e-4,0,0,0,0,0.053,0.009,165,213.825,74.005,7.582e-4,5.504,14.697,1007.787,340.205,0.05,0.075
2.691,49.837,66.369,45.805,67.905,48.774,9.531,2.119e-4,9.531,0.001,14.361,16.758,22.175,120.893,9.788,0.145,5.804e-6,-14.403,0.021,2.396e4,9461.748,18.222,0.1,2276.067,1921.238,2.15,0.204,1.353e7,1430.823,39.409,0.63,0.631,0.287,0.218,0.125,0.027,0.108,4.036e-6,0,0,0,0,-0.05,0.009,165,213.825,73.285,7.05e-4,5.385,14.676,1007.405,340.193,0.05,0.075
2.741,53.212,68.662,45.783,70.33,49.173,10.27,2.393e-4,10.27,0.001,15.229,17.941,22.175,120.893,9.788,0.908,-5.613e-6,-13.962,0.005,2.383e4,9331.363,18.157,0.1,2255.84,1917.492,2.051,0.211,1.399e7,1433.995,42.28,0.631,0.633,0.287,0.219,0.126,0.173,0.399,-5.551e-5,0,0,0,0,-0.044,0.01,165,213.825,72.574,6.746e-4,5.13,14.654,1007.009,340.179,0.05,0.075
2.791,56.703,70.962,45.915,72.778,49.75,11.055,2.69e-4,11.055,0.001,16.159,19.153,22.175,120.893,9.788,1.543,2.031e-6,-13.02,0.002,2.37e4,9200.305,18.091,0.099,2239.925,1913.685,1.977,0.218,1.446e7,1441.415,45.406,0.632,0.636,0.287,0.219,0.126,0.301,0.631,1.897e-4,0,0,0,0,-0.036,0.01,165,213.825,71.898,6.793e-4,4.938,14.631,1006.6,340.166,0.05,0.076
2.841,60.309,73.266,46.04,75.245,50.25,11.887,3.01e-4,11.887,0.001,17.144,20.133,22.175,120.893,9.788,1.814,5.651e-6,-11.683,0.002,2.357e4,9068.707,18.023,0.099,2233.445,1909.819,1.961,0.225,1.495e7,1447.346,48.733,0.632,0.638,0.286,0.219,0.127,0.358,0.729,-1.223e-4,0,0,0,0,-0.027,0.01,165,213.825,71.279,7.283e-4,5.122,14.608,1006.177,340.151,0.05,0.076
2.891,64.029,75.556,45.734,77.711,50.325,12.77,3.356e-4,12.77,0.002,18.171,21,22.175,120.893,9.788,2.184,9.729e-7,-10.051,0.003,2.344e4,8937.495,17.955,0.099,2224.781,1905.922,1.932,0.232,1.543e7,1443.113,52.164,0.633,0.641,0.286,0.219,0.127,0.437,0.863,1.386e-4,0,0,0,0,-0.019,0.011,165,213.825,70.735,8.749e-4,5.044,14.584,1005.74,340.137,0.05,0.076
2.941,67.864,77.825,45.365,80.167,50.218,13.705,3.731e-4,13.705,0.002,19.233,21.537,22.175,120.893,9.787,2.249,-1.428e-6,-8.078,0.003,2.331e4,8806.998,17.887,0.099,2223.45,1902.002,1.948,0.24,1.592e7,1435.232,55.656,0.633,0.642,0.286,0.22,0.127,0.451,0.89,1.363e-4,0,0,0,0,-0.011,0.011,165,213.825,70.281,0.001,5.259,14.559,1005.291,340.122,0.05,0.076
2.991,71.812,80.095,45.329,82.636,50.58,14.694,4.138e-4,14.694,0.002,20.333,22.442,22.175,120.893,9.787,2.706,5.231e-6,-5.825,0.001,2.318e4,8676.274,17.818,0.099,2213.068,1898.031,1.909,0.247,1.637e7,1437.734,59.265,0.634,0.647,0.286,0.22,0.128,0.551,1.058,3.281e-4,0,0,0,0,-0.006,0.011,165,213.825,69.932,0.001,4.708,14.533,1004.828,340.106,0.05,0.076
3.041,75.874,82.378,45.682,85.131,51.136,15.739,4.583e-4,15.739,0.002,21.474,22.979,22.175,120.893,9.787,2.71,5.328e-7,-3.092,0.002,2.305e4,8544.831,17.748,0.098,2213.159,1893.993,1.934,0.254,1.685e7,1445.651,62.886,0.635,0.648,0.286,0.22,0.128,0.553,1.07,-3.032e-4,0,0,0,0,-0.001,0.012,165,213.825,69.709,0.002,4.625,14.507,1004.351,340.09,0.05,0.077
3.091,80.05,84.677,46.148,87.647,51.486,16.841,5.071e-4,16.841,0.002,22.623,22.829,22.175,120.893,9.787,2.142,0,-0.46,0.003,2.291e4,8412.968,17.677,0.098,2226.563,1889.896,2.04,0.262,1.738e7,1450.255,66.511,0.635,0.644,0.286,0.221,0.129,0.428,0.874,-4.028e-5,0,0,0,0,-3.056e-5,0.012,165,213.825,69.622,0.002,5.279,14.48,1003.861,340.074,0.05,0.077
