# Time (s),Altitude (m),Vertical velocity (m/s),Vertical acceleration (m/s²),Total velocity (m/s),Total acceleration (m/s²),Position East of launch (m),Position North of launch (m),Lateral distance (m),Lateral direction (°),Lateral velocity (m/s),Lateral acceleration (m/s²),Latitude (°),Longitude (°),Gravitational acceleration (m/s²),Angle of attack (°),Roll rate (°/s),Pitch rate (°/s),Yaw rate (°/s),Mass (g),Motor mass (g),Longitudinal moment of inertia (kg·m²),Rotational moment of inertia (kg·m²),CP location (mm),CG location (mm),Stability margin calibers (​),Mach number (​),Reynolds number (​),Thrust (N),Drag force (N),Drag coefficient (​),Axial drag coefficient (​),Friction drag coefficient (​),Pressure drag coefficient (​),Base drag coefficient (​),Normal force coefficient (​),Pitch moment coefficient (​),Yaw moment coefficient (​),Side force coefficient (​),Roll moment coefficient (​),Roll forcing coefficient (​),Roll damping coefficient (​),Pitch damping coefficient (​),Coriolis acceleration (m/s²),Reference length (mm),Reference area (cm²),Vertical orientation (zenith) (°),Lateral orientation (azimuth) (°),Wind velocity (m/s),Air temperature (°C),Air pressure (mbar),Speed of sound (m/s),Simulation time step (s),Computation time (s)
0.01,-4.664e-4,-0.093,-9.324,0.095,9.468,-8.224e-5,0,8.224e-5,180,0.016,1.644,22.175,120.893,9.788,85.653,0,0,0,2.8e4,1.35e4,19.963,0.106,NaN,2019.994,NaN,0.006,3.904e5,4.784,4.077e-5,0.749,7.857e-4,0.414,0.215,0.12,NaN,NaN,NaN,NaN,NaN,NaN,NaN,NaN,1.282e-5,165,213.825,80,0,2,15,1013.25,340.389,0.01,0.002
0.02,-4.668e-4,-0.093,-9.336,0.095,9.48,-8.231e-5,0,8.231e-5,180,0.016,1.646,22.175,120.893,9.788,85.656,0,0,0,2.8e4,1.35e4,19.963,0.106,NaN,2019.992,NaN,0.006,3.904e5,4.461,4.068e-5,0.749,7.839e-4,0.414,0.215,0.12,NaN,NaN,NaN,NaN,NaN,NaN,NaN,NaN,1.283e-5,165,213.825,80,0,2,15,1013.25,340.389,0.01,0.002
0.03,-4.67e-4,-0.093,-9.34,0.095,9.484,-8.234e-5,0,8.234e-5,180,0.016,1.647,22.175,120.893,9.788,85.657,0,0,0,2.8e4,1.35e4,19.963,0.106,NaN,2019.991,NaN,0.006,3.904e5,4.343,4.065e-5,0.749,7.833e-4,0.414,0.215,0.12,NaN,NaN,NaN,NaN,NaN,NaN,NaN,NaN,1.284e-5,165,213.825,80,0,2,15,1013.25,340.389,0.01,0.002
0.04,-4.672e-4,-0.093,-9.343,0.095,9.487,-8.237e-5,0,8.237e-5,180,0.016,1.647,22.175,120.893,9.788,85.658,0,0,0,2.8e4,1.35e4,19.963,0.106,NaN,2019.989,NaN,0.006,3.904e5,4.249,4.062e-5,0.749,7.828e-4,0.414,0.215,0.12,NaN,NaN,NaN,NaN,NaN,NaN,NaN,NaN,1.285e-5,165,213.825,80,0,2,15,1013.25,340.389,0.01,0.003
0.05,-4.668e-4,-0.093,-9.336,0.095,9.48,-8.231e-5,0,8.231e-5,180,0.016,1.646,22.175,120.893,9.788,85.656,0,0,0,2.8e4,1.35e4,19.963,0.106,NaN,2019.988,NaN,0.006,3.904e5,4.443,4.068e-5,0.749,7.838e-4,0.414,0.215,0.12,NaN,NaN,NaN,NaN,NaN,NaN,NaN,NaN,1.284e-5,165,213.825,80,0,2,15,1013.25,340.389,0.01,0.003
0.06,-4.664e-4,-0.093,-9.328,0.095,9.472,-8.224e-5,0,8.224e-5,180,0.016,1.645,22.175,120.893,9.788,85.654,0,0,0,2.8e4,1.35e4,19.963,0.106,NaN,2019.986,NaN,0.006,3.904e5,4.681,4.074e-5,0.749,7.851e-4,0.414,0.215,0.12,NaN,NaN,NaN,NaN,NaN,NaN,NaN,NaN,1.282e-5,165,213.825,80,0,2,15,1013.25,340.389,0.01,0.003
0.07,-4.668e-4,-0.093,-9.336,0.095,9.481,-8.231e-5,0,8.231e-5,180,0.016,1.646,22.175,120.893,9.788,85.656,0,0,0,2.8e4,1.35e4,19.963,0.106,NaN,2019.984,NaN,0.006,3.904e5,4.438,4.067e-5,0.749,7.838e-4,0.414,0.215,0.12,NaN,NaN,NaN,NaN,NaN,NaN,NaN,NaN,1.284e-5,165,213.825,80,0,2,15,1013.25,340.389,0.01,0.003
0.08,-4.668e-4,-0.093,-9.335,0.095,9.479,-8.23e-5,0,8.23e-5,180,0.016,1.646,22.175,120.893,9.788,85.656,0,0,0,2.8e4,1.35e4,19.963,0.106,NaN,2019.982,NaN,0.006,3.904e5,4.479,4.069e-5,0.749,7.84e-4,0.414,0.215,0.12,NaN,NaN,NaN,NaN,NaN,NaN,NaN,NaN,1.283e-5,165,213.825,80,0,2,15,1013.25,340.389,0.01,0.003
0.09,-4.665e-4,-0.093,-9.331,0.095,9.475,-8.226e-5,0,8.226e-5,180,0.016,1.645,22.175,120.893,9.788,85.654,0,0,0,2.8e4,1.35e4,19.963,0.106,NaN,2019.981,NaN,0.006,3.904e5,4.603,4.072e-5,0.749,7.847e-4,0.414,0.215,0.12,NaN,NaN,NaN,NaN,NaN,NaN,NaN,NaN,1.283e-5,165,213.825,80,0,2,15,1013.25,340.389,0.01,0.004
0.1,-4.67e-4,-0.093,-9.341,0.095,9.485,-8.235e-5,0,8.235e-5,180,0.016,1.647,22.175,120.893,9.788,85.657,0,0,0,2.8e4,1.35e4,19.963,0.106,NaN,2019.979,NaN,0.006,3.904e5,4.315,4.064e-5,0.749,7.831e-4,0.414,0.215,0.12,NaN,NaN,NaN,NaN,NaN,NaN,NaN,NaN,1.284e-5,165,213.825,80,0,2,15,1013.25,340.389,0.01,0.004
0.11,-4.668e-4,-0.093,-9.337,0.095,9.481,-8.232e-5,0,8.232e-5,180,0.016,1.646,22.175,120.893,9.788,85.656,0,0,0,2.8e4,1.35e4,19.963,0.106,NaN,2019.977,NaN,0.006,3.904e5,4.431,4.067e-5,0.749,7.837e-4,0.414,0.215,0.12,NaN,NaN,NaN,NaN,NaN,NaN,NaN,NaN,1.284e-5,165,213.825,80,0,2,15,1013.25,340.389,0.01,0.004
0.12,-4.668e-4,-0.093,-9.337,0.095,9.481,-8.231e-5,0,8.231e-5,180,0.016,1.646,22.175,120.893,9.788,85.656,0,0,0,2.8e4,1.35e4,19.962,0.106,NaN,2019.976,NaN,0.006,3.904e5,4.436,4.067e-5,0.749,7.838e-4,0.414,0.215,0.12,NaN,NaN,NaN,NaN,NaN,NaN,NaN,NaN,1.284e-5,165,213.825,80,0,2,15,1013.25,340.389,0.01,0.004
0.13,-4.665e-4,-0.093,-9.33,0.095,9.474,-8.226e-5,0,8.226e-5,180,0.016,1.645,22.175,120.893,9.788,85.654,0,0,0,2.8e4,1.35e4,19.962,0.106,NaN,2019.974,NaN,0.006,3.904e5,4.62,4.073e-5,0.749,7.848e-4,0.414,0.215,0.12,NaN,NaN,NaN,NaN,NaN,NaN,NaN,NaN,1.283e-5,165,213.825,80,0,2,15,1013.25,340.389,0.01,0.004
0.14,-4.669e-4,-0.093,-9.338,0.095,9.482,-8.232e-5,0,8.232e-5,180,0.016,1.646,22.175,120.893,9.788,85.656,0,0,0,2.8e4,1.35e4,19.962,0.106,NaN,2019.972,NaN,0.006,3.904e5,4.404,4.066e-5,0.749,7.836e-4,0.414,0.215,0.12,NaN,NaN,NaN,NaN,NaN,NaN,NaN,NaN,1.284e-5,165,213.825,80,0,2,15,1013.25,340.389,0.01,0.005
0.15,-4.668e-4,-0.093,-9.336,0.095,9.48,-8.231e-5,0,8.231e-5,180,0.016,1.646,22.175,120.893,9.788,85.656,0,0,0,2.8e4,1.35e4,19.962,0.106,NaN,2019.97,NaN,0.006,3.904e5,4.444,4.068e-5,0.749,7.838e-4,0.414,0.215,0.12,NaN,NaN,NaN,NaN,NaN,NaN,NaN,NaN,1.284e-5,165,213.825,80,0,2,15,1013.25,340.389,0.01,0.005
0.16,-4.664e-4,-0.093,-9.329,0.095,9.473,-8.225e-5,0,8.225e-5,180,0.016,1.645,22.175,120.893,9.788,85.654,0,0,0,2.8e4,1.35e4,19.962,0.106,NaN,2019.969,NaN,0.006,3.904e5,4.651,4.074e-5,0.749,7.85e-4,0.414,0.215,0.12,NaN,NaN,NaN,NaN,NaN,NaN,NaN,NaN,1.283e-5,165,213.825,80,0,2,15,1013.25,340.389,0.01,0.005
0.17,-4.672e-4,-0.093,-9.344,0.095,9.488,-8.238e-5,0,8.238e-5,180,0.016,1.648,22.175,120.893,9.788,85.658,0,0,0,2.8e4,1.35e4,19.962,0.106,NaN,2019.967,NaN,0.006,3.904e5,4.218,4.061e-5,0.749,7.826e-4,0.414,0.215,0.12,NaN,NaN,NaN,NaN,NaN,NaN,NaN,NaN,1.285e-5,165,213.825,80,0,2,15,1013.25,340.389,0.01,0.005
0.18,-4.672e-4,-0.093,-9.344,0.095,9.488,-8.238e-5,0,8.238e-5,180,0.016,1.648,22.175,120.893,9.788,85.658,0,0,0,2.8e4,1.35e4,19.962,0.106,NaN,2019.965,NaN,0.006,3.904e5,4.225,4.061e-5,0.749,7.826e-4,0.414,0.215,0.12,NaN,NaN,NaN,NaN,NaN,NaN,NaN,NaN,1.285e-5,165,213.825,80,0,2,15,1013.25,340.389,0.01,0.005
0.19,-4.67e-4,-0.093,-9.341,0.095,9.485,-8.235e-5,0,8.235e-5,180,0.016,1.647,22.175,120.893,9.788,85.657,0,0,0,2.8e4,1.35e4,19.962,0.106,NaN,2019.964,NaN,0.006,3.904e5,4.321,4.064e-5,0.749,7.831e-4,0.414,0.215,0.12,NaN,NaN,NaN,NaN,NaN,NaN,NaN,NaN,1.284e-5,165,213.825,80,0,2,15,1013.25,340.389,0.01,0.006
0.2,-4.673e-4,-0.093,-9.346,0.095,9.49,-8.24e-5,0,8.24e-5,180,0.016,1.648,22.175,120.893,9.788,85.659,0,0,0,2.8e4,1.35e4,19.962,0.106,NaN,2019.962,NaN,0.006,3.904e5,4.174,4.06e-5,0.749,7.823e-4,0.414,0.215,0.12,NaN,NaN,NaN,NaN,NaN,NaN,NaN,NaN,1.285e-5,165,213.825,80,0,2,15,1013.25,340.389,0.01,0.006
0.21,-4.669e-4,-0.093,-9.338,0.095,9.483,-8.233e-5,0,8.233e-5,180,0.016,1.647,22.175,120.893,9.788,85.657,0,0,0,2.8e4,1.35e4,19.962,0.106,NaN,2019.961,NaN,0.006,3.904e5,4.381,4.066e-5,0.749,7.835e-4,0.414,0.215,0.12,NaN,NaN,NaN,NaN,NaN,NaN,NaN,NaN,1.284e-5,165,213.825,80,0,2,15,1013.25,340.389,0.01,0.006
0.22,-4.664e-4,-0.093,-9.329,0.095,9.473,-8.225e-5,0,8.225e-5,180,0.016,1.645,22.175,120.893,9.788,85.654,0,0,0,2.8e4,1.35e4,19.962,0.106,NaN,2019.959,NaN,0.006,3.904e5,4.657,4.074e-5,0.749,7.85e-4,0.414,0.215,0.12,NaN,NaN,NaN,NaN,NaN,NaN,NaN,NaN,1.283e-5,165,213.825,80,0,2,15,1013.25,340.389,0.01,0.006
0.23,-4.669e-4,-0.093,-9.338,0.095,9.482,-8.233e-5,0,8.233e-5,180,0.016,1.647,22.175,120.893,9.788,85.657,0,0,0,2.8e4,1.35e4,19.962,0.106,NaN,2019.957,NaN,0.006,3.904e5,4.392,4.066e-5,0.749,7.835e-4,0.414,0.215,0.12,NaN,NaN,NaN,NaN,NaN,NaN,NaN,NaN,1.284e-5,165,213.825,80,0,2,15,1013.25,340.389,0.01,0.006
0.24,-4.667e-4,-0.093,-9.334,0.095,9.478,-8.229e-5,0,8.229e-5,180,0.016,1.646,22.175,120.893,9.788,85.655,0,0,0,2.8e4,1.35e4,19.962,0.106,NaN,2019.955,NaN,0.006,3.904e5,4.513,4.07e-5,0.749,7.842e-4,0.414,0.215,0.12,NaN,NaN,NaN,NaN,NaN,NaN,NaN,NaN,1.283e-5,165,213.825,80,0,2,15,1013.25,340.389,0.01,0.006
0.25,-4.666e-4,-0.093,-9.331,0.095,9.475,-8.227e-5,0,8.227e-5,180,0.016,1.645,22.175,120.893,9.788,85.655,0,0,0,2.8e4,1.35e4,19.962,0.106,NaN,2019.954,NaN,0.006,3.904e5,4.587,4.072e-5,0.749,7.846e-4,0.414,0.215,0.12,NaN,NaN,NaN,NaN,NaN,NaN,NaN,NaN,1.283e-5,165,213.825,80,0,2,15,1013.25,340.389,0.01,0.007
0.26,-4.668e-4,-0.093,-9.337,0.095,9.481,-8.232e-5,0,8.232e-5,180,0.016,1.646,22.175,120.893,9.788,85.656,0,0,0,2.8e4,1.35e4,19.962,0.106,NaN,2019.952,NaN,0.006,3.904e5,4.429,4.067e-5,0.749,7.837e-4,0.414,0.215,0.12,NaN,NaN,NaN,NaN,NaN,NaN,NaN,NaN,1.284e-5,165,213.825,80,0,2,15,1013.25,340.389,0.01,0.007
0.27,-4.667e-4,-0.093,-9.333,0.095,9.477,-8.229e-5,0,8.229e-5,180,0.016,1.646,22.175,120.893,9.788,85.655,0,0,0,2.8e4,1.35e4,19.962,0.106,NaN,2019.95,NaN,0.006,3.904e5,4.527,4.07e-5,0.749,7.843e-4,0.414,0.215,0.12,NaN,NaN,NaN,NaN,NaN,NaN,NaN,NaN,1.283e-5,165,213.825,80,0,2,15,1013.25,340.389,0.01,0.007
0.28,-4.667e-4,-0.093,-9.335,0.095,9.479,-8.23e-5,0,8.23e-5,180,0.016,1.646,22.175,120.893,9.788,85.656,0,0,0,2.8e4,1.35e4,19.962,0.106,NaN,2019.949,NaN,0.006,3.904e5,4.488,4.069e-5,0.749,7.841e-4,0.414,0.215,0.12,NaN,NaN,NaN,NaN,NaN,NaN,NaN,NaN,1.283e-5,165,213.825,80,0,2,15,1013.25,340.389,0.01,0.007
0.29,-4.665e-4,-0.093,-9.33,0.095,9.474,-8.226e-5,0,8.226e-5,180,0.016,1.645,22.175,120.893,9.788,85.654,0,0,0,2.8e4,1.35e4,19.962,0.106,NaN,2019.947,NaN,0.006,3.904e5,4.616,4.073e-5,0.749,7.848e-4,0.414,0.215,0.12,NaN,NaN,NaN,NaN,NaN,NaN,NaN,NaN,1.283e-5,165,213.825,80,0,2,15,1013.25,340.389,0.01,0.007
0.3,-4.666e-4,-0.093,-9.333,0.095,9.477,-8.228e-5,0,8.228e-5,180,0.016,1.646,22.175,120.893,9.788,85.655,0,0,0,2.8e4,1.35e4,19.962,0.106,NaN,2019.945,NaN,0.006,3.904e5,4.548,4.071e-5,0.749,7.844e-4,0.414,0.215,0.12,NaN,NaN,NaN,NaN,NaN,NaN,NaN,NaN,1.283e-5,165,213.825,80,0,2,15,1013.25,340.389,0.01,0.008
0.31,-4.664e-4,-0.093,-9.327,0.095,9.471,-8.223e-5,0,8.223e-5,180,0.016,1.645,22.175,120.893,9.788,85.653,0,0,0,2.8e4,1.35e4,19.962,0.106,NaN,2019.943,NaN,0.006,3.904e5,4.706,4.075e-5,0.749,7.853e-4,0.414,0.215,0.12,NaN,NaN,NaN,NaN,NaN,NaN,NaN,NaN,1.282e-5,165,213.825,80,0,2,15,1013.25,340.389,0.01,0.008
0.32,-4.67e-4,-0.093,-9.34,0.095,9.484,-8.235e-5,0,8.235e-5,180,0.016,1.647,22.175,120.893,9.788,85.657,0,0,0,2.8e4,1.35e4,19.962,0.106,NaN,2019.942,NaN,0.006,3.904e5,4.332,4.064e-5,0.749,7.832e-4,0.414,0.215,0.12,NaN,NaN,NaN,NaN,NaN,NaN,NaN,NaN,1.284e-5,165,213.825,80,0,2,15,1013.25,340.389,0.01,0.008
0.33,-4.667e-4,-0.093,-9.335,0.095,9.479,-8.23e-5,0,8.23e-5,180,0.016,1.646,22.175,120.893,9.788,85.656,0,0,0,2.8e4,1.35e4,19.962,0.106,NaN,2019.94,NaN,0.006,3.904e5,4.483,4.069e-5,0.749,7.84e-4,0.414,0.215,0.12,NaN,NaN,NaN,NaN,NaN,NaN,NaN,NaN,1.283e-5,165,213.825,80,0,2,15,1013.25,340.389,0.01,0.008
0.34,-4.666e-4,-0.093,-9.332,0.095,9.476,-8.227e-5,0,8.227e-5,180,0.016,1.645,22.175,120.893,9.788,85.655,0,0,0,2.8e4,1.35e4,19.962,0.106,NaN,2019.938,NaN,0.006,3.904e5,4.57,4.071e-5,0.749,7.845e-4,0.414,0.215,0.12,NaN,NaN,NaN,NaN,NaN,NaN,NaN,NaN,1.283e-5,165,213.825,80,0,2,15,1013.25,340.389,0.01,0.008
0.35,-4.669e-4,-0.093,-9.337,0.095,9.481,-8.232e-5,0,8.232e-5,180,0.016,1.646,22.175,120.893,9.788,85.656,0,0,0,2.8e4,1.35e4,19.962,0.106,NaN,2019.936,NaN,0.006,3.904e5,4.419,4.067e-5,0.749,7.837e-4,0.414,0.215,0.12,NaN,NaN,NaN,NaN,NaN,NaN,NaN,NaN,1.284e-5,165,213.825,80,0,2,15,1013.25,340.389,0.01,0.009
0.36,-4.67e-4,-0.093,-9.341,0.095,9.485,-8.235e-5,0,8.235e-5,180,0.016,1.647,22.175,120.893,9.788,85.657,0,0,0,2.8e4,1.35e4,19.962,0.106,NaN,2019.935,NaN,0.006,3.904e5,4.317,4.064e-5,0.749,7.831e-4,0.414,0.215,0.12,NaN,NaN,NaN,NaN,NaN,NaN,NaN,NaN,1.284e-5,165,213.825,80,0,2,15,1013.25,340.389,0.01,0.009
0.37,-4.667e-4,-0.093,-9.333,0.095,9.477,-8.229e-5,0,8.229e-5,180,0.016,1.646,22.175,120.893,9.788,85.655,0,0,0,2.8e4,1.35e4,19.962,0.106,NaN,2019.933,NaN,0.006,3.904e5,4.522,4.07e-5,0.749,7.842e-4,0.414,0.215,0.12,NaN,NaN,NaN,NaN,NaN,NaN,NaN,NaN,1.283e-5,165,213.825,80,0,2,15,1013.25,340.389,0.01,0.009
0.38,-4.668e-4,-0.093,-9.337,0.095,9.481,-8.232e-5,0,8.232e-5,180,0.016,1.646,22.175,120.893,9.788,85.656,0,0,0,2.8e4,1.35e4,19.962,0.106,NaN,2019.931,NaN,0.006,3.904e5,4.433,4.067e-5,0.749,7.838e-4,0.414,0.215,0.12,NaN,NaN,NaN,NaN,NaN,NaN,NaN,NaN,1.284e-5,165,213.825,80,0,2,15,1013.25,340.389,0.01,0.009
0.39,-4.664e-4,-0.093,-9.328,0.095,9.472,-8.224e-5,0,8.224e-5,180,0.016,1.645,22.175,120.893,9.788,85.654,0,0,0,2.8e4,1.35e4,19.962,0.106,NaN,2019.93,NaN,0.006,3.904e5,4.673,4.074e-5,0.749,7.851e-4,0.414,0.215,0.12,NaN,NaN,NaN,NaN,NaN,NaN,NaN,NaN,1.282e-5,165,213.825,80,0,2,15,1013.25,340.389,0.01,0.009
0.4,-4.662e-4,-0.093,-9.323,0.095,9.467,-8.22e-5,0,8.22e-5,180,0.016,1.644,22.175,120.893,9.788,85.652,0,0,0,2.8e4,1.35e4,19.962,0.106,NaN,2019.928,NaN,0.006,3.904e5,4.812,4.078e-5,0.749,7.858e-4,0.414,0.215,0.12,NaN,NaN,NaN,NaN,NaN,NaN,NaN,NaN,1.282e-5,165,213.825,80,0,2,15,1013.25,340.389,0.01,0.01
0.41,-4.665e-4,-0.093,-9.331,0.095,9.475,-8.226e-5,0,8.226e-5,180,0.016,1.645,22.175,120.893,9.788,85.655,0,0,0,2.8e4,1.35e4,19.962,0.106,NaN,2019.926,NaN,0.006,3.904e5,4.595,4.072e-5,0.749,7.846e-4,0.414,0.215,0.12,NaN,NaN,NaN,NaN,NaN,NaN,NaN,NaN,1.283e-5,165,213.825,80,0,2,15,1013.25,340.389,0.01,0.01
0.42,-4.665e-4,-0.093,-9.329,0.095,9.473,-8.225e-5,0,8.225e-5,180,0.016,1.645,22.175,120.893,9.788,85.654,0,0,0,2.8e4,1.35e4,19.962,0.106,NaN,2019.924,NaN,0.006,3.904e5,4.638,4.073e-5,0.749,7.849e-4,0.414,0.215,0.12,NaN,NaN,NaN,NaN,NaN,NaN,NaN,NaN,1.283e-5,165,213.825,80,0,2,15,1013.25,340.389,0.01,0.01
0.43,-4.662e-4,-0.093,-9.323,0.095,9.467,-8.22e-5,0,8.22e-5,180,0.016,1.644,22.175,120.893,9.788,85.652,0,0,0,2.8e4,1.35e4,19.962,0.106,NaN,2019.922,NaN,0.006,3.904e5,4.811,4.078e-5,0.749,7.858e-4,0.414,0.215,0.12,NaN,NaN,NaN,NaN,NaN,NaN,NaN,NaN,1.282e-5,165,213.825,80,0,2,15,1013.25,340.389,0.01,0.01
0.44,-4.66e-4,-0.093,-9.32,0.095,9.463,-8.216e-5,0,8.216e-5,180,0.016,1.643,22.175,120.893,9.788,85.651,0,0,0,2.8e4,1.35e4,19.962,0.106,NaN,2019.921,NaN,0.006,3.904e5,4.919,4.081e-5,0.749,7.864e-4,0.414,0.215,0.12,NaN,NaN,NaN,NaN,NaN,NaN,NaN,NaN,1.281e-5,165,213.825,80,0,2,15,1013.25,340.389,0.01,0.01
0.45,-4.666e-4,-0.093,-9.331,0.095,9.475,-8.227e-5,0,8.227e-5,180,0.016,1.645,22.175,120.893,9.788,85.655,0,0,0,2.8e4,1.35e4,19.961,0.106,NaN,2019.919,NaN,0.006,3.904e5,4.583,4.072e-5,0.749,7.846e-4,0.414,0.215,0.12,NaN,NaN,NaN,NaN,NaN,NaN,NaN,NaN,1.283e-5,165,213.825,80,0,2,15,1013.25,340.389,0.01,0.011
0.46,-4.668e-4,-0.093,-9.337,0.095,9.481,-8.232e-5,0,8.232e-5,180,0.016,1.646,22.175,120.893,9.788,85.656,0,0,0,2.8e4,1.35e4,19.961,0.106,NaN,2019.917,NaN,0.006,3.904e5,4.429,4.067e-5,0.749,7.837e-4,0.414,0.215,0.12,NaN,NaN,NaN,NaN,NaN,NaN,NaN,NaN,1.284e-5,165,213.825,80,0,2,15,1013.25,340.389,0.01,0.011
0.47,-4.668e-4,-0.093,-9.336,0.095,9.48,-8.231e-5,0,8.231e-5,180,0.016,1.646,22.175,120.893,9.788,85.656,0,0,0,2.8e4,1.35e4,19.961,0.106,NaN,2019.915,NaN,0.006,3.904e5,4.45,4.068e-5,0.749,7.839e-4,0.414,0.215,0.12,NaN,NaN,NaN,NaN,NaN,NaN,NaN,NaN,1.284e-5,165,213.825,80,0,2,15,1013.25,340.389,0.01,0.011
0.48,-4.66e-4,-0.093,-9.32,0.095,9.464,-8.217e-5,0,8.217e-5,180,0.016,1.643,22.175,120.893,9.788,85.651,0,0,0,2.8e4,1.35e4,19.961,0.106,NaN,2019.914,NaN,0.006,3.904e5,4.905,4.081e-5,0.749,7.863e-4,0.414,0.215,0.12,NaN,NaN,NaN,NaN,NaN,NaN,NaN,NaN,1.281e-5,165,213.825,80,0,2,15,1013.25,340.389,0.01,0.011
0.49,-4.663e-4,-0.093,-9.326,0.095,9.469,-8.222e-5,0,8.222e-5,180,0.016,1.644,22.175,120.893,9.788,85.653,0,0,0,2.8e4,1.35e4,19.961,0.106,NaN,2019.912,NaN,0.006,3.904e5,4.746,4.076e-5,0.749,7.855e-4,0.414,0.215,0.12,NaN,NaN,NaN,NaN,NaN,NaN,NaN,NaN,1.282e-5,165,213.825,80,0,2,15,1013.25,340.389,0.01,0.011
0.5,-4.668e-4,-0.093,-9.335,0.095,9.479,-8.23e-5,0,8.23e-5,180,0.016,1.646,22.175,120.893,9.788,85.656,0,0,0,2.8e4,1.35e4,19.961,0.106,NaN,2019.91,NaN,0.006,3.904e5,4.47,4.068e-5,0.749,7.84e-4,0.414,0.215,0.12,NaN,NaN,NaN,NaN,NaN,NaN,NaN,NaN,1.283e-5,165,213.825,80,0,2,15,1013.25,340.389,0.01,0.011
0.51,-4.664e-4,-0.093,-9.329,0.095,9.473,-8.225e-5,0,8.225e-5,180,0.016,1.645,22.175,120.893,9.788,85.654,0,0,0,2.8e4,1.35e4,19.961,0.106,NaN,2019.908,NaN,0.006,3.904e5,4.657,4.074e-5,0.749,7.85e-4,0.414,0.215,0.12,NaN,NaN,NaN,NaN,NaN,NaN,NaN,NaN,1.283e-5,165,213.825,80,0,2,15,1013.25,340.389,0.01,0.012
0.52,-4.656e-4,-0.093,-9.313,0.095,9.456,-8.21e-5,0,8.21e-5,180,0.016,1.642,22.175,120.893,9.788,85.649,0,0,0,2.8e4,1.35e4,19.961,0.106,NaN,2019.906,NaN,0.006,3.904e5,5.115,4.087e-5,0.749,7.875e-4,0.414,0.215,0.12,NaN,NaN,NaN,NaN,NaN,NaN,NaN,NaN,1.28e-5,165,213.825,80,0,2,15,1013.25,340.389,0.01,0.012
0.53,-4.652e-4,-0.093,-9.305,0.094,9.448,-8.203e-5,0,8.203e-5,180,0.016,1.641,22.175,120.893,9.788,85.647,0,0,0,2.8e4,1.35e4,19.961,0.106,NaN,2019.904,NaN,0.006,3.904e5,5.339,4.093e-5,0.749,7.887e-4,0.414,0.215,0.12,NaN,NaN,NaN,NaN,NaN,NaN,NaN,NaN,1.279e-5,165,213.825,80,0,2,15,1013.25,340.389,0.01,0.012
0.54,-4.665e-4,-0.093,-9.329,0.095,9.473,-8.225e-5,0,8.225e-5,180,0.016,1.645,22.175,120.893,9.788,85.654,0,0,0,2.8e4,1.35e4,19.961,0.106,NaN,2019.903,NaN,0.006,3.904e5,4.638,4.073e-5,0.749,7.849e-4,0.414,0.215,0.12,NaN,NaN,NaN,NaN,NaN,NaN,NaN,NaN,1.283e-5,165,213.825,80,0,2,15,1013.25,340.389,0.01,0.012
0.55,-4.661e-4,-0.093,-9.323,0.095,9.467,-8.219e-5,0,8.219e-5,180,0.016,1.644,22.175,120.893,9.788,85.652,0,0,0,2.8e4,1.35e4,19.961,0.106,NaN,2019.901,NaN,0.006,3.904e5,4.82,4.078e-5,0.749,7.859e-4,0.414,0.215,0.12,NaN,NaN,NaN,NaN,NaN,NaN,NaN,NaN,1.282e-5,165,213.825,80,0,2,15,1013.25,340.389,0.01,0.012
0.56,-4.656e-4,-0.093,-9.312,0.095,9.455,-8.21e-5,0,8.21e-5,180,0.016,1.642,22.175,120.893,9.788,85.649,0,0,0,2.8e4,1.35e4,19.961,0.106,NaN,2019.899,NaN,0.006,3.904e5,5.14,4.087e-5,0.749,7.876e-4,0.414,0.215,0.12,NaN,NaN,NaN,NaN,NaN,NaN,NaN,NaN,1.28e-5,165,213.825,80,0,2,15,1013.25,340.389,0.01,0.013
0.57,-4.655e-4,-0.093,-9.311,0.095,9.455,-8.209e-5,0,8.209e-5,180,0.016,1.642,22.175,120.893,9.788,85.649,0,0,0,2.8e4,1.35e4,19.961,0.106,NaN,2019.897,NaN,0.006,3.904e5,5.164,4.088e-5,0.749,7.878e-4,0.414,0.215,0.12,NaN,NaN,NaN,NaN,NaN,NaN,NaN,NaN,1.28e-5,165,213.825,80,0,2,15,1013.25,340.389,0.01,0.013
0.58,-4.656e-4,-0.093,-9.312,0.095,9.456,-8.21e-5,0,8.21e-5,180,0.016,1.642,22.175,120.893,9.788,85.649,0,0,0,2.8e4,1.35e4,19.961,0.106,NaN,2019.895,NaN,0.006,3.904e5,5.125,4.087e-5,0.749,7.875e-4,0.414,0.215,0.12,NaN,NaN,NaN,NaN,NaN,NaN,NaN,NaN,1.28e-5,165,213.825,80,0,2,15,1013.25,340.389,0.01,0.013
0.59,-4.653e-4,-0.093,-9.306,0.094,9.45,-8.205e-5,0,8.205e-5,180,0.016,1.641,22.175,120.893,9.788,85.647,0,0,0,2.8e4,1.35e4,19.961,0.106,NaN,2019.893,NaN,0.006,3.904e5,5.296,4.092e-5,0.749,7.885e-4,0.414,0.215,0.12,NaN,NaN,NaN,NaN,NaN,NaN,NaN,NaN,1.279e-5,165,213.825,80,0,2,15,1013.25,340.389,0.01,0.013
0.6,-4.648e-4,-0.093,-9.297,0.094,9.44,-8.196e-5,0,8.196e-5,180,0.016,1.639,22.175,120.893,9.788,85.645,0,0,0,2.8e4,1.349e4,19.961,0.106,NaN,2019.891,NaN,0.006,3.904e5,5.567,4.1e-5,0.749,7.9e-4,0.414,0.215,0.12,NaN,NaN,NaN,NaN,NaN,NaN,NaN,NaN,1.278e-5,165,213.825,80,0,2,15,1013.25,340.389,0.01,0.013
0.61,-4.646e-4,-0.093,-9.291,0.094,9.435,-8.192e-5,0,8.192e-5,180,0.016,1.638,22.175,120.893,9.788,85.643,0,0,0,2.8e4,1.349e4,19.961,0.106,NaN,2019.889,NaN,0.006,3.904e5,5.717,4.104e-5,0.749,7.908e-4,0.414,0.215,0.12,NaN,NaN,NaN,NaN,NaN,NaN,NaN,NaN,1.277e-5,165,213.825,80,0,2,15,1013.25,340.389,0.01,0.014
0.62,-4.652e-4,-0.093,-9.304,0.094,9.447,-8.203e-5,0,8.203e-5,180,0.016,1.641,22.175,120.893,9.788,85.647,0,0,0,2.8e4,1.349e4,19.961,0.106,NaN,2019.887,NaN,0.006,3.904e5,5.366,4.094e-5,0.749,7.889e-4,0.414,0.215,0.12,NaN,NaN,NaN,NaN,NaN,NaN,NaN,NaN,1.279e-5,165,213.825,80,0,2,15,1013.25,340.389,0.01,0.014
0.63,-4.643e-4,-0.093,-9.287,0.094,9.43,-8.188e-5,0,8.188e-5,180,0.016,1.638,22.175,120.893,9.788,85.642,0,0,0,2.799e4,1.349e4,19.961,0.106,NaN,2019.884,NaN,0.006,3.904e5,5.844,4.108e-5,0.749,7.915e-4,0.414,0.215,0.12,NaN,NaN,NaN,NaN,NaN,NaN,NaN,NaN,1.277e-5,165,213.825,80,0,2,15,1013.25,340.389,0.01,0.014
0.64,-4.645e-4,-0.093,-9.289,0.094,9.432,-8.19e-5,0,8.19e-5,180,0.016,1.638,22.175,120.893,9.788,85.642,0,0,0,2.799e4,1.349e4,19.961,0.106,NaN,2019.882,NaN,0.006,3.904e5,5.786,4.106e-5,0.749,7.912e-4,0.414,0.215,0.12,NaN,NaN,NaN,NaN,NaN,NaN,NaN,NaN,1.277e-5,165,213.825,80,0,2,15,1013.25,340.389,0.01,0.014
0.65,-4.641e-4,-0.093,-9.283,0.094,9.426,-8.184e-5,0,8.184e-5,180,0.016,1.637,22.175,120.893,9.788,85.64,0,0,0,2.799e4,1.349e4,19.961,0.106,NaN,2019.88,NaN,0.006,3.904e5,5.968,4.111e-5,0.749,7.922e-4,0.414,0.215,0.12,NaN,NaN,NaN,NaN,NaN,NaN,NaN,NaN,1.276e-5,165,213.825,80,0,2,15,1013.25,340.389,0.01,0.014
0.66,-4.631e-4,-0.093,-9.262,0.094,9.405,-8.166e-5,0,8.166e-5,180,0.016,1.633,22.175,120.893,9.788,85.634,0,0,0,2.799e4,1.349e4,19.961,0.106,NaN,2019.877,NaN,0.006,3.904e5,6.551,4.128e-5,0.749,7.954e-4,0.414,0.215,0.12,NaN,NaN,NaN,NaN,NaN,NaN,NaN,NaN,1.273e-5,165,213.825,80,0,2,15,1013.25,340.389,0.01,0.015
0.67,-4.628e-4,-0.093,-9.256,0.094,9.399,-8.161e-5,0,8.161e-5,180,0.016,1.632,22.175,120.893,9.788,85.633,0,0,0,2.799e4,1.349e4,19.961,0.106,NaN,2019.875,NaN,0.006,3.904e5,6.72,4.133e-5,0.749,7.963e-4,0.414,0.215,0.12,NaN,NaN,NaN,NaN,NaN,NaN,NaN,NaN,1.273e-5,165,213.825,80,0,2,15,1013.25,340.389,0.01,0.015
0.68,-4.618e-4,-0.092,-9.236,0.094,9.378,-8.143e-5,0,8.143e-5,180,0.016,1.629,22.175,120.893,9.788,85.627,0,0,0,2.799e4,1.349e4,19.961,0.106,NaN,2019.872,NaN,0.006,3.904e5,7.299,4.149e-5,0.749,7.995e-4,0.414,0.215,0.12,NaN,NaN,NaN,NaN,NaN,NaN,NaN,NaN,1.27e-5,165,213.825,80,0,2,15,1013.25,340.389,0.01,0.015
0.69,-4.615e-4,-0.092,-9.23,0.094,9.372,-8.137e-5,0,8.137e-5,180,0.016,1.627,22.175,120.893,9.788,85.625,0,0,0,2.799e4,1.349e4,19.961,0.106,NaN,2019.869,NaN,0.006,3.904e5,7.467,4.154e-5,0.749,8.005e-4,0.414,0.215,0.12,NaN,NaN,NaN,NaN,NaN,NaN,NaN,NaN,1.269e-5,165,213.825,80,0,2,15,1013.25,340.389,0.01,0.015
0.7,-4.606e-4,-0.092,-9.213,0.094,9.355,-8.122e-5,0,8.122e-5,180,0.016,1.624,22.175,120.893,9.788,85.62,0,0,0,2.799e4,1.349e4,19.961,0.106,NaN,2019.866,NaN,0.006,3.904e5,7.951,4.168e-5,0.749,8.031e-4,0.414,0.215,0.12,NaN,NaN,NaN,NaN,NaN,NaN,NaN,NaN,1.267e-5,165,213.825,80,0,2,15,1013.25,340.389,0.01,0.015
0.71,-4.589e-4,-0.092,-9.178,0.093,9.32,-8.092e-5,0,8.092e-5,180,0.016,1.618,22.175,120.893,9.788,85.61,0,0,0,2.799e4,1.349e4,19.96,0.106,NaN,2019.863,NaN,0.006,3.904e5,8.938,4.197e-5,0.749,8.086e-4,0.414,0.215,0.12,NaN,NaN,NaN,NaN,NaN,NaN,NaN,NaN,1.262e-5,165,213.825,80,0,2,15,1013.25,340.389,0.01,0.015
0.72,-4.583e-4,-0.092,-9.167,0.093,9.308,-8.082e-5,0,8.082e-5,180,0.016,1.616,22.175,120.893,9.788,85.607,0,0,0,2.799e4,1.349e4,19.96,0.106,NaN,2019.859,NaN,0.006,3.904e5,9.255,4.206e-5,0.749,8.104e-4,0.414,0.215,0.12,NaN,NaN,NaN,NaN,NaN,NaN,NaN,NaN,1.26e-5,165,213.825,80,0,2,15,1013.25,340.389,0.01,0.016
0.73,-4.567e-4,-0.091,-9.134,0.093,9.275,-8.053e-5,0,8.053e-5,180,0.016,1.611,22.175,120.893,9.788,85.597,0,0,0,2.799e4,1.349e4,19.96,0.106,NaN,2019.855,NaN,0.006,3.904e5,10.185,4.233e-5,0.749,8.156e-4,0.414,0.215,0.12,NaN,NaN,NaN,NaN,NaN,NaN,NaN,NaN,1.256e-5,165,213.825,80,0,2,15,1013.25,340.389,0.01,0.016
0.74,-4.548e-4,-0.091,-9.096,0.092,9.236,-8.019e-5,0,8.019e-5,180,0.016,1.604,22.175,120.893,9.788,85.586,0,0,0,2.799e4,1.349e4,19.96,0.106,NaN,2019.851,NaN,0.006,3.904e5,11.275,4.265e-5,0.749,8.217e-4,0.414,0.215,0.12,NaN,NaN,NaN,NaN,NaN,NaN,NaN,NaN,1.251e-5,165,213.825,80,0,2,15,1013.25,340.389,0.01,0.016
0.75,-4.53e-4,-0.091,-9.059,0.092,9.199,-7.987e-5,0,7.987e-5,180,0.016,1.597,22.175,120.893,9.788,85.575,0,0,0,2.799e4,1.349e4,19.96,0.106,NaN,2019.846,NaN,0.006,3.904e5,12.322,4.296e-5,0.749,8.276e-4,0.414,0.215,0.12,NaN,NaN,NaN,NaN,NaN,NaN,NaN,NaN,1.245e-5,165,213.825,80,0,2,15,1013.25,340.389,0.01,0.016
0.76,-4.506e-4,-0.09,-9.012,0.092,9.151,-7.945e-5,0,7.945e-5,180,0.016,1.589,22.175,120.893,9.788,85.562,0,0,0,2.799e4,1.349e4,19.96,0.106,NaN,2019.841,NaN,0.006,3.904e5,13.663,4.336e-5,0.749,8.352e-4,0.414,0.215,0.12,NaN,NaN,NaN,NaN,NaN,NaN,NaN,NaN,1.239e-5,165,213.825,80,0,2,15,1013.25,340.389,0.01,0.016
0.77,-4.495e-4,-0.09,-8.989,0.091,9.128,-7.925e-5,0,7.925e-5,180,0.016,1.585,22.175,120.893,9.788,85.555,0,0,0,2.799e4,1.349e4,19.96,0.106,NaN,2019.836,NaN,0.006,3.904e5,14.302,4.355e-5,0.749,8.389e-4,0.414,0.215,0.12,NaN,NaN,NaN,NaN,NaN,NaN,NaN,NaN,1.236e-5,165,213.825,80,0,2,15,1013.25,340.389,0.01,0.017
0.78,-4.469e-4,-0.089,-8.938,0.091,9.076,-7.88e-5,0,7.88e-5,180,0.016,1.576,22.175,120.893,9.788,85.54,0,0,0,2.799e4,1.349e4,19.96,0.106,NaN,2019.83,NaN,0.006,3.904e5,15.77,4.398e-5,0.749,8.473e-4,0.414,0.215,0.12,NaN,NaN,NaN,NaN,NaN,NaN,NaN,NaN,1.229e-5,165,213.825,80,0,2,15,1013.25,340.389,0.01,0.017
0.79,-4.449e-4,-0.089,-8.897,0.09,9.034,-7.844e-5,0,7.844e-5,180,0.016,1.569,22.175,120.893,9.788,85.528,0,0,0,2.799e4,1.349e4,19.96,0.106,NaN,2019.823,NaN,0.006,3.905e5,16.927,4.433e-5,0.749,8.54e-4,0.414,0.215,0.12,NaN,NaN,NaN,NaN,NaN,NaN,NaN,NaN,1.223e-5,165,213.825,80,0,2,15,1013.25,340.389,0.01,0.017
0.8,-4.428e-4,-0.089,-8.855,0.09,8.992,-7.807e-5,0,7.807e-5,180,0.016,1.561,22.175,120.893,9.788,85.516,0,0,0,2.799e4,1.349e4,19.96,0.106,NaN,2019.816,NaN,0.006,3.905e5,18.121,4.469e-5,0.749,8.609e-4,0.414,0.215,0.12,NaN,NaN,NaN,NaN,NaN,NaN,NaN,NaN,1.217e-5,165,213.825,80,0,2,15,1013.25,340.389,0.01,0.017
0.81,-4.404e-4,-0.088,-8.809,0.089,8.945,-7.766e-5,0,7.766e-5,180,0.016,1.553,22.175,120.893,9.788,85.502,0,0,0,2.799e4,1.349e4,19.96,0.106,NaN,2019.809,NaN,0.006,3.905e5,19.438,4.509e-5,0.749,8.685e-4,0.414,0.215,0.12,NaN,NaN,NaN,NaN,NaN,NaN,NaN,NaN,1.211e-5,165,213.825,80,0,2,15,1013.25,340.389,0.01,0.017
0.82,-4.392e-4,-0.088,-8.783,0.089,8.919,-7.744e-5,0,7.744e-5,180,0.015,1.549,22.175,120.893,9.788,85.495,0,0,0,2.799e4,1.349e4,19.959,0.106,NaN,2019.801,NaN,0.006,3.905e5,20.155,4.531e-5,0.749,8.727e-4,0.414,0.215,0.12,NaN,NaN,NaN,NaN,NaN,NaN,NaN,NaN,1.208e-5,165,213.825,80,0,2,15,1013.25,340.389,0.01,0.018
0.83,-4.343e-4,-0.087,-8.687,0.088,8.821,-7.659e-5,0,7.659e-5,180,0.015,1.532,22.175,120.893,9.788,85.467,0,0,0,2.799e4,1.349e4,19.959,0.106,NaN,2019.793,NaN,0.006,3.905e5,22.899,4.615e-5,0.749,8.889e-4,0.414,0.215,0.12,NaN,NaN,NaN,NaN,NaN,NaN,NaN,NaN,1.194e-5,165,213.825,80,0,2,15,1013.25,340.389,0.01,0.018
0.84,-4.256e-4,-0.085,-8.511,0.086,8.643,-7.504e-5,0,7.504e-5,180,0.015,1.501,22.175,120.893,9.788,85.416,0,0,0,2.799e4,1.349e4,19.959,0.106,NaN,2019.782,NaN,0.006,3.905e5,27.886,4.771e-5,0.749,9.188e-4,0.414,0.215,0.12,NaN,NaN,NaN,NaN,NaN,NaN,NaN,NaN,1.17e-5,165,213.825,80,0,2,15,1013.25,340.389,0.01,0.018
0.85,-4.183e-4,-0.084,-8.365,0.085,8.494,-7.375e-5,0,7.375e-5,180,0.015,1.475,22.175,120.893,9.788,85.373,0,0,0,2.799e4,1.349e4,19.959,0.106,NaN,2019.77,NaN,0.006,3.905e5,32.036,4.904e-5,0.749,9.442e-4,0.414,0.215,0.12,NaN,NaN,NaN,NaN,NaN,NaN,NaN,NaN,1.15e-5,165,213.825,80,0,2,15,1013.25,340.389,0.01,0.018
0.86,-4.106e-4,-0.082,-8.212,0.083,8.339,-7.24e-5,0,7.24e-5,180,0.014,1.448,22.175,120.893,9.788,85.329,0,0,0,2.799e4,1.349e4,19.959,0.106,NaN,2019.756,NaN,0.006,3.906e5,36.392,5.045e-5,0.749,9.713e-4,0.414,0.215,0.12,NaN,NaN,NaN,NaN,NaN,NaN,NaN,NaN,1.129e-5,165,213.825,80,0,2,15,1013.25,340.389,0.01,0.018
0.87,-4.032e-4,-0.081,-8.065,0.082,8.189,-7.11e-5,0,7.11e-5,180,0.014,1.422,22.175,120.893,9.788,85.286,0,0,0,2.799e4,1.349e4,19.958,0.106,NaN,2019.74,NaN,0.006,3.906e5,40.581,5.184e-5,0.749,9.979e-4,0.414,0.215,0.12,NaN,NaN,NaN,NaN,NaN,NaN,NaN,NaN,1.109e-5,165,213.825,80,0,2,15,1013.25,340.389,0.01,0.019
0.88,-3.96e-4,-0.079,-7.92,0.08,8.042,-6.983e-5,0,6.983e-5,180,0.014,1.397,22.175,120.893,9.788,85.244,0,0,0,2.799e4,1.349e4,19.958,0.106,NaN,2019.723,NaN,0.006,3.906e5,44.682,5.322e-5,0.749,0.001,0.414,0.215,0.12,NaN,NaN,NaN,NaN,NaN,NaN,NaN,NaN,1.089e-5,165,213.825,80,0,2,15,1013.25,340.389,0.01,0.019
0.89,-3.897e-4,-0.078,-7.793,0.079,7.913,-6.871e-5,0,6.871e-5,180,0.014,1.374,22.175,120.893,9.788,85.207,0,0,0,2.799e4,1.349e4,19.958,0.106,NaN,2019.705,NaN,0.006,3.906e5,48.294,5.445e-5,0.749,0.001,0.414,0.215,0.12,NaN,NaN,NaN,NaN,NaN,NaN,NaN,NaN,1.071e-5,165,213.825,80,0,2,15,1013.25,340.389,0.01,0.019
0.9,-3.836e-4,-0.077,-7.671,0.078,7.79,-6.763e-5,0,6.763e-5,180,0.014,1.353,22.175,120.893,9.788,85.171,0,0,0,2.799e4,1.349e4,19.957,0.106,NaN,2019.685,NaN,0.006,3.907e5,51.752,5.565e-5,0.749,0.001,0.414,0.215,0.12,NaN,NaN,NaN,NaN,NaN,NaN,NaN,NaN,1.055e-5,165,213.825,80,0,2,15,1013.25,340.389,0.01,0.019
0.91,-3.755e-4,-0.075,-7.511,0.076,7.626,-6.622e-5,0,6.622e-5,180,0.013,1.324,22.175,120.893,9.788,85.124,0,0,0,2.798e4,1.348e4,19.957,0.106,NaN,2019.664,NaN,0.006,3.907e5,56.319,5.727e-5,0.749,0.001,0.414,0.215,0.12,NaN,NaN,NaN,NaN,NaN,NaN,NaN,NaN,1.033e-5,165,213.825,80,0,2,15,1013.25,340.389,0.01,0.019
0.92,-3.677e-4,-0.074,-7.355,0.075,7.468,-6.484e-5,0,6.484e-5,180,0.013,1.297,22.175,120.893,9.788,85.079,0,0,0,2.798e4,1.348e4,19.957,0.106,NaN,2019.641,NaN,0.006,3.907e5,60.748,5.886e-5,0.749,0.001,0.414,0.215,0.12,NaN,NaN,NaN,NaN,NaN,NaN,NaN,NaN,1.011e-5,165,213.825,80,0,2,15,1013.25,340.389,0.01,0.019
0.93,-3.56e-4,-0.071,-7.121,0.072,7.231,-6.278e-5,0,6.278e-5,180,0.013,1.256,22.175,120.893,9.788,85.011,0,0,0,2.798e4,1.348e4,19.956,0.106,NaN,2019.615,NaN,0.006,3.907e5,67.387,6.13e-5,0.749,0.001,0.414,0.215,0.12,NaN,NaN,NaN,NaN,NaN,NaN,NaN,NaN,9.79e-6,165,213.825,80,0,2,15,1013.25,340.389,0.01,0.02
0.94,-3.418e-4,-0.068,-6.837,0.069,6.942,-6.028e-5,0,6.028e-5,180,0.012,1.206,22.175,120.893,9.788,84.928,0,0,0,2.798e4,1.348e4,19.956,0.106,NaN,2019.586,NaN,0.006,3.908e5,75.455,6.435e-5,0.749,0.001,0.414,0.215,0.12,NaN,NaN,NaN,NaN,NaN,NaN,NaN,NaN,9.4e-6,165,213.825,80,0,2,15,1013.25,340.389,0.01,0.02
0.95,-3.257e-4,-0.065,-6.515,0.066,6.615,-5.744e-5,0,5.744e-5,180,0.011,1.149,22.175,120.893,9.788,84.835,0,0,0,2.798e4,1.348e4,19.955,0.106,NaN,2019.554,NaN,0.006,3.909e5,84.603,6.793e-5,0.749,0.001,0.414,0.215,0.12,NaN,NaN,NaN,NaN,NaN,NaN,NaN,NaN,8.957e-6,165,213.825,80,0,2,15,1013.25,340.389,0.01,0.02
0.96,-3.058e-4,-0.061,-6.116,0.062,6.21,-5.392e-5,0,5.392e-5,180,0.011,1.078,22.175,120.893,9.788,84.719,0,0,0,2.798e4,1.348e4,19.954,0.106,NaN,2019.517,NaN,0.006,3.909e5,95.934,7.255e-5,0.749,0.001,0.414,0.215,0.12,NaN,NaN,NaN,NaN,NaN,NaN,NaN,NaN,8.408e-6,165,213.825,80,0,2,15,1013.25,340.389,0.01,0.02
0.97,-2.857e-4,-0.057,-5.714,0.058,5.803,-5.038e-5,0,5.038e-5,180,0.01,1.008,22.175,120.893,9.788,84.602,0,0,0,2.798e4,1.348e4,19.954,0.106,NaN,2019.476,NaN,0.006,3.91e5,107.326,7.739e-5,0.749,0.001,0.414,0.215,0.12,NaN,NaN,NaN,NaN,NaN,NaN,NaN,NaN,7.856e-6,165,213.825,80,0,2,15,1013.25,340.389,0.01,0.02
0.98,-2.598e-4,-0.052,-5.196,0.053,5.276,-4.581e-5,0,4.581e-5,180,0.009,0.916,22.175,120.893,9.788,84.452,0,0,0,2.797e4,1.347e4,19.953,0.106,NaN,2019.43,NaN,0.006,3.911e5,122.033,8.394e-5,0.749,0.002,0.414,0.215,0.12,NaN,NaN,NaN,NaN,NaN,NaN,NaN,NaN,7.144e-6,165,213.825,80,0,2,15,1013.25,340.389,0.01,0.021
0.99,-2.264e-4,-0.045,-4.527,0.046,4.597,-3.992e-5,0,3.992e-5,180,0.008,0.798,22.175,120.893,9.788,84.258,0,0,0,2.797e4,1.347e4,19.952,0.106,NaN,2019.376,NaN,0.006,3.912e5,141.022,9.293e-5,0.749,0.002,0.414,0.215,0.12,NaN,NaN,NaN,NaN,NaN,NaN,NaN,NaN,6.225e-6,165,213.825,80,0,2,15,1013.25,340.389,0.01,0.021
1,-1.775e-4,-0.035,-3.549,0.036,3.604,-3.129e-5,0,3.129e-5,180,0.006,0.626,22.175,120.893,9.788,83.974,0,0,0,2.797e4,1.347e4,19.951,0.106,NaN,2019.312,NaN,0.006,3.914e5,168.795,1.072e-4,0.749,0.002,0.413,0.215,0.12,NaN,NaN,NaN,NaN,NaN,NaN,NaN,NaN,4.88e-6,165,213.825,80,0,2,15,1013.25,340.389,0.01,0.021
1.01,-1.08e-4,-0.022,-2.16,0.022,2.193,-1.905e-5,0,1.905e-5,180,0.004,0.381,22.175,120.893,9.788,83.571,0,0,0,2.796e4,1.346e4,19.949,0.106,NaN,2019.232,NaN,0.006,3.917e5,208.221,1.297e-4,0.748,0.002,0.413,0.215,0.12,NaN,NaN,NaN,NaN,NaN,NaN,NaN,NaN,2.97e-6,165,213.825,80,0,2,15,1013.25,340.389,0.01,0.021
1.02,-4.34e-5,-0.009,-0.867,0.009,0.88,-7.652e-6,0,7.652e-6,180,0.002,0.153,22.175,120.893,9.788,83.198,0,0,0,2.796e4,1.346e4,19.948,0.106,NaN,2019.139,NaN,0.006,3.92e5,244.886,1.533e-4,0.748,0.003,0.413,0.215,0.12,NaN,NaN,NaN,NaN,NaN,NaN,NaN,NaN,1.193e-6,165,213.825,80,0,2,15,1013.25,340.389,0.01,0.022
1.03,2.651e-5,0.005,0.532,0.005,0.54,4.675e-6,0,4.675e-6,0,9.355e-4,0.094,22.175,120.893,9.788,82.794,0,0,0,2.795e4,1.345e4,19.946,0.106,NaN,2019.03,NaN,0.006,3.924e5,284.538,1.817e-4,0.748,0.003,0.413,0.215,0.12,NaN,NaN,NaN,NaN,NaN,NaN,NaN,NaN,7.294e-7,165,213.825,80,0,2,15,1013.25,340.389,0.01,0.022
1.04,1.812e-4,0.026,2.035,0.026,2.066,3.196e-5,0,3.196e-5,0,0.005,0.359,22.175,120.893,9.788,82.208,0,0,0,2.795e4,1.345e4,19.943,0.106,NaN,2018.905,NaN,0.006,3.929e5,327.142,2.288e-4,0.748,0.004,0.413,0.215,0.12,NaN,NaN,NaN,NaN,NaN,NaN,NaN,NaN,3.525e-6,165,213.825,80,0,2,15,1013.25,340.389,0.01,0.022
1.05,6.197e-4,0.062,3.643,0.063,3.699,1.093e-4,0,1.093e-4,0,0.011,0.642,22.175,120.893,9.788,81.163,0,0,0,2.794e4,1.344e4,19.941,0.106,NaN,2018.763,NaN,0.006,3.939e5,372.693,3.315e-4,0.748,0.006,0.413,0.215,0.12,NaN,NaN,NaN,NaN,NaN,NaN,NaN,NaN,8.532e-6,165,213.825,80,0,2,15,1013.25,340.389,0.01,0.022
1.06,0.002,0.118,5.603,0.12,5.689,2.681e-4,0,2.681e-4,0,0.021,0.988,22.175,120.893,9.788,79.567,0,0,0,2.793e4,1.343e4,19.938,0.106,NaN,2018.599,NaN,0.006,3.958e5,428.171,5.404e-4,0.748,0.01,0.412,0.215,0.12,NaN,NaN,NaN,NaN,NaN,NaN,NaN,NaN,1.623e-5,165,213.825,80,0,2,15,1013.25,340.389,0.01,0.023
1.07,0.003,0.193,7.537,0.196,7.653,5.427e-4,0,5.427e-4,0,0.034,1.329,22.175,120.893,9.788,77.447,0,0,0,2.792e4,1.342e4,19.935,0.106,NaN,2018.415,NaN,0.006,3.988e5,482.882,9.315e-4,0.747,0.017,0.412,0.215,0.12,NaN,NaN,NaN,NaN,NaN,NaN,NaN,NaN,2.659e-5,165,213.825,80,0,2,15,1013.25,340.389,0.01,0.023
1.08,0.005,0.291,9.756,0.295,9.907,9.697e-4,0,9.697e-4,0,0.051,1.72,22.175,120.893,9.788,74.754,0,0,0,2.791e4,1.341e4,19.931,0.106,NaN,2018.206,NaN,0.006,4.035e5,545.617,0.002,0.746,0.03,0.411,0.215,0.12,NaN,NaN,NaN,NaN,NaN,NaN,NaN,NaN,4e-5,165,213.825,80,0,2,15,1013.249,340.389,0.01,0.023
1.09,0.009,0.414,12.278,0.42,12.468,0.002,0,0.002,0,0.073,2.165,22.175,120.893,9.788,71.461,0,0,0,2.79e4,1.34e4,19.927,0.106,NaN,2017.969,NaN,0.006,4.106e5,616.859,0.003,0.744,0.051,0.409,0.215,0.12,NaN,NaN,NaN,NaN,NaN,NaN,NaN,NaN,5.687e-5,165,213.825,80,0,2,15,1013.249,340.389,0.01,0.023
1.1,0.014,0.565,15.164,0.574,15.398,0.002,0,0.002,0,0.1,2.674,22.175,120.893,9.788,67.564,0,0,0,2.789e4,1.339e4,19.922,0.106,NaN,2017.702,NaN,0.006,4.211e5,698.307,0.005,0.742,0.086,0.407,0.215,0.12,NaN,NaN,NaN,NaN,NaN,NaN,NaN,NaN,7.771e-5,165,213.825,80,0,2,15,1013.248,340.389,0.01,0.023
1.11,0.02,0.747,18.204,0.759,18.485,0.004,0,0.004,0,0.132,3.21,22.175,120.893,9.788,63.161,0,0,0,2.788e4,1.338e4,19.917,0.106,NaN,2017.401,NaN,0.007,4.363e5,784.022,0.009,0.739,0.138,0.404,0.215,0.12,NaN,NaN,NaN,NaN,NaN,NaN,NaN,NaN,1.027e-4,165,213.825,80,0,2,15,1013.248,340.389,0.01,0.024
1.12,0.029,0.96,21.324,0.975,21.653,0.005,0,0.005,0,0.169,3.76,22.175,120.893,9.788,58.407,0,0,0,2.786e4,1.336e4,19.911,0.106,NaN,2017.066,NaN,0.007,4.57e5,871.849,0.015,0.735,0.209,0.4,0.215,0.12,NaN,NaN,NaN,NaN,NaN,NaN,NaN,NaN,1.32e-4,165,213.825,80,0,2,15,1013.247,340.389,0.01,0.024
1.13,0.04,1.205,24.498,1.224,24.876,0.007,0,0.007,0,0.213,4.32,22.175,120.893,9.788,53.487,0,0,0,2.784e4,1.334e4,19.904,0.106,NaN,2016.696,NaN,0.007,4.843e5,961.049,0.024,0.73,0.297,0.395,0.215,0.12,NaN,NaN,NaN,NaN,NaN,NaN,NaN,NaN,1.657e-4,165,213.825,80,0,2,15,1013.245,340.389,0.01,0.024
1.14,0.053,1.479,27.389,1.502,27.811,0.009,0,0.009,0,0.261,4.829,22.175,120.893,9.788,48.64,0,0,0,2.782e4,1.332e4,19.897,0.106,NaN,2016.295,NaN,0.008,5.186e5,1042.073,0.036,0.724,0.394,0.389,0.215,0.12,NaN,NaN,NaN,NaN,NaN,NaN,NaN,NaN,2.033e-4,165,213.825,80,0,2,15,1013.244,340.389,0.01,0.024
1.15,0.07,1.778,29.893,1.805,30.354,0.012,0,0.012,0,0.313,5.271,22.175,120.893,9.788,44.064,0,0,0,2.78e4,1.33e4,19.889,0.106,NaN,2015.866,NaN,0.008,5.597e5,1112.029,0.052,0.718,0.491,0.383,0.215,0.12,NaN,NaN,NaN,NaN,NaN,NaN,NaN,NaN,2.444e-4,165,213.825,80,0,2,15,1013.242,340.389,0.01,0.024
1.16,0.089,2.098,32.068,2.131,32.562,0.016,0,0.016,0,0.37,5.654,22.175,120.893,9.788,39.872,0,0,0,2.778e4,1.328e4,19.881,0.106,NaN,2015.413,NaN,0.009,6.072e5,1172.553,0.073,0.712,0.581,0.376,0.215,0.12,NaN,NaN,NaN,NaN,NaN,NaN,NaN,NaN,2.885e-4,165,213.825,80,0,2,14.999,1013.24,340.389,0.01,0.025
1.17,0.112,2.436,33.79,2.474,34.311,0.02,0,0.02,0,0.43,5.958,22.175,120.893,9.788,36.127,0,0,0,2.776e4,1.326e4,19.873,0.105,NaN,2014.941,NaN,0.01,6.602e5,1220.187,0.098,0.705,0.658,0.37,0.215,0.12,NaN,NaN,NaN,NaN,NaN,NaN,NaN,NaN,3.349e-4,165,213.825,80,0,2,14.999,1013.237,340.388,0.01,0.025
1.18,0.138,2.786,35.054,2.829,35.595,0.024,0,0.024,0,0.491,6.181,22.175,120.893,9.788,32.842,0,0,0,2.774e4,1.324e4,19.864,0.105,NaN,2014.455,NaN,0.011,7.178e5,1254.818,0.126,0.699,0.72,0.364,0.215,0.12,NaN,NaN,NaN,NaN,NaN,NaN,NaN,NaN,3.831e-4,165,213.825,80,0,2,14.999,1013.234,340.388,0.01,0.025
1.19,0.167,3.145,35.847,3.193,36.4,0.03,0,0.03,0,0.554,6.321,22.175,120.893,9.788,29.994,0,0,0,2.771e4,1.321e4,19.855,0.105,NaN,2013.959,NaN,0.012,7.787e5,1276.135,0.158,0.693,0.767,0.358,0.215,0.12,NaN,NaN,NaN,NaN,NaN,NaN,NaN,NaN,4.323e-4,165,213.825,80,0,2,14.999,1013.23,340.388,0.01,0.025
1.2,0.201,3.508,36.395,3.563,36.956,0.035,0,0.035,0,0.619,6.417,22.175,120.893,9.788,27.529,0,0,0,2.769e4,1.319e4,19.846,0.105,NaN,2013.458,NaN,0.013,8.422e5,1290.479,0.194,0.687,0.802,0.352,0.215,0.12,NaN,NaN,NaN,NaN,NaN,NaN,NaN,NaN,4.823e-4,165,213.825,80,0,2,14.999,1013.226,340.388,0.01,0.025
1.21,0.238,3.875,36.698,3.935,37.264,0.042,0,0.042,0,0.683,6.471,22.175,120.893,9.788,25.397,0,0,0,2.767e4,1.317e4,19.837,0.105,NaN,2012.952,NaN,0.014,9.076e5,1297.933,0.232,0.682,0.826,0.347,0.215,0.12,NaN,NaN,NaN,NaN,NaN,NaN,NaN,NaN,5.328e-4,165,213.825,80,0,2,14.998,1013.222,340.388,0.01,0.026
1.22,0.278,4.243,36.756,4.308,37.323,0.049,0,0.049,0,0.748,6.481,22.175,120.893,9.788,23.552,0,0,0,2.764e4,1.314e4,19.828,0.105,NaN,2012.446,NaN,0.015,9.742e5,1298.512,0.272,0.677,0.843,0.342,0.215,0.12,NaN,NaN,NaN,NaN,NaN,NaN,NaN,NaN,5.833e-4,165,213.825,80,0,2,14.998,1013.217,340.388,0.01,0.026
1.23,0.322,4.61,36.799,4.682,37.366,0.057,0,0.057,0,0.813,6.489,22.175,120.893,9.788,21.942,0,0,0,2.762e4,1.312e4,19.819,0.105,NaN,2011.938,NaN,0.016,1.042e6,1298.633,0.315,0.673,0.852,0.337,0.215,0.12,NaN,NaN,NaN,NaN,NaN,NaN,NaN,NaN,6.338e-4,165,213.825,80,0,2,14.998,1013.212,340.388,0.01,0.026
1.24,0.37,4.977,36.706,5.054,37.272,0.065,0,0.065,0,0.878,6.472,22.175,120.893,9.788,20.532,0,0,0,2.76e4,1.31e4,19.81,0.105,NaN,2011.431,NaN,0.017,1.11e6,1294.965,0.36,0.668,0.857,0.333,0.215,0.12,NaN,NaN,NaN,NaN,NaN,NaN,NaN,NaN,6.843e-4,165,213.825,80,0,2,14.998,1013.207,340.387,0.01,0.026
1.25,0.422,5.343,36.621,5.426,37.186,0.074,0,0.074,0,0.942,6.457,22.175,120.893,9.788,19.289,0,0,0,2.757e4,1.307e4,19.801,0.105,NaN,2010.925,NaN,0.018,1.178e6,1291.53,0.406,0.664,0.859,0.329,0.215,0.12,NaN,NaN,NaN,NaN,NaN,NaN,NaN,NaN,7.346e-4,165,213.825,80,0,2,14.997,1013.201,340.387,0.01,0.027
1.26,0.477,5.708,36.534,5.797,37.097,0.084,0,0.084,0,1.007,6.442,22.175,120.893,9.788,18.186,0,0,0,2.755e4,1.305e4,19.792,0.105,NaN,2010.419,NaN,0.019,1.247e6,1288.052,0.454,0.661,0.858,0.326,0.215,0.12,NaN,NaN,NaN,NaN,NaN,NaN,NaN,NaN,7.848e-4,165,213.825,80,0,2,14.997,1013.194,340.387,0.01,0.027
1.27,0.536,6.073,36.423,6.166,36.985,0.095,0,0.095,0,1.071,6.422,22.175,120.893,9.788,17.201,0,0,0,2.753e4,1.303e4,19.783,0.105,NaN,2009.914,NaN,0.02,1.316e6,1283.912,0.504,0.657,0.855,0.322,0.215,0.12,NaN,NaN,NaN,NaN,NaN,NaN,NaN,NaN,8.349e-4,165,213.825,80,0,2,14.997,1013.187,340.387,0.01,0.027
1.28,0.599,6.436,36.39,6.536,36.952,0.106,0,0.106,0,1.135,6.417,22.175,120.893,9.788,16.315,0,0,0,2.75e4,1.3e4,19.774,0.105,NaN,2009.409,NaN,0.021,1.386e6,1281.967,0.556,0.654,0.85,0.319,0.215,0.12,NaN,NaN,NaN,NaN,NaN,NaN,NaN,NaN,8.849e-4,165,213.825,80,0,2,14.996,1013.18,340.387,0.01,0.027
1.29,0.665,6.799,36.309,6.904,36.869,0.117,0,0.117,0,1.199,6.402,22.175,120.893,9.788,15.516,0,0,0,2.748e4,1.298e4,19.765,0.105,NaN,2008.904,NaN,0.022,1.455e6,1278.651,0.607,0.651,0.843,0.316,0.215,0.12,NaN,NaN,NaN,NaN,NaN,NaN,NaN,NaN,9.348e-4,165,213.825,80,0,2,14.996,1013.172,340.386,0.01,0.027
1.3,0.735,7.162,36.268,7.272,36.827,0.13,0,0.13,0,1.263,6.395,22.175,120.893,9.788,14.79,0,0,0,2.746e4,1.296e4,19.756,0.105,NaN,2008.399,NaN,0.023,1.525e6,1276.485,0.66,0.649,0.834,0.313,0.215,0.12,NaN,NaN,NaN,NaN,NaN,NaN,NaN,NaN,9.846e-4,165,213.825,80,0,2,14.995,1013.164,340.386,0.01,0.028
1.31,0.808,7.524,36.262,7.64,36.822,0.142,0,0.142,0,1.327,6.394,22.175,120.893,9.788,14.128,0,0,0,2.743e4,1.293e4,19.747,0.105,NaN,2007.894,NaN,0.024,1.595e6,1275.318,0.714,0.646,0.825,0.311,0.215,0.12,NaN,NaN,NaN,NaN,NaN,NaN,NaN,NaN,0.001,165,213.825,80,0,2,14.995,1013.155,340.386,0.01,0.028
1.32,0.885,7.886,36.235,8.008,36.794,0.156,0,0.156,0,1.391,6.389,22.175,120.893,9.788,13.522,0,0,0,2.741e4,1.291e4,19.738,0.105,NaN,2007.388,NaN,0.025,1.665e6,1273.528,0.77,0.643,0.815,0.308,0.215,0.12,NaN,NaN,NaN,NaN,NaN,NaN,NaN,NaN,0.001,165,213.825,80,0,2,14.994,1013.146,340.385,0.01,0.028
1.33,0.966,8.249,36.284,8.376,36.844,0.17,0,0.17,0,1.455,6.398,22.175,120.893,9.788,12.965,0,0,0,2.739e4,1.289e4,19.729,0.105,NaN,2006.882,NaN,0.026,1.735e6,1273.891,0.826,0.641,0.806,0.306,0.215,0.12,NaN,NaN,NaN,NaN,NaN,NaN,NaN,NaN,0.001,165,213.825,80,0,2,14.994,1013.137,340.385,0.01,0.028
1.34,1.05,8.611,36.262,8.744,36.821,0.185,0,0.185,0,1.518,6.394,22.175,120.893,9.788,12.451,0,0,0,2.736e4,1.286e4,19.72,0.105,NaN,2006.376,NaN,0.027,1.805e6,1272.247,0.884,0.639,0.797,0.303,0.215,0.12,NaN,NaN,NaN,NaN,NaN,NaN,NaN,NaN,0.001,165,213.825,80,0,2,14.993,1013.127,340.385,0.01,0.028
1.35,1.138,8.974,36.272,9.112,36.832,0.201,0,0.201,0,1.582,6.396,22.175,120.893,9.788,11.975,0,0,0,2.734e4,1.284e4,19.711,0.105,NaN,2005.868,NaN,0.028,1.876e6,1271.517,0.944,0.637,0.787,0.301,0.215,0.12,NaN,NaN,NaN,NaN,NaN,NaN,NaN,NaN,0.001,165,213.825,80,0,2,14.993,1013.117,340.384,0.01,0.029
1.36,1.23,9.337,36.309,9.481,36.87,0.217,0,0.217,0,1.646,6.402,22.175,120.893,9.788,11.534,0,0,0,2.732e4,1.282e4,19.702,0.105,NaN,2005.361,NaN,0.029,1.947e6,1271.539,1.005,0.635,0.779,0.299,0.215,0.12,NaN,NaN,NaN,NaN,NaN,NaN,NaN,NaN,0.001,165,213.825,80,0,2,14.992,1013.106,340.384,0.01,0.029
1.37,1.325,9.7,36.326,9.849,36.886,0.234,0,0.234,0,1.71,6.405,22.175,120.893,9.788,11.123,0,0,0,2.729e4,1.279e4,19.693,0.105,NaN,2004.852,NaN,0.03,2.018e6,1270.983,1.067,0.633,0.77,0.297,0.215,0.12,NaN,NaN,NaN,NaN,NaN,NaN,NaN,NaN,0.001,165,213.825,80,0,2,14.991,1013.095,340.384,0.01,0.029
1.38,1.424,10.064,36.441,10.219,37.004,0.251,0,0.251,0,1.775,6.426,22.175,120.893,9.788,10.74,0,0,0,2.727e4,1.277e4,19.684,0.105,NaN,2004.342,NaN,0.031,2.089e6,1273.167,1.132,0.631,0.762,0.295,0.215,0.12,NaN,NaN,NaN,NaN,NaN,NaN,NaN,NaN,0.001,165,213.825,80,0,2,14.991,1013.083,340.383,0.01,0.029
1.39,1.526,10.429,36.482,10.59,37.045,0.269,0,0.269,0,1.839,6.433,22.175,120.893,9.788,10.381,0,0,0,2.725e4,1.275e4,19.675,0.105,NaN,2003.83,NaN,0.032,2.16e6,1273.278,1.198,0.629,0.754,0.294,0.215,0.12,NaN,NaN,NaN,NaN,NaN,NaN,NaN,NaN,0.001,165,213.825,80,0,2,14.99,1013.071,340.383,0.01,0.029
1.4,1.632,10.794,36.569,10.961,37.133,0.288,0,0.288,0,1.903,6.448,22.175,120.893,9.788,10.044,0,0,0,2.723e4,1.273e4,19.666,0.105,NaN,2003.318,NaN,0.033,2.232e6,1274.663,1.266,0.627,0.747,0.292,0.215,0.12,NaN,NaN,NaN,NaN,NaN,NaN,NaN,NaN,0.001,165,213.825,80,0,2,14.989,1013.059,340.382,0.01,0.03
1.41,1.742,11.161,36.675,11.333,37.241,0.307,0,0.307,0,1.968,6.467,22.175,120.893,9.788,9.727,0,0,0,2.72e4,1.27e4,19.657,0.105,NaN,2002.803,NaN,0.035,2.304e6,1276.588,1.336,0.625,0.739,0.29,0.215,0.12,NaN,NaN,NaN,NaN,NaN,NaN,NaN,NaN,0.002,165,213.825,80,0,2,14.989,1013.046,340.382,0.01,0.03
1.42,1.855,11.528,36.743,11.706,37.31,0.327,0,0.327,0,2.033,6.479,22.175,120.893,9.788,9.429,0,0,0,2.718e4,1.268e4,19.648,0.105,NaN,2002.288,NaN,0.036,2.376e6,1277.444,1.408,0.624,0.733,0.288,0.215,0.12,NaN,NaN,NaN,NaN,NaN,NaN,NaN,NaN,0.002,165,213.825,80,0,2,14.988,1013.032,340.382,0.01,0.03
1.43,1.972,11.897,36.878,12.08,37.447,0.348,0,0.348,0,2.098,6.503,22.175,120.893,9.788,9.148,0,0,0,2.716e4,1.266e4,19.639,0.105,NaN,2001.77,NaN,0.037,2.448e6,1280.14,1.485,0.623,0.727,0.288,0.215,0.12,NaN,NaN,NaN,NaN,NaN,NaN,NaN,NaN,0.002,165,213.825,80,0,2,14.987,1013.019,340.381,0.01,0.03
1.44,2.093,12.266,36.934,12.455,37.504,0.369,0,0.369,0,2.163,6.512,22.175,120.893,9.788,8.882,0,0,0,2.713e4,1.263e4,19.629,0.105,NaN,2001.252,NaN,0.038,2.521e6,1280.681,1.564,0.623,0.723,0.288,0.215,0.12,NaN,NaN,NaN,NaN,NaN,NaN,NaN,NaN,0.002,165,213.825,80,0,2,14.986,1013.004,340.381,0.01,0.036
1.45,2.218,12.636,37.043,12.831,37.614,0.391,0,0.391,0,2.228,6.532,22.175,120.893,9.788,8.631,0,0,0,2.711e4,1.261e4,19.62,0.105,NaN,2000.731,NaN,0.039,2.593e6,1282.653,1.647,0.623,0.719,0.288,0.215,0.12,NaN,NaN,NaN,NaN,NaN,NaN,NaN,NaN,0.002,165,213.825,80,0,2,14.986,1012.99,340.38,0.01,0.036
1.46,2.346,13.007,37.16,13.208,37.733,0.414,0,0.414,0,2.294,6.552,22.175,120.893,9.788,8.392,0,0,0,2.709e4,1.259e4,19.611,0.104,NaN,2000.209,NaN,0.04,2.667e6,1284.861,1.731,0.623,0.715,0.288,0.215,0.12,NaN,NaN,NaN,NaN,NaN,NaN,NaN,NaN,0.002,165,213.825,80,0,2,14.985,1012.975,340.38,0.01,0.037
1.47,2.478,13.379,37.213,13.586,37.787,0.437,0,0.437,0,2.359,6.562,22.175,120.893,9.788,8.166,0,0,0,2.706e4,1.256e4,19.602,0.104,NaN,1999.686,NaN,0.041,2.74e6,1285.292,1.818,0.623,0.711,0.288,0.215,0.12,NaN,NaN,NaN,NaN,NaN,NaN,NaN,NaN,0.002,165,213.825,80,0,2,14.984,1012.959,340.379,0.01,0.037
1.48,2.614,13.753,37.334,13.965,37.91,0.461,0,0.461,0,2.425,6.583,22.175,120.893,9.788,7.952,0,0,0,2.704e4,1.254e4,19.592,0.104,NaN,1999.161,NaN,0.042,2.813e6,1287.587,1.908,0.623,0.708,0.288,0.215,0.12,NaN,NaN,NaN,NaN,NaN,NaN,NaN,NaN,0.002,165,213.825,80,0,2,14.983,1012.943,340.379,0.01,0.037
1.49,2.753,14.126,37.38,14.344,37.956,0.485,0,0.485,0,2.491,6.591,22.175,120.893,9.788,7.747,0,0,0,2.702e4,1.252e4,19.583,0.104,NaN,1998.635,NaN,0.043,2.887e6,1287.832,2,0.623,0.704,0.288,0.215,0.12,NaN,NaN,NaN,NaN,NaN,NaN,NaN,NaN,0.002,165,213.825,80,0,2,14.982,1012.927,340.378,0.01,0.037
1.5,2.896,14.5,37.45,14.724,38.028,0.511,0,0.511,0,2.557,6.603,22.175,120.893,9.788,7.553,0,0,0,2.699e4,1.249e4,19.574,0.104,NaN,1998.108,NaN,0.044,2.961e6,1288.735,2.094,0.623,0.701,0.288,0.215,0.12,NaN,NaN,NaN,NaN,NaN,NaN,NaN,NaN,0.002,165,213.825,80,0,2,14.981,1012.91,340.377,0.01,0.038
1.51,3.043,14.876,37.532,15.105,38.111,0.537,0,0.537,0,2.623,6.618,22.175,120.893,9.788,7.368,0,0,0,2.697e4,1.247e4,19.564,0.104,NaN,1997.579,NaN,0.045,3.035e6,1289.948,2.19,0.623,0.698,0.288,0.215,0.12,NaN,NaN,NaN,NaN,NaN,NaN,NaN,NaN,0.002,165,213.825,80,0,2,14.98,1012.893,340.377,0.01,0.038
1.52,3.194,15.251,37.548,15.486,38.127,0.563,0,0.563,0,2.689,6.621,22.175,120.893,9.788,7.191,0,0,0,2.695e4,1.244e4,19.555,0.104,NaN,1997.049,NaN,0.047,3.109e6,1289.376,2.289,0.623,0.695,0.288,0.215,0.12,NaN,NaN,NaN,NaN,NaN,NaN,NaN,NaN,0.002,165,213.825,80,0,2,14.979,1012.875,340.376,0.01,0.038
1.53,3.348,15.628,37.687,15.869,38.269,0.59,0,0.59,0,2.756,6.645,22.175,120.893,9.788,7.022,0,0,0,2.692e4,1.242e4,19.546,0.104,NaN,1996.518,NaN,0.048,3.183e6,1292.164,2.391,0.623,0.693,0.288,0.215,0.12,NaN,NaN,NaN,NaN,NaN,NaN,NaN,NaN,0.002,165,213.825,80,0,2,14.978,1012.857,340.376,0.01,0.038
1.54,3.506,16.005,37.757,16.252,38.34,0.618,0,0.618,0,2.822,6.658,22.175,120.893,9.788,6.86,0,0,0,2.69e4,1.24e4,19.536,0.104,NaN,1995.985,NaN,0.049,3.258e6,1293.051,2.495,0.623,0.69,0.288,0.215,0.12,NaN,NaN,NaN,NaN,NaN,NaN,NaN,NaN,0.002,165,213.825,80,0,2,14.977,1012.839,340.375,0.01,0.039
1.55,3.668,16.383,37.862,16.636,38.446,0.647,0,0.647,0,2.889,6.676,22.175,120.893,9.788,6.706,0,0,0,2.687e4,1.237e4,19.527,0.104,NaN,1995.451,NaN,0.05,3.333e6,1294.89,2.602,0.623,0.688,0.288,0.215,0.12,NaN,NaN,NaN,NaN,NaN,NaN,NaN,NaN,0.002,165,213.825,80,0,2,14.976,1012.82,340.374,0.01,0.039
1.56,3.834,16.763,37.986,17.022,38.572,0.676,0,0.676,0,2.956,6.698,22.175,120.893,9.788,6.557,0,0,0,2.685e4,1.235e4,19.517,0.104,NaN,1994.914,NaN,0.051,3.408e6,1297.251,2.711,0.623,0.685,0.288,0.215,0.12,NaN,NaN,NaN,NaN,NaN,NaN,NaN,NaN,0.002,165,213.825,80,0,2,14.975,1012.8,340.374,0.01,0.039
1.57,4.003,17.143,38.006,17.407,38.593,0.706,0,0.706,0,3.023,6.702,22.175,120.893,9.788,6.415,0,0,0,2.683e4,1.233e4,19.508,0.104,NaN,1994.377,NaN,0.052,3.483e6,1296.778,2.823,0.623,0.683,0.288,0.215,0.12,NaN,NaN,NaN,NaN,NaN,NaN,NaN,NaN,0.002,165,213.825,80,0,2,14.974,1012.78,340.373,0.01,0.04
1.585,4.265,17.711,37.866,17.988,38.751,0.752,-1.822e-5,0.752,-0.001,3.146,8.234,22.175,120.893,9.788,6.257,0,0.039,-1.649e-4,2.679e4,1.229e4,19.493,0.104,2138.383,1993.568,0.878,0.054,3.596e6,1298.654,2.999,0.624,0.681,0.288,0.215,0.12,1.422,1.248,3.313e-4,0,0,0,0,5.139e-6,0.002,165,213.825,80,0.001,2,14.972,1012.75,340.372,0.015,0.04
1.608,4.673,18.566,38.068,18.863,38.954,0.825,-1.153e-4,0.825,-0.008,3.332,8.259,22.175,120.893,9.788,6.036,0,0.101,-0.001,2.674e4,1.224e4,19.472,0.104,2142.369,1992.348,0.909,0.056,3.767e6,1301.804,3.275,0.624,0.678,0.288,0.215,0.12,1.362,1.239,2.189e-4,0,0,0,0,3.201e-5,0.003,165,213.825,79.999,0.008,2,14.97,1012.702,340.37,0.023,0.04
1.641,5.321,19.86,38.405,20.186,39.293,0.942,-4.231e-4,0.942,-0.026,3.612,8.304,22.175,120.893,9.788,5.734,0,0.206,-0.004,2.666e4,1.216e4,19.439,0.104,2147.909,1990.501,0.954,0.06,4.025e6,1307.398,3.715,0.624,0.673,0.288,0.215,0.12,1.282,1.224,1.705e-4,0,0,0,0,1.154e-4,0.003,165,213.825,79.995,0.028,2,14.965,1012.626,340.368,0.034,0.04
1.691,6.363,21.796,38.826,22.165,39.716,1.133,-0.001,1.133,-0.063,4.029,8.36,22.175,120.893,9.788,5.341,0,0.384,-0.012,2.654e4,1.204e4,19.39,0.104,2155.307,1987.731,1.016,0.066,4.412e6,1313.533,4.427,0.624,0.668,0.288,0.215,0.121,1.18,1.197,3.619e-4,0,0,0,0,3.348e-4,0.003,165,213.825,79.984,0.086,2,14.959,1012.504,340.364,0.05,0.041
1.741,7.502,23.761,39.402,24.174,40.297,1.345,-0.003,1.345,-0.108,4.451,8.449,22.175,120.893,9.788,4.995,0,0.593,-0.025,2.642e4,1.192e4,19.34,0.104,2161.983,1984.915,1.073,0.072,4.805e6,1323.765,5.213,0.624,0.663,0.288,0.216,0.121,1.091,1.171,1.178e-4,0,0,0,0,6.719e-4,0.003,165,213.825,79.967,0.181,2,14.951,1012.37,340.359,0.05,0.041
1.791,8.739,25.757,40.025,26.215,40.929,1.578,-0.004,1.579,-0.155,4.878,8.553,22.175,120.893,9.788,4.683,0,0.834,-0.043,2.63e4,1.18e4,19.29,0.103,2168.141,1982.048,1.128,0.078,5.204e6,1335.184,6.078,0.624,0.659,0.288,0.216,0.121,1.013,1.142,-7.149e-5,0,0,0,0,0.001,0.004,165,213.825,79.94,0.317,2,14.943,1012.225,340.354,0.05,0.041
1.841,10.078,27.787,40.692,28.29,41.606,1.833,-0.006,1.833,-0.201,5.311,8.674,22.175,120.893,9.788,4.396,0,1.108,-0.066,2.617e4,1.167e4,19.238,0.103,2173.941,1979.127,1.181,0.084,5.609e6,1347.677,7.025,0.624,0.655,0.288,0.216,0.121,0.942,1.111,3.082e-4,0,0,0,0,0.002,0.004,165,213.825,79.903,0.497,2,14.934,1012.068,340.349,0.05,0.041
1.891,11.519,29.856,41.488,30.405,42.417,2.11,-0.009,2.11,-0.243,5.751,8.829,22.175,120.893,9.788,4.125,0,1.416,-0.096,2.605e4,1.155e4,19.185,0.103,2179.525,1976.143,1.233,0.09,6.022e6,1363.475,8.06,0.624,0.652,0.288,0.216,0.121,0.877,1.078,2.643e-4,0,0,0,0,0.002,0.004,165,213.825,79.854,0.725,2,14.925,1011.899,340.344,0.05,0.042
1.941,13.064,31.958,42.139,32.554,43.084,2.408,-0.012,2.408,-0.281,6.198,8.973,22.175,120.893,9.788,3.865,-4.126e-7,1.76,-0.133,2.593e4,1.143e4,19.132,0.103,2184.976,1973.105,1.284,0.097,6.442e6,1375.364,9.183,0.625,0.649,0.288,0.216,0.121,0.815,1.043,3.976e-4,0,0,0,0,0.003,0.004,165,213.825,79.792,1.004,2,14.915,1011.718,340.337,0.05,0.042
1.991,14.716,34.097,42.875,34.74,43.841,2.73,-0.015,2.73,-0.313,6.653,9.149,22.175,120.893,9.788,3.612,-3.907e-7,2.138,-0.179,2.58e4,1.13e4,19.077,0.103,2190.399,1970.006,1.336,0.103,6.869e6,1389.417,10.4,0.625,0.647,0.288,0.216,0.121,0.755,1.005,-9.741e-5,0,0,0,0,0.004,0.005,165,213.825,79.714,1.335,2,14.904,1011.524,340.331,0.05,0.042
2.041,16.475,36.284,43.854,36.976,44.849,3.074,-0.018,3.074,-0.336,7.12,9.391,22.175,120.893,9.788,3.36,-4.653e-7,2.551,-0.233,2.567e4,1.117e4,19.021,0.102,2195.896,1966.831,1.388,0.11,7.306e6,1409.711,11.721,0.625,0.644,0.288,0.216,0.122,0.697,0.962,-1.259e-5,0,0,0,0,0.005,0.005,165,213.825,79.619,1.719,2,14.893,1011.318,340.324,0.05,0.042
2.091,18.345,38.515,44.713,39.257,45.739,3.442,-0.021,3.442,-0.351,7.599,9.636,22.175,120.893,9.788,3.107,-3.476e-7,2.997,-0.3,2.554e4,1.104e4,18.964,0.102,2201.52,1963.584,1.442,0.116,7.751e6,1426.753,13.148,0.625,0.642,0.287,0.216,0.122,0.639,0.915,4.832e-4,0,0,0,0,0.007,0.005,165,213.825,79.504,2.156,2,14.881,1011.098,340.317,0.05,0.042
2.141,20.327,40.775,45.293,41.569,46.353,3.834,-0.024,3.834,-0.356,8.088,9.858,22.175,120.893,9.788,2.852,-3.677e-7,3.469,-0.381,2.541e4,1.091e4,18.906,0.102,2207.305,1960.282,1.497,0.123,8.203e6,1436.554,14.676,0.626,0.64,0.287,0.216,0.122,0.581,0.863,-3.377e-4,0,0,0,0,0.008,0.006,165,213.825,79.369,2.642,2,14.868,1010.866,340.309,0.05,0.043
2.191,22.423,43.067,45.951,43.915,47.054,4.251,-0.026,4.251,-0.351,8.589,10.128,22.175,120.893,9.788,2.592,-1.404e-6,3.963,-0.481,2.528e4,1.078e4,18.847,0.102,2213.311,1956.918,1.554,0.13,8.661e6,1448.404,16.311,0.626,0.638,0.287,0.216,0.122,0.524,0.804,-4.657e-4,0,0,0,0,0.009,0.006,165,213.825,79.21,3.173,2,14.854,1010.62,340.301,0.05,0.043
2.241,24.635,45.394,46.643,46.298,47.798,4.693,-0.027,4.693,-0.334,9.105,10.441,22.175,120.893,9.788,2.325,-1.177e-6,4.471,-0.605,2.515e4,1.065e4,18.787,0.102,2219.581,1953.489,1.613,0.137,9.126e6,1461.178,18.06,0.626,0.636,0.287,0.217,0.122,0.466,0.74,1.41e-4,0,0,0,0,0.011,0.006,165,213.825,79.027,3.744,2,14.84,1010.361,340.292,0.05,0.044
2.291,26.963,47.745,47.11,48.708,48.322,5.162,-0.027,5.162,-0.304,9.635,10.752,22.175,120.893,9.788,2.053,-1.4e-6,4.979,-0.766,2.501e4,1.051e4,18.726,0.101,2226.128,1950.006,1.673,0.144,9.596e6,1468.288,19.919,0.627,0.634,0.287,0.217,0.123,0.407,0.67,-3.825e-4,0,0,0,0,0.012,0.007,165,213.825,78.818,4.346,2,14.825,1010.088,340.283,0.05,0.044
2.341,29.409,50.098,47.148,51.121,48.418,5.657,-0.026,5.657,-0.262,10.177,11.019,22.175,120.893,9.788,1.775,-2.064e-6,5.47,-0.977,2.488e4,1.038e4,18.664,0.101,2232.941,1946.495,1.736,0.151,1.007e7,1464.702,21.874,0.627,0.633,0.287,0.217,0.123,0.349,0.593,4.119e-5,0,0,0,0,0.013,0.007,165,213.825,78.583,4.969,2,14.809,1009.801,340.273,0.05,0.044
2.391,31.973,52.452,47.151,53.539,48.491,6.18,-0.022,6.18,-0.207,10.733,11.321,22.175,120.893,9.788,1.492,-3.068e-6,5.918,-1.268,2.475e4,1.025e4,18.602,0.101,2240.007,1942.956,1.8,0.158,1.054e7,1460.577,23.926,0.628,0.632,0.287,0.217,0.123,0.29,0.508,3.365e-4,0,0,0,0,0.014,0.007,165,213.825,78.322,5.603,2,14.792,1009.5,340.263,0.05,0.045
2.441,34.654,54.807,47.191,55.961,48.613,6.73,-0.016,6.73,-0.138,11.305,11.672,22.175,120.893,9.788,1.207,-1.159e-6,6.284,-1.691,2.461e4,1.011e4,18.539,0.101,2247.277,1939.385,1.866,0.165,1.101e7,1457.734,26.083,0.628,0.631,0.287,0.217,0.124,0.233,0.42,-2.436e-4,0,0,0,0,0.014,0.008,165,213.825,78.035,6.234,2,14.775,1009.186,340.252,0.05,0.045
2.491,37.453,57.145,46.809,58.369,48.316,7.31,-0.007,7.31,-0.056,11.891,11.974,22.175,120.893,9.788,0.926,-3.348e-6,6.486,-2.355,2.448e4,9982.7,18.477,0.101,2254.614,1935.809,1.932,0.173,1.148e7,1444.705,28.326,0.628,0.63,0.287,0.218,0.124,0.177,0.327,-2.914e-4,0,0,0,0,0.014,0.008,165,213.825,77.726,6.851,2,14.757,1008.857,340.241,0.05,0.045
2.541,40.369,59.475,46.677,60.774,48.287,7.92,0.006,7.92,0.04,12.495,12.365,22.175,120.893,9.788,0.659,-5.185e-6,6.301,-3.5,2.435e4,9851.919,18.414,0.1,2261.746,1932.21,1.997,0.18,1.195e7,1438.362,30.673,0.629,0.63,0.287,0.218,0.124,0.124,0.236,-5.264e-5,0,0,0,0,0.012,0.008,165,213.825,77.396,7.439,2,14.738,1008.515,340.23,0.05,0.045
2.591,43.4,61.793,46.413,63.17,48.134,8.56,0.022,8.56,0.149,13.116,12.758,22.175,120.893,9.788,0.433,-4.918e-6,4.893,-5.565,2.422e4,9721.977,18.351,0.1,2267.894,1928.595,2.056,0.187,1.241e7,1429.136,33.12,0.629,0.63,0.287,0.218,0.125,0.081,0.16,3.998e-4,0,0,0,0,0.007,0.009,165,213.825,77.051,7.987,2,14.718,1008.16,340.218,0.05,0.046
2.641,46.548,64.121,46.592,65.581,48.447,9.231,0.044,9.231,0.271,13.763,13.279,22.175,120.893,9.788,0.333,-7.1e-6,0.146,-7.486,2.409e4,9591.843,18.287,0.1,2270.739,1924.936,2.096,0.194,1.288e7,1431.244,35.696,0.63,0.63,0.287,0.218,0.125,0.062,0.131,1.46e-4,0,0,0,0,5.627e-6,0.009,165,213.825,76.696,8.482,2,14.697,1007.791,340.206,0.05,0.046
2.691,49.813,66.452,46.658,68.001,48.654,9.935,0.07,9.936,0.406,14.434,13.793,22.175,120.893,9.788,0.429,-1.021e-5,-4.431,-5.939,2.396e4,9461.748,18.222,0.1,2268.295,1921.238,2.103,0.201,1.335e7,1430.823,38.397,0.63,0.631,0.287,0.218,0.125,0.08,0.174,3.231e-4,0,0,0,0,-0.005,0.009,165,213.825,76.336,8.913,2,14.676,1007.408,340.193,0.05,0.046
2.741,53.194,68.793,46.861,70.438,49.01,10.674,0.103,10.674,0.552,15.133,14.352,22.175,120.893,9.788,0.612,-6.705e-6,-5.792,-4.2,2.383e4,9331.363,18.157,0.1,2263.563,1917.492,2.097,0.208,1.383e7,1433.995,41.234,0.631,0.632,0.287,0.219,0.126,0.116,0.25,-2.726e-5,0,0,0,0,-0.008,0.01,165,213.825,75.982,9.271,2,14.654,1007.011,340.179,0.05,0.046
2.791,56.692,71.153,47.234,72.899,49.544,11.448,0.142,11.448,0.709,15.861,14.952,22.175,120.893,9.788,0.798,-1.295e-5,-5.911,-3.201,2.37e4,9200.305,18.091,0.099,2258.814,1913.685,2.092,0.215,1.43e7,1441.415,44.216,0.631,0.633,0.287,0.219,0.126,0.152,0.325,1.003e-4,0,0,0,0,-0.007,0.01,165,213.825,75.641,9.547,2,14.632,1006.601,340.166,0.05,0.047
2.841,60.309,73.528,47.548,75.383,50.016,12.258,0.187,12.26,0.876,16.618,15.518,22.175,120.893,9.788,0.959,-1.449e-5,-5.53,-2.61,2.357e4,9068.707,18.023,0.099,2254.793,1909.819,2.091,0.223,1.479e7,1447.346,47.339,0.632,0.634,0.286,0.219,0.126,0.184,0.39,4.676e-4,0,0,0,0,-0.006,0.01,165,213.825,75.323,9.739,2,14.608,1006.177,340.151,0.05,0.047
2.891,64.045,75.899,47.449,77.867,50.054,13.107,0.24,13.109,1.051,17.397,15.936,22.175,120.893,9.788,1.082,-1.659e-5,-4.859,-2.232,2.344e4,8937.495,17.955,0.099,2251.804,1905.922,2.096,0.23,1.527e7,1443.113,50.569,0.633,0.635,0.286,0.219,0.127,0.208,0.441,-1.136e-4,0,0,0,0,-0.004,0.01,165,213.825,75.038,9.844,2,14.584,1005.739,340.137,0.05,0.047
2.941,67.899,78.257,47.208,80.344,49.927,13.994,0.301,13.998,1.233,18.193,16.251,22.175,120.893,9.787,1.159,-1.558e-5,-3.984,-1.979,2.331e4,8806.998,17.887,0.099,2250.019,1902.002,2.109,0.237,1.575e7,1435.232,53.889,0.633,0.636,0.286,0.22,0.127,0.224,0.474,3.378e-5,0,0,0,0,-0.003,0.011,165,213.825,74.793,9.863,2,14.559,1005.287,340.121,0.05,0.047
2.991,71.871,80.625,47.412,82.836,50.237,14.922,0.37,14.926,1.419,19.01,16.608,22.175,120.893,9.787,1.185,-1.616e-5,-2.959,-1.805,2.318e4,8676.274,17.818,0.099,2249.558,1898.031,2.13,0.245,1.623e7,1437.734,57.322,0.634,0.636,0.286,0.22,0.128,0.229,0.489,5.807e-5,0,0,0,0,-0.001,0.011,165,213.825,74.596,9.797,2,14.533,1004.821,340.106,0.05,0.048
3.041,75.962,83.015,47.867,85.355,50.776,15.89,0.446,15.896,1.608,19.846,16.938,22.175,120.893,9.787,1.156,-1.706e-5,-1.838,-1.691,2.305e4,8544.831,17.748,0.098,2250.479,1893.993,2.161,0.252,1.672e7,1445.651,60.881,0.634,0.637,0.286,0.22,0.128,0.223,0.482,4.952e-4,0,0,0,0,-5.278e-4,0.011,165,213.825,74.453,9.652,2,14.506,1004.341,340.09,0.05,0.048
3.091,80.173,85.422,48.213,87.893,51.165,16.9,0.53,16.908,1.797,20.696,17.13,22.175,120.893,9.787,1.074,-1.987e-5,-0.686,-1.628,2.291e4,8412.968,17.677,0.098,2252.781,1889.896,2.199,0.26,1.721e7,1450.255,64.557,0.635,0.637,0.286,0.22,0.129,0.207,0.455,2.65e-4,0,0,0,0,-6.936e-5,0.012,165,213.825,74.367,9.433,2,14.479,1003.847,340.073,0.05,0.048
3.141,84.504,87.837,48.394,90.442,51.345,17.952,0.622,17.963,1.985,21.55,17.157,22.175,120.893,9.787,0.942,-2.046e-5,0.426,-1.624,2.278e4,8281.109,17.605,0.098,2256.394,1885.751,2.246,0.267,1.77e7,1450.225,68.341,0.636,0.638,0.286,0.221,0.129,0.181,0.406,-2.33e-4,0,0,0,0,2.527e-5,0.012,165,213.825,74.34,9.15,2,14.451,1003.339,340.056,0.05,0.049
