# Time (s),Altitude (m),Vertical velocity (m/s),Vertical acceleration (m/s²),Total velocity (m/s),Total acceleration (m/s²),Position East of launch (m),Position North of launch (m),Lateral distance (m),Lateral direction (°),Lateral velocity (m/s),Lateral acceleration (m/s²),Latitude (°),Longitude (°),Gravitational acceleration (m/s²),Angle of attack (°),Roll rate (°/s),Pitch rate (°/s),Yaw rate (°/s),Mass (g),Motor mass (g),Longitudinal moment of inertia (kg·m²),Rotational moment of inertia (kg·m²),CP location (mm),CG location (mm),Stability margin calibers (​),Mach number (​),Reynolds number (​),Thrust (N),Drag force (N),Drag coefficient (​),Axial drag coefficient (​),Friction drag coefficient (​),Pressure drag coefficient (​),Base drag coefficient (​),Normal force coefficient (​),Pitch moment coefficient (​),Yaw moment coefficient (​),Side force coefficient (​),Roll moment coefficient (​),Roll forcing coefficient (​),Roll damping coefficient (​),Pitch damping coefficient (​),Coriolis acceleration (m/s²),Reference length (mm),Reference area (cm²),Vertical orientation (zenith) (°),Lateral orientation (azimuth) (°),Wind velocity (m/s),Air temperature (°C),Air pressure (mbar),Speed of sound (m/s),Simulation time step (s),Computation time (s)
0.01,-4.757e-4,-0.095,-9.511,0.096,9.563,-5e-5,0,5e-5,180,0.01,1,22.175,120.893,9.788,88.397,0,0,0,2.8e4,1.35e4,19.963,0.106,NaN,2019.994,NaN,0.006,4.067e5,4.784,2.271e-6,0.745,4.033e-5,0.41,0.215,0.12,NaN,NaN,NaN,NaN,NaN,NaN,NaN,NaN,1.293e-5,165,213.825,84,0,2.079,15,1013.25,340.389,0.01,0.001
0.02,-4.761e-4,-0.095,-9.522,0.096,9.575,-5.004e-5,0,5.004e-5,180,0.01,1.001,22.175,120.893,9.788,88.383,0,0,0,2.8e4,1.35e4,19.963,0.106,NaN,2019.992,NaN,0.006,4.094e5,4.461,2.362e-6,0.745,4.138e-5,0.409,0.215,0.12,NaN,NaN,NaN,NaN,NaN,NaN,NaN,NaN,1.294e-5,165,213.825,84,0,2.092,15,1013.25,340.389,0.01,0.001
0.03,-4.763e-4,-0.095,-9.526,0.096,9.579,-5.006e-5,0,5.006e-5,180,0.01,1.001,22.175,120.893,9.788,88.367,0,0,0,2.8e4,1.35e4,19.963,0.106,NaN,2019.991,NaN,0.006,4.121e5,4.343,2.464e-6,0.744,4.26e-5,0.409,0.215,0.12,NaN,NaN,NaN,NaN,NaN,NaN,NaN,NaN,1.295e-5,165,213.825,84,0,2.106,15,1013.25,340.389,0.01,0.002
0.04,-4.765e-4,-0.095,-9.53,0.096,9.582,-5.008e-5,0,5.008e-5,180,0.01,1.002,22.175,120.893,9.788,88.35,0,0,0,2.8e4,1.35e4,19.963,0.106,NaN,2019.989,NaN,0.006,4.149e5,4.249,2.569e-6,0.743,4.384e-5,0.408,0.215,0.12,NaN,NaN,NaN,NaN,NaN,NaN,NaN,NaN,1.295e-5,165,213.825,84,0,2.12,15,1013.25,340.389,0.01,0.002
0.05,-4.761e-4,-0.095,-9.523,0.096,9.575,-5.005e-5,0,5.005e-5,180,0.01,1.001,22.175,120.893,9.788,88.332,0,0,0,2.8e4,1.35e4,19.963,0.106,NaN,2019.988,NaN,0.006,4.176e5,4.443,2.69e-6,0.743,4.531e-5,0.408,0.215,0.12,NaN,NaN,NaN,NaN,NaN,NaN,NaN,NaN,1.294e-5,165,213.825,84,0,2.134,15,1013.25,340.389,0.01,0.002
0.06,-4.757e-4,-0.095,-9.514,0.096,9.567,-5e-5,0,5e-5,180,0.01,1,22.175,120.893,9.788,88.323,0,0,0,2.8e4,1.35e4,19.963,0.106,NaN,2019.986,NaN,0.006,4.186e5,4.681,2.743e-6,0.743,4.598e-5,0.407,0.215,0.12,NaN,NaN,NaN,NaN,NaN,NaN,NaN,NaN,1.293e-5,165,213.825,84,0,2.139,15,1013.25,340.389,0.01,0.002
0.07,-4.762e-4,-0.095,-9.523,0.096,9.576,-5.005e-5,0,5.005e-5,180,0.01,1.001,22.175,120.893,9.788,88.32,0,0,0,2.8e4,1.35e4,19.963,0.106,NaN,2019.984,NaN,0.006,4.195e5,4.438,2.773e-6,0.742,4.627e-5,0.407,0.215,0.12,NaN,NaN,NaN,NaN,NaN,NaN,NaN,NaN,1.294e-5,165,213.825,84,0,2.144,15,1013.25,340.389,0.01,0.002
0.08,-4.761e-4,-0.095,-9.522,0.096,9.574,-5.004e-5,0,5.004e-5,180,0.01,1.001,22.175,120.893,9.788,88.313,0,0,0,2.8e4,1.35e4,19.963,0.106,NaN,2019.982,NaN,0.006,4.205e5,4.479,2.817e-6,0.742,4.678e-5,0.407,0.215,0.12,NaN,NaN,NaN,NaN,NaN,NaN,NaN,NaN,1.294e-5,165,213.825,84,0,2.149,15,1013.25,340.389,0.01,0.003
0.09,-4.759e-4,-0.095,-9.517,0.096,9.57,-5.002e-5,0,5.002e-5,180,0.01,1,22.175,120.893,9.788,88.306,0,0,0,2.8e4,1.35e4,19.963,0.106,NaN,2019.981,NaN,0.006,4.215e5,4.603,2.865e-6,0.742,4.736e-5,0.407,0.215,0.12,NaN,NaN,NaN,NaN,NaN,NaN,NaN,NaN,1.294e-5,165,213.825,84,0,2.154,15,1013.25,340.389,0.01,0.003
0.1,-4.764e-4,-0.095,-9.527,0.096,9.58,-5.007e-5,0,5.007e-5,180,0.01,1.001,22.175,120.893,9.788,88.303,0,0,0,2.8e4,1.35e4,19.963,0.106,NaN,2019.979,NaN,0.006,4.225e5,4.315,2.894e-6,0.742,4.762e-5,0.407,0.215,0.12,NaN,NaN,NaN,NaN,NaN,NaN,NaN,NaN,1.295e-5,165,213.825,84,0,2.159,15,1013.25,340.389,0.01,0.003
0.11,-4.762e-4,-0.095,-9.523,0.096,9.576,-5.005e-5,0,5.005e-5,180,0.01,1.001,22.175,120.893,9.788,88.313,0,0,0,2.8e4,1.35e4,19.963,0.106,NaN,2019.977,NaN,0.006,4.207e5,4.431,2.822e-6,0.742,4.683e-5,0.407,0.215,0.12,NaN,NaN,NaN,NaN,NaN,NaN,NaN,NaN,1.294e-5,165,213.825,84,0,2.15,15,1013.25,340.389,0.01,0.003
0.12,-4.762e-4,-0.095,-9.523,0.096,9.576,-5.005e-5,0,5.005e-5,180,0.01,1.001,22.175,120.893,9.788,88.324,0,0,0,2.8e4,1.35e4,19.962,0.106,NaN,2019.976,NaN,0.006,4.189e5,4.436,2.746e-6,0.742,4.595e-5,0.407,0.215,0.12,NaN,NaN,NaN,NaN,NaN,NaN,NaN,NaN,1.294e-5,165,213.825,84,0,2.141,15,1013.25,340.389,0.01,0.003
0.13,-4.758e-4,-0.095,-9.517,0.096,9.569,-5.001e-5,0,5.001e-5,180,0.01,1,22.175,120.893,9.788,88.333,0,0,0,2.8e4,1.35e4,19.962,0.106,NaN,2019.974,NaN,0.006,4.171e5,4.62,2.679e-6,0.743,4.522e-5,0.408,0.215,0.12,NaN,NaN,NaN,NaN,NaN,NaN,NaN,NaN,1.294e-5,165,213.825,84,0,2.132,15,1013.25,340.389,0.01,0.004
0.14,-4.762e-4,-0.095,-9.524,0.096,9.577,-5.005e-5,0,5.005e-5,180,0.01,1.001,22.175,120.893,9.788,88.346,0,0,0,2.8e4,1.35e4,19.962,0.106,NaN,2019.972,NaN,0.006,4.153e5,4.404,2.595e-6,0.743,4.418e-5,0.408,0.215,0.12,NaN,NaN,NaN,NaN,NaN,NaN,NaN,NaN,1.295e-5,165,213.825,84,0,2.123,15,1013.25,340.389,0.01,0.004
0.15,-4.761e-4,-0.095,-9.523,0.096,9.575,-5.004e-5,0,5.004e-5,180,0.01,1.001,22.175,120.893,9.788,88.357,0,0,0,2.8e4,1.35e4,19.962,0.106,NaN,2019.97,NaN,0.006,4.135e5,4.444,2.524e-6,0.744,4.335e-5,0.409,0.215,0.12,NaN,NaN,NaN,NaN,NaN,NaN,NaN,NaN,1.294e-5,165,213.825,84,0,2.113,15,1013.25,340.389,0.01,0.004
0.16,-4.758e-4,-0.095,-9.516,0.096,9.568,-5.001e-5,0,5.001e-5,180,0.01,1,22.175,120.893,9.788,88.302,0,0,0,2.8e4,1.35e4,19.962,0.106,NaN,2019.969,NaN,0.006,4.221e5,4.651,2.893e-6,0.742,4.768e-5,0.407,0.215,0.12,NaN,NaN,NaN,NaN,NaN,NaN,NaN,NaN,1.293e-5,165,213.825,84,0,2.157,15,1013.25,340.389,0.01,0.004
0.17,-4.765e-4,-0.095,-9.531,0.096,9.583,-5.009e-5,0,5.009e-5,180,0.01,1.002,22.175,120.893,9.788,88.256,0,0,0,2.8e4,1.35e4,19.962,0.106,NaN,2019.967,NaN,0.006,4.307e5,4.218,3.257e-6,0.74,5.156e-5,0.405,0.215,0.12,NaN,NaN,NaN,NaN,NaN,NaN,NaN,NaN,1.295e-5,165,213.825,84,0,2.201,15,1013.25,340.389,0.01,0.005
0.18,-4.765e-4,-0.095,-9.531,0.096,9.583,-5.009e-5,0,5.009e-5,180,0.01,1.002,22.175,120.893,9.788,88.207,0,0,0,2.8e4,1.35e4,19.962,0.106,NaN,2019.965,NaN,0.007,4.392e5,4.225,3.669e-6,0.738,5.585e-5,0.403,0.215,0.12,NaN,NaN,NaN,NaN,NaN,NaN,NaN,NaN,1.295e-5,165,213.825,84,0,2.245,15,1013.25,340.389,0.01,0.005
0.19,-4.764e-4,-0.095,-9.527,0.096,9.58,-5.007e-5,0,5.007e-5,180,0.01,1.001,22.175,120.893,9.788,88.159,0,0,0,2.8e4,1.35e4,19.962,0.106,NaN,2019.964,NaN,0.007,4.478e5,4.321,4.115e-6,0.737,6.026e-5,0.402,0.215,0.12,NaN,NaN,NaN,NaN,NaN,NaN,NaN,NaN,1.295e-5,165,213.825,84,0,2.288,15,1013.25,340.389,0.01,0.005
0.2,-4.766e-4,-0.095,-9.532,0.096,9.585,-5.01e-5,0,5.01e-5,180,0.01,1.002,22.175,120.893,9.788,88.115,0,0,0,2.8e4,1.35e4,19.962,0.106,NaN,2019.962,NaN,0.007,4.564e5,4.174,4.574e-6,0.735,6.449e-5,0.4,0.215,0.12,NaN,NaN,NaN,NaN,NaN,NaN,NaN,NaN,1.296e-5,165,213.825,84,0,2.332,15,1013.25,340.389,0.01,0.005
0.21,-4.763e-4,-0.095,-9.525,0.096,9.578,-5.006e-5,0,5.006e-5,180,0.01,1.001,22.175,120.893,9.788,88.138,0,0,0,2.8e4,1.35e4,19.962,0.106,NaN,2019.961,NaN,0.007,4.516e5,4.381,4.324e-6,0.736,6.226e-5,0.401,0.215,0.12,NaN,NaN,NaN,NaN,NaN,NaN,NaN,NaN,1.295e-5,165,213.825,84,0,2.308,15,1013.25,340.389,0.01,0.005
0.22,-4.758e-4,-0.095,-9.515,0.096,9.568,-5.001e-5,0,5.001e-5,180,0.01,1,22.175,120.893,9.788,88.161,0,0,0,2.8e4,1.35e4,19.962,0.106,NaN,2019.959,NaN,0.007,4.469e5,4.657,4.086e-6,0.737,6.009e-5,0.402,0.215,0.12,NaN,NaN,NaN,NaN,NaN,NaN,NaN,NaN,1.293e-5,165,213.825,84,0,2.284,15,1013.25,340.389,0.01,0.006
0.23,-4.762e-4,-0.095,-9.525,0.096,9.577,-5.005e-5,0,5.005e-5,180,0.01,1.001,22.175,120.893,9.788,88.189,0,0,0,2.8e4,1.35e4,19.962,0.106,NaN,2019.957,NaN,0.007,4.421e5,4.392,3.825e-6,0.738,5.746e-5,0.403,0.215,0.12,NaN,NaN,NaN,NaN,NaN,NaN,NaN,NaN,1.295e-5,165,213.825,84,0,2.26,15,1013.25,340.389,0.01,0.006
0.24,-4.76e-4,-0.095,-9.52,0.096,9.573,-5.003e-5,0,5.003e-5,180,0.01,1.001,22.175,120.893,9.788,88.214,0,0,0,2.8e4,1.35e4,19.962,0.106,NaN,2019.955,NaN,0.007,4.374e5,4.513,3.595e-6,0.739,5.518e-5,0.404,0.215,0.12,NaN,NaN,NaN,NaN,NaN,NaN,NaN,NaN,1.294e-5,165,213.825,84,0,2.235,15,1013.25,340.389,0.01,0.006
0.25,-4.759e-4,-0.095,-9.518,0.096,9.57,-5.002e-5,0,5.002e-5,180,0.01,1,22.175,120.893,9.788,88.241,0,0,0,2.8e4,1.35e4,19.962,0.106,NaN,2019.954,NaN,0.006,4.327e5,4.587,3.37e-6,0.74,5.286e-5,0.405,0.215,0.12,NaN,NaN,NaN,NaN,NaN,NaN,NaN,NaN,1.294e-5,165,213.825,84,0,2.211,15,1013.25,340.389,0.01,0.006
0.26,-4.762e-4,-0.095,-9.523,0.096,9.576,-5.005e-5,0,5.005e-5,180,0.01,1.001,22.175,120.893,9.788,88.244,0,0,0,2.8e4,1.35e4,19.962,0.106,NaN,2019.952,NaN,0.006,4.324e5,4.429,3.348e-6,0.74,5.259e-5,0.405,0.215,0.12,NaN,NaN,NaN,NaN,NaN,NaN,NaN,NaN,1.294e-5,165,213.825,84,0,2.21,15,1013.25,340.389,0.01,0.006
0.27,-4.76e-4,-0.095,-9.52,0.096,9.572,-5.003e-5,0,5.003e-5,180,0.01,1.001,22.175,120.893,9.788,88.245,0,0,0,2.8e4,1.35e4,19.962,0.106,NaN,2019.95,NaN,0.006,4.321e5,4.527,3.339e-6,0.74,5.253e-5,0.405,0.215,0.12,NaN,NaN,NaN,NaN,NaN,NaN,NaN,NaN,1.294e-5,165,213.825,84,0,2.208,15,1013.25,340.389,0.01,0.006
0.28,-4.761e-4,-0.095,-9.521,0.096,9.574,-5.004e-5,0,5.004e-5,180,0.01,1.001,22.175,120.893,9.788,88.247,0,0,0,2.8e4,1.35e4,19.962,0.106,NaN,2019.949,NaN,0.006,4.318e5,4.488,3.324e-6,0.74,5.235e-5,0.405,0.215,0.12,NaN,NaN,NaN,NaN,NaN,NaN,NaN,NaN,1.294e-5,165,213.825,84,0,2.207,15,1013.25,340.389,0.01,0.007
0.29,-4.758e-4,-0.095,-9.517,0.096,9.569,-5.001e-5,0,5.001e-5,180,0.01,1,22.175,120.893,9.788,88.247,0,0,0,2.8e4,1.35e4,19.962,0.106,NaN,2019.947,NaN,0.006,4.315e5,4.616,3.317e-6,0.74,5.232e-5,0.405,0.215,0.12,NaN,NaN,NaN,NaN,NaN,NaN,NaN,NaN,1.294e-5,165,213.825,84,0,2.205,15,1013.25,340.389,0.01,0.007
0.3,-4.76e-4,-0.095,-9.519,0.096,9.572,-5.003e-5,0,5.003e-5,180,0.01,1.001,22.175,120.893,9.788,88.249,0,0,0,2.8e4,1.35e4,19.962,0.106,NaN,2019.945,NaN,0.006,4.312e5,4.548,3.3e-6,0.74,5.212e-5,0.405,0.215,0.12,NaN,NaN,NaN,NaN,NaN,NaN,NaN,NaN,1.294e-5,165,213.825,84,0,2.204,15,1013.25,340.389,0.01,0.007
0.31,-4.757e-4,-0.095,-9.514,0.096,9.566,-5e-5,0,5e-5,180,0.01,1,22.175,120.893,9.788,88.266,0,0,0,2.8e4,1.35e4,19.962,0.106,NaN,2019.943,NaN,0.006,4.282e5,4.706,3.167e-6,0.741,5.073e-5,0.405,0.215,0.12,NaN,NaN,NaN,NaN,NaN,NaN,NaN,NaN,1.293e-5,165,213.825,84,0,2.188,15,1013.25,340.389,0.01,0.007
0.32,-4.763e-4,-0.095,-9.527,0.096,9.579,-5.007e-5,0,5.007e-5,180,0.01,1.001,22.175,120.893,9.788,88.287,0,0,0,2.8e4,1.35e4,19.962,0.106,NaN,2019.942,NaN,0.006,4.251e5,4.332,3.01e-6,0.741,4.891e-5,0.406,0.215,0.12,NaN,NaN,NaN,NaN,NaN,NaN,NaN,NaN,1.295e-5,165,213.825,84,0,2.173,15,1013.25,340.389,0.01,0.007
0.33,-4.761e-4,-0.095,-9.521,0.096,9.574,-5.004e-5,0,5.004e-5,180,0.01,1.001,22.175,120.893,9.788,88.304,0,0,0,2.8e4,1.35e4,19.962,0.106,NaN,2019.94,NaN,0.006,4.221e5,4.483,2.883e-6,0.742,4.753e-5,0.407,0.215,0.12,NaN,NaN,NaN,NaN,NaN,NaN,NaN,NaN,1.294e-5,165,213.825,84,0,2.157,15,1013.25,340.389,0.01,0.007
0.34,-4.759e-4,-0.095,-9.518,0.096,9.571,-5.002e-5,0,5.002e-5,180,0.01,1,22.175,120.893,9.788,88.322,0,0,0,2.8e4,1.35e4,19.962,0.106,NaN,2019.938,NaN,0.006,4.19e5,4.57,2.756e-6,0.742,4.61e-5,0.407,0.215,0.12,NaN,NaN,NaN,NaN,NaN,NaN,NaN,NaN,1.294e-5,165,213.825,84,0,2.141,15,1013.25,340.389,0.01,0.008
0.35,-4.762e-4,-0.095,-9.524,0.096,9.576,-5.005e-5,0,5.005e-5,180,0.01,1.001,22.175,120.893,9.788,88.342,0,0,0,2.8e4,1.35e4,19.962,0.106,NaN,2019.936,NaN,0.006,4.159e5,4.419,2.621e-6,0.743,4.449e-5,0.408,0.215,0.12,NaN,NaN,NaN,NaN,NaN,NaN,NaN,NaN,1.294e-5,165,213.825,84,0,2.126,15,1013.25,340.389,0.01,0.008
0.36,-4.764e-4,-0.095,-9.527,0.096,9.58,-5.007e-5,0,5.007e-5,180,0.01,1.001,22.175,120.893,9.788,88.332,0,0,0,2.8e4,1.35e4,19.962,0.106,NaN,2019.935,NaN,0.006,4.178e5,4.317,2.693e-6,0.743,4.531e-5,0.408,0.215,0.12,NaN,NaN,NaN,NaN,NaN,NaN,NaN,NaN,1.295e-5,165,213.825,84,0,2.135,15,1013.25,340.389,0.01,0.008
0.37,-4.76e-4,-0.095,-9.52,0.096,9.573,-5.003e-5,0,5.003e-5,180,0.01,1.001,22.175,120.893,9.788,88.318,0,0,0,2.8e4,1.35e4,19.962,0.106,NaN,2019.933,NaN,0.006,4.196e5,4.522,2.781e-6,0.742,4.637e-5,0.407,0.215,0.12,NaN,NaN,NaN,NaN,NaN,NaN,NaN,NaN,1.294e-5,165,213.825,84,0,2.145,15,1013.25,340.389,0.01,0.008
0.38,-4.762e-4,-0.095,-9.523,0.096,9.576,-5.005e-5,0,5.005e-5,180,0.01,1.001,22.175,120.893,9.788,88.308,0,0,0,2.8e4,1.35e4,19.962,0.106,NaN,2019.931,NaN,0.006,4.215e5,4.433,2.856e-6,0.742,4.721e-5,0.407,0.215,0.12,NaN,NaN,NaN,NaN,NaN,NaN,NaN,NaN,1.294e-5,165,213.825,84,0,2.154,15,1013.25,340.389,0.01,0.008
0.39,-4.757e-4,-0.095,-9.515,0.096,9.567,-5e-5,0,5e-5,180,0.01,1,22.175,120.893,9.788,88.295,0,0,0,2.8e4,1.35e4,19.962,0.106,NaN,2019.93,NaN,0.006,4.233e5,4.673,2.948e-6,0.742,4.831e-5,0.406,0.215,0.12,NaN,NaN,NaN,NaN,NaN,NaN,NaN,NaN,1.293e-5,165,213.825,84,0,2.164,15,1013.25,340.389,0.01,0.009
0.4,-4.755e-4,-0.095,-9.51,0.096,9.562,-4.998e-5,0,4.998e-5,180,0.01,1,22.175,120.893,9.788,88.282,0,0,0,2.8e4,1.35e4,19.962,0.106,NaN,2019.928,NaN,0.006,4.252e5,4.812,3.037e-6,0.741,4.933e-5,0.406,0.215,0.12,NaN,NaN,NaN,NaN,NaN,NaN,NaN,NaN,1.293e-5,165,213.825,84,0,2.173,15,1013.25,340.389,0.01,0.009
0.41,-4.759e-4,-0.095,-9.518,0.096,9.57,-5.002e-5,0,5.002e-5,180,0.01,1,22.175,120.893,9.788,88.257,0,0,0,2.8e4,1.35e4,19.962,0.106,NaN,2019.926,NaN,0.006,4.298e5,4.595,3.237e-6,0.74,5.146e-5,0.405,0.215,0.12,NaN,NaN,NaN,NaN,NaN,NaN,NaN,NaN,1.294e-5,165,213.825,84,0,2.197,15,1013.25,340.389,0.01,0.009
0.42,-4.758e-4,-0.095,-9.516,0.096,9.568,-5.001e-5,0,5.001e-5,180,0.01,1,22.175,120.893,9.788,88.23,0,0,0,2.8e4,1.35e4,19.962,0.106,NaN,2019.924,NaN,0.007,4.345e5,4.638,3.459e-6,0.739,5.381e-5,0.404,0.215,0.12,NaN,NaN,NaN,NaN,NaN,NaN,NaN,NaN,1.293e-5,165,213.825,84,0,2.22,15,1013.25,340.389,0.01,0.009
0.43,-4.755e-4,-0.095,-9.51,0.096,9.562,-4.998e-5,0,4.998e-5,180,0.01,1,22.175,120.893,9.788,88.202,0,0,0,2.8e4,1.35e4,19.962,0.106,NaN,2019.922,NaN,0.007,4.391e5,4.811,3.696e-6,0.738,5.629e-5,0.403,0.215,0.12,NaN,NaN,NaN,NaN,NaN,NaN,NaN,NaN,1.293e-5,165,213.825,84,0,2.244,15,1013.25,340.389,0.01,0.009
0.44,-4.753e-4,-0.095,-9.506,0.096,9.558,-4.996e-5,0,4.996e-5,180,0.01,0.999,22.175,120.893,9.788,88.176,0,0,0,2.8e4,1.35e4,19.962,0.106,NaN,2019.921,NaN,0.007,4.438e5,4.919,3.938e-6,0.737,5.873e-5,0.402,0.215,0.12,NaN,NaN,NaN,NaN,NaN,NaN,NaN,NaN,1.292e-5,165,213.825,84,0,2.268,15,1013.25,340.389,0.01,0.009
0.45,-4.759e-4,-0.095,-9.518,0.096,9.57,-5.002e-5,0,5.002e-5,180,0.01,1,22.175,120.893,9.788,88.154,0,0,0,2.8e4,1.35e4,19.961,0.106,NaN,2019.919,NaN,0.007,4.484e5,4.583,4.162e-6,0.737,6.079e-5,0.401,0.215,0.12,NaN,NaN,NaN,NaN,NaN,NaN,NaN,NaN,1.294e-5,165,213.825,84,0,2.292,15,1013.25,340.389,0.01,0.01
0.46,-4.762e-4,-0.095,-9.523,0.096,9.576,-5.005e-5,0,5.005e-5,180,0.01,1.001,22.175,120.893,9.788,88.178,0,0,0,2.8e4,1.35e4,19.961,0.106,NaN,2019.917,NaN,0.007,4.441e5,4.429,3.928e-6,0.737,5.849e-5,0.402,0.215,0.12,NaN,NaN,NaN,NaN,NaN,NaN,NaN,NaN,1.294e-5,165,213.825,84,0,2.27,15,1013.25,340.389,0.01,0.01
0.47,-4.761e-4,-0.095,-9.523,0.096,9.575,-5.004e-5,0,5.004e-5,180,0.01,1.001,22.175,120.893,9.788,88.201,0,0,0,2.8e4,1.35e4,19.961,0.106,NaN,2019.915,NaN,0.007,4.398e5,4.45,3.712e-6,0.738,5.635e-5,0.403,0.215,0.12,NaN,NaN,NaN,NaN,NaN,NaN,NaN,NaN,1.294e-5,165,213.825,84,0,2.248,15,1013.25,340.389,0.01,0.01
0.48,-4.753e-4,-0.095,-9.507,0.096,9.559,-4.996e-5,0,4.996e-5,180,0.01,0.999,22.175,120.893,9.788,88.221,0,0,0,2.8e4,1.35e4,19.961,0.106,NaN,2019.914,NaN,0.007,4.356e5,4.905,3.526e-6,0.739,5.458e-5,0.404,0.215,0.12,NaN,NaN,NaN,NaN,NaN,NaN,NaN,NaN,1.292e-5,165,213.825,84,0,2.226,15,1013.25,340.389,0.01,0.01
0.49,-4.756e-4,-0.095,-9.512,0.096,9.565,-4.999e-5,0,4.999e-5,180,0.01,1,22.175,120.893,9.788,88.247,0,0,0,2.8e4,1.35e4,19.961,0.106,NaN,2019.912,NaN,0.006,4.313e5,4.746,3.312e-6,0.74,5.23e-5,0.405,0.215,0.12,NaN,NaN,NaN,NaN,NaN,NaN,NaN,NaN,1.293e-5,165,213.825,84,0,2.204,15,1013.25,340.389,0.01,0.01
0.5,-4.761e-4,-0.095,-9.522,0.096,9.574,-5.004e-5,0,5.004e-5,180,0.01,1.001,22.175,120.893,9.788,88.275,0,0,0,2.8e4,1.35e4,19.961,0.106,NaN,2019.91,NaN,0.006,4.27e5,4.47,3.101e-6,0.741,4.995e-5,0.406,0.215,0.12,NaN,NaN,NaN,NaN,NaN,NaN,NaN,NaN,1.294e-5,165,213.825,84,0,2.182,15,1013.25,340.389,0.01,0.01
0.51,-4.758e-4,-0.095,-9.515,0.096,9.568,-5.001e-5,0,5.001e-5,180,0.01,1,22.175,120.893,9.788,88.256,0,0,0,2.8e4,1.35e4,19.961,0.106,NaN,2019.908,NaN,0.006,4.299e5,4.657,3.242e-6,0.74,5.153e-5,0.405,0.215,0.12,NaN,NaN,NaN,NaN,NaN,NaN,NaN,NaN,1.293e-5,165,213.825,84,0,2.197,15,1013.25,340.389,0.01,0.011
0.52,-4.75e-4,-0.095,-9.499,0.096,9.551,-4.992e-5,0,4.992e-5,180,0.01,0.998,22.175,120.893,9.788,88.235,0,0,0,2.8e4,1.35e4,19.961,0.106,NaN,2019.906,NaN,0.006,4.328e5,5.115,3.402e-6,0.74,5.335e-5,0.405,0.215,0.12,NaN,NaN,NaN,NaN,NaN,NaN,NaN,NaN,1.291e-5,165,213.825,84,0,2.212,15,1013.25,340.389,0.01,0.011
0.53,-4.746e-4,-0.095,-9.491,0.095,9.543,-4.988e-5,0,4.988e-5,180,0.01,0.998,22.175,120.893,9.788,88.217,0,0,0,2.8e4,1.35e4,19.961,0.106,NaN,2019.904,NaN,0.007,4.356e5,5.339,3.553e-6,0.739,5.498e-5,0.404,0.215,0.12,NaN,NaN,NaN,NaN,NaN,NaN,NaN,NaN,1.29e-5,165,213.825,84,0,2.226,15,1013.25,340.389,0.01,0.011
0.54,-4.758e-4,-0.095,-9.516,0.096,9.568,-5.001e-5,0,5.001e-5,180,0.01,1,22.175,120.893,9.788,88.207,0,0,0,2.8e4,1.35e4,19.961,0.106,NaN,2019.903,NaN,0.007,4.385e5,4.638,3.656e-6,0.738,5.584e-5,0.403,0.215,0.12,NaN,NaN,NaN,NaN,NaN,NaN,NaN,NaN,1.293e-5,165,213.825,84,0,2.241,15,1013.25,340.389,0.01,0.011
0.55,-4.755e-4,-0.095,-9.509,0.096,9.562,-4.997e-5,0,4.997e-5,180,0.01,0.999,22.175,120.893,9.788,88.189,0,0,0,2.8e4,1.35e4,19.961,0.106,NaN,2019.901,NaN,0.007,4.414e5,4.82,3.811e-6,0.738,5.745e-5,0.403,0.215,0.12,NaN,NaN,NaN,NaN,NaN,NaN,NaN,NaN,1.293e-5,165,213.825,84,0,2.256,15,1013.25,340.389,0.01,0.011
0.56,-4.749e-4,-0.095,-9.498,0.096,9.55,-4.991e-5,0,4.991e-5,180,0.01,0.998,22.175,120.893,9.788,88.175,0,0,0,2.8e4,1.35e4,19.961,0.106,NaN,2019.899,NaN,0.007,4.436e5,5.14,3.942e-6,0.737,5.883e-5,0.402,0.215,0.12,NaN,NaN,NaN,NaN,NaN,NaN,NaN,NaN,1.291e-5,165,213.825,84,0,2.267,15,1013.25,340.389,0.01,0.012
0.57,-4.749e-4,-0.095,-9.497,0.095,9.55,-4.991e-5,0,4.991e-5,180,0.01,0.998,22.175,120.893,9.788,88.163,0,0,0,2.8e4,1.35e4,19.961,0.106,NaN,2019.897,NaN,0.007,4.458e5,5.164,4.057e-6,0.737,5.996e-5,0.402,0.215,0.12,NaN,NaN,NaN,NaN,NaN,NaN,NaN,NaN,1.291e-5,165,213.825,84,0,2.278,15,1013.25,340.389,0.01,0.012
0.58,-4.749e-4,-0.095,-9.499,0.096,9.551,-4.992e-5,0,4.992e-5,180,0.01,0.998,22.175,120.893,9.788,88.151,0,0,0,2.8e4,1.35e4,19.961,0.106,NaN,2019.895,NaN,0.007,4.479e5,5.125,4.17e-6,0.737,6.103e-5,0.402,0.215,0.12,NaN,NaN,NaN,NaN,NaN,NaN,NaN,NaN,1.291e-5,165,213.825,84,0,2.289,15,1013.25,340.389,0.01,0.012
0.59,-4.746e-4,-0.095,-9.493,0.095,9.545,-4.989e-5,0,4.989e-5,180,0.01,0.998,22.175,120.893,9.788,88.138,0,0,0,2.8e4,1.35e4,19.961,0.106,NaN,2019.893,NaN,0.007,4.501e5,5.296,4.298e-6,0.736,6.23e-5,0.401,0.215,0.12,NaN,NaN,NaN,NaN,NaN,NaN,NaN,NaN,1.29e-5,165,213.825,84,0,2.3,15,1013.25,340.389,0.01,0.012
0.6,-4.741e-4,-0.095,-9.483,0.095,9.535,-4.984e-5,0,4.984e-5,180,0.01,0.997,22.175,120.893,9.788,88.124,0,0,0,2.8e4,1.349e4,19.961,0.106,NaN,2019.891,NaN,0.007,4.523e5,5.567,4.434e-6,0.736,6.366e-5,0.401,0.215,0.12,NaN,NaN,NaN,NaN,NaN,NaN,NaN,NaN,1.289e-5,165,213.825,84,0,2.311,15,1013.25,340.389,0.01,0.012
0.61,-4.739e-4,-0.095,-9.478,0.095,9.53,-4.981e-5,0,4.981e-5,180,0.01,0.996,22.175,120.893,9.788,88.129,0,0,0,2.8e4,1.349e4,19.961,0.106,NaN,2019.889,NaN,0.007,4.511e5,5.717,4.38e-6,0.736,6.319e-5,0.401,0.215,0.12,NaN,NaN,NaN,NaN,NaN,NaN,NaN,NaN,1.288e-5,165,213.825,84,0,2.305,15,1013.25,340.389,0.01,0.012
0.62,-4.745e-4,-0.095,-9.49,0.095,9.542,-4.987e-5,0,4.987e-5,180,0.01,0.997,22.175,120.893,9.788,88.138,0,0,0,2.8e4,1.349e4,19.961,0.106,NaN,2019.887,NaN,0.007,4.5e5,5.366,4.295e-6,0.736,6.229e-5,0.401,0.215,0.12,NaN,NaN,NaN,NaN,NaN,NaN,NaN,NaN,1.29e-5,165,213.825,84,0,2.3,15,1013.25,340.389,0.01,0.013
0.63,-4.737e-4,-0.095,-9.473,0.095,9.525,-4.978e-5,0,4.978e-5,180,0.01,0.996,22.175,120.893,9.788,88.14,0,0,0,2.799e4,1.349e4,19.961,0.106,NaN,2019.884,NaN,0.007,4.488e5,5.844,4.261e-6,0.736,6.212e-5,0.401,0.215,0.12,NaN,NaN,NaN,NaN,NaN,NaN,NaN,NaN,1.288e-5,165,213.825,84,0,2.294,15,1013.25,340.389,0.01,0.013
0.64,-4.738e-4,-0.095,-9.475,0.095,9.527,-4.979e-5,0,4.979e-5,180,0.01,0.996,22.175,120.893,9.788,88.147,0,0,0,2.799e4,1.349e4,19.961,0.106,NaN,2019.882,NaN,0.007,4.477e5,5.786,4.195e-6,0.737,6.147e-5,0.402,0.215,0.12,NaN,NaN,NaN,NaN,NaN,NaN,NaN,NaN,1.288e-5,165,213.825,84,0,2.288,15,1013.25,340.389,0.01,0.013
0.65,-4.734e-4,-0.095,-9.469,0.095,9.521,-4.976e-5,0,4.976e-5,180,0.01,0.995,22.175,120.893,9.788,88.151,0,0,0,2.799e4,1.349e4,19.961,0.106,NaN,2019.88,NaN,0.007,4.465e5,5.968,4.144e-6,0.737,6.104e-5,0.402,0.215,0.12,NaN,NaN,NaN,NaN,NaN,NaN,NaN,NaN,1.287e-5,165,213.825,84,0,2.282,15,1013.25,340.389,0.01,0.013
0.66,-4.724e-4,-0.094,-9.448,0.095,9.5,-4.965e-5,0,4.965e-5,180,0.01,0.993,22.175,120.893,9.788,88.203,0,0,0,2.799e4,1.349e4,19.961,0.106,NaN,2019.877,NaN,0.007,4.361e5,6.551,3.644e-6,0.739,5.627e-5,0.404,0.215,0.12,NaN,NaN,NaN,NaN,NaN,NaN,NaN,NaN,1.284e-5,165,213.825,84,0,2.229,15,1013.25,340.389,0.01,0.013
0.67,-4.721e-4,-0.094,-9.442,0.095,9.494,-4.962e-5,0,4.962e-5,180,0.01,0.992,22.175,120.893,9.788,88.261,0,0,0,2.799e4,1.349e4,19.961,0.106,NaN,2019.875,NaN,0.006,4.258e5,6.72,3.159e-6,0.741,5.118e-5,0.406,0.215,0.12,NaN,NaN,NaN,NaN,NaN,NaN,NaN,NaN,1.283e-5,165,213.825,84,0,2.176,15,1013.25,340.389,0.01,0.013
0.68,-4.711e-4,-0.094,-9.421,0.095,9.473,-4.951e-5,0,4.951e-5,180,0.01,0.99,22.175,120.893,9.788,88.318,0,0,0,2.799e4,1.349e4,19.961,0.106,NaN,2019.872,NaN,0.006,4.154e5,7.299,2.732e-6,0.743,4.649e-5,0.408,0.215,0.12,NaN,NaN,NaN,NaN,NaN,NaN,NaN,NaN,1.281e-5,165,213.825,84,0,2.123,15,1013.25,340.389,0.01,0.014
0.69,-4.708e-4,-0.094,-9.415,0.095,9.467,-4.948e-5,0,4.948e-5,180,0.01,0.99,22.175,120.893,9.788,88.381,0,0,0,2.799e4,1.349e4,19.961,0.106,NaN,2019.869,NaN,0.006,4.05e5,7.467,2.321e-6,0.745,4.155e-5,0.41,0.215,0.12,NaN,NaN,NaN,NaN,NaN,NaN,NaN,NaN,1.28e-5,165,213.825,84,0,2.07,15,1013.25,340.389,0.01,0.014
0.7,-4.699e-4,-0.094,-9.398,0.095,9.45,-4.939e-5,0,4.939e-5,180,0.01,0.988,22.175,120.893,9.788,88.445,0,0,0,2.799e4,1.349e4,19.961,0.106,NaN,2019.866,NaN,0.006,3.947e5,7.951,1.96e-6,0.748,3.696e-5,0.413,0.215,0.12,NaN,NaN,NaN,NaN,NaN,NaN,NaN,NaN,1.277e-5,165,213.825,84,0,2.017,15,1013.25,340.389,0.01,0.014
0.71,-4.682e-4,-0.094,-9.363,0.094,9.415,-4.921e-5,0,4.921e-5,180,0.01,0.984,22.175,120.893,9.788,88.401,0,0,0,2.799e4,1.349e4,19.96,0.106,NaN,2019.863,NaN,0.006,3.998e5,8.938,2.184e-6,0.747,4.013e-5,0.412,0.215,0.12,NaN,NaN,NaN,NaN,NaN,NaN,NaN,NaN,1.273e-5,165,213.825,84,0,2.043,15,1013.25,340.389,0.01,0.014
0.72,-4.676e-4,-0.094,-9.352,0.094,9.403,-4.915e-5,0,4.915e-5,180,0.01,0.983,22.175,120.893,9.788,88.364,0,0,0,2.799e4,1.349e4,19.96,0.106,NaN,2019.859,NaN,0.006,4.049e5,9.255,2.393e-6,0.746,4.287e-5,0.41,0.215,0.12,NaN,NaN,NaN,NaN,NaN,NaN,NaN,NaN,1.271e-5,165,213.825,84,0,2.07,15,1013.25,340.389,0.01,0.014
0.73,-4.659e-4,-0.093,-9.319,0.094,9.37,-4.897e-5,0,4.897e-5,180,0.01,0.979,22.175,120.893,9.788,88.323,0,0,0,2.799e4,1.349e4,19.96,0.106,NaN,2019.855,NaN,0.006,4.101e5,10.185,2.642e-6,0.744,4.614e-5,0.409,0.215,0.12,NaN,NaN,NaN,NaN,NaN,NaN,NaN,NaN,1.267e-5,165,213.825,84,0,2.096,15,1013.25,340.389,0.01,0.015
0.74,-4.64e-4,-0.093,-9.28,0.093,9.331,-4.877e-5,0,4.877e-5,180,0.01,0.975,22.175,120.893,9.788,88.281,0,0,0,2.799e4,1.349e4,19.96,0.106,NaN,2019.851,NaN,0.006,4.152e5,11.275,2.912e-6,0.743,4.961e-5,0.408,0.215,0.12,NaN,NaN,NaN,NaN,NaN,NaN,NaN,NaN,1.261e-5,165,213.825,84,0,2.122,15,1013.25,340.389,0.01,0.015
0.75,-4.621e-4,-0.092,-9.243,0.093,9.294,-4.857e-5,0,4.857e-5,180,0.01,0.971,22.175,120.893,9.788,88.24,0,0,0,2.799e4,1.349e4,19.96,0.106,NaN,2019.846,NaN,0.006,4.203e5,12.322,3.196e-6,0.742,5.312e-5,0.407,0.215,0.12,NaN,NaN,NaN,NaN,NaN,NaN,NaN,NaN,1.256e-5,165,213.825,84,0,2.148,15,1013.25,340.389,0.01,0.015
0.76,-4.598e-4,-0.092,-9.195,0.092,9.246,-4.832e-5,0,4.832e-5,180,0.01,0.966,22.175,120.893,9.788,88.198,0,0,0,2.799e4,1.349e4,19.96,0.106,NaN,2019.841,NaN,0.006,4.254e5,13.663,3.507e-6,0.741,5.692e-5,0.406,0.215,0.12,NaN,NaN,NaN,NaN,NaN,NaN,NaN,NaN,1.25e-5,165,213.825,84,0,2.174,15,1013.25,340.389,0.01,0.015
0.77,-4.586e-4,-0.092,-9.173,0.092,9.223,-4.82e-5,0,4.82e-5,180,0.01,0.964,22.175,120.893,9.788,88.163,0,0,0,2.799e4,1.349e4,19.96,0.106,NaN,2019.836,NaN,0.006,4.304e5,14.302,3.794e-6,0.74,6.014e-5,0.405,0.215,0.12,NaN,NaN,NaN,NaN,NaN,NaN,NaN,NaN,1.247e-5,165,213.825,84,0,2.2,15,1013.25,340.389,0.01,0.015
0.78,-4.56e-4,-0.091,-9.12,0.092,9.171,-4.793e-5,0,4.793e-5,180,0.01,0.959,22.175,120.893,9.788,88.122,0,0,0,2.799e4,1.349e4,19.96,0.106,NaN,2019.83,NaN,0.007,4.354e5,15.77,4.144e-6,0.739,6.418e-5,0.404,0.215,0.12,NaN,NaN,NaN,NaN,NaN,NaN,NaN,NaN,1.24e-5,165,213.825,84,0,2.225,15,1013.25,340.389,0.01,0.015
0.79,-4.54e-4,-0.091,-9.079,0.091,9.129,-4.771e-5,0,4.771e-5,180,0.01,0.954,22.175,120.893,9.788,88.084,0,0,0,2.799e4,1.349e4,19.96,0.106,NaN,2019.823,NaN,0.007,4.405e5,16.927,4.492e-6,0.738,6.799e-5,0.403,0.215,0.12,NaN,NaN,NaN,NaN,NaN,NaN,NaN,NaN,1.234e-5,165,213.825,84,0,2.251,15,1013.25,340.389,0.01,0.016
0.8,-4.518e-4,-0.09,-9.037,0.091,9.087,-4.749e-5,0,4.749e-5,180,0.009,0.95,22.175,120.893,9.788,88.047,0,0,0,2.799e4,1.349e4,19.96,0.106,NaN,2019.816,NaN,0.007,4.455e5,18.121,4.859e-6,0.737,7.189e-5,0.402,0.215,0.12,NaN,NaN,NaN,NaN,NaN,NaN,NaN,NaN,1.228e-5,165,213.825,84,0,2.277,15,1013.25,340.389,0.01,0.016
0.81,-4.495e-4,-0.09,-8.99,0.09,9.04,-4.725e-5,0,4.725e-5,180,0.009,0.945,22.175,120.893,9.788,88.031,0,0,0,2.799e4,1.349e4,19.96,0.106,NaN,2019.809,NaN,0.007,4.463e5,19.438,4.995e-6,0.737,7.363e-5,0.402,0.215,0.12,NaN,NaN,NaN,NaN,NaN,NaN,NaN,NaN,1.222e-5,165,213.825,84,0,2.281,15,1013.25,340.389,0.01,0.016
0.82,-4.482e-4,-0.09,-8.965,0.09,9.014,-4.711e-5,0,4.711e-5,180,0.009,0.942,22.175,120.893,9.788,88.021,0,0,0,2.799e4,1.349e4,19.959,0.106,NaN,2019.801,NaN,0.007,4.471e5,20.155,5.091e-6,0.737,7.478e-5,0.402,0.215,0.12,NaN,NaN,NaN,NaN,NaN,NaN,NaN,NaN,1.218e-5,165,213.825,84,0,2.285,15,1013.25,340.389,0.01,0.016
0.83,-4.434e-4,-0.089,-8.867,0.089,8.916,-4.66e-5,0,4.66e-5,180,0.009,0.932,22.175,120.893,9.788,87.992,0,0,0,2.799e4,1.349e4,19.959,0.106,NaN,2019.793,NaN,0.007,4.479e5,22.899,5.331e-6,0.737,7.803e-5,0.402,0.215,0.12,NaN,NaN,NaN,NaN,NaN,NaN,NaN,NaN,1.205e-5,165,213.825,84,0,2.289,15,1013.25,340.389,0.01,0.016
0.84,-4.345e-4,-0.087,-8.69,0.087,8.738,-4.567e-5,0,4.567e-5,180,0.009,0.913,22.175,120.893,9.788,87.944,0,0,0,2.799e4,1.349e4,19.959,0.106,NaN,2019.782,NaN,0.007,4.487e5,27.886,5.743e-6,0.736,8.376e-5,0.401,0.215,0.12,NaN,NaN,NaN,NaN,NaN,NaN,NaN,NaN,1.181e-5,165,213.825,84,0,2.293,15,1013.25,340.389,0.01,0.016
0.85,-4.271e-4,-0.085,-8.542,0.086,8.589,-4.489e-5,0,4.489e-5,180,0.009,0.898,22.175,120.893,9.788,87.903,0,0,0,2.799e4,1.349e4,19.959,0.106,NaN,2019.77,NaN,0.007,4.495e5,32.036,6.11e-6,0.736,8.88e-5,0.401,0.215,0.12,NaN,NaN,NaN,NaN,NaN,NaN,NaN,NaN,1.161e-5,165,213.825,84,0,2.297,15,1013.25,340.389,0.01,0.017
0.86,-4.194e-4,-0.084,-8.388,0.084,8.434,-4.408e-5,0,4.408e-5,180,0.009,0.882,22.175,120.893,9.788,87.878,0,0,0,2.799e4,1.349e4,19.959,0.106,NaN,2019.756,NaN,0.007,4.467e5,36.392,6.257e-6,0.737,9.211e-5,0.402,0.215,0.12,NaN,NaN,NaN,NaN,NaN,NaN,NaN,NaN,1.14e-5,165,213.825,84,0,2.282,15,1013.25,340.389,0.01,0.017
0.87,-4.119e-4,-0.082,-8.239,0.083,8.284,-4.33e-5,0,4.33e-5,180,0.009,0.866,22.175,120.893,9.788,87.853,0,0,0,2.799e4,1.349e4,19.958,0.106,NaN,2019.74,NaN,0.007,4.438e5,40.581,6.394e-6,0.737,9.534e-5,0.402,0.215,0.12,NaN,NaN,NaN,NaN,NaN,NaN,NaN,NaN,1.12e-5,165,213.825,84,0,2.268,15,1013.25,340.389,0.01,0.017
0.88,-4.047e-4,-0.081,-8.093,0.081,8.138,-4.253e-5,0,4.253e-5,180,0.009,0.851,22.175,120.893,9.788,87.83,0,0,0,2.799e4,1.349e4,19.958,0.106,NaN,2019.723,NaN,0.007,4.409e5,44.682,6.527e-6,0.738,9.859e-5,0.403,0.215,0.12,NaN,NaN,NaN,NaN,NaN,NaN,NaN,NaN,1.1e-5,165,213.825,84,0,2.253,15,1013.25,340.389,0.01,0.017
0.89,-3.982e-4,-0.08,-7.965,0.08,8.008,-4.186e-5,0,4.186e-5,180,0.008,0.837,22.175,120.893,9.788,87.81,0,0,0,2.799e4,1.349e4,19.958,0.106,NaN,2019.705,NaN,0.007,4.381e5,48.294,6.622e-6,0.739,1.013e-4,0.403,0.215,0.12,NaN,NaN,NaN,NaN,NaN,NaN,NaN,NaN,1.083e-5,165,213.825,84,0,2.238,15,1013.25,340.389,0.01,0.017
0.9,-3.921e-4,-0.078,-7.842,0.079,7.885,-4.121e-5,0,4.121e-5,180,0.008,0.824,22.175,120.893,9.788,87.792,0,0,0,2.799e4,1.349e4,19.957,0.106,NaN,2019.685,NaN,0.007,4.352e5,51.752,6.705e-6,0.739,1.04e-4,0.404,0.215,0.12,NaN,NaN,NaN,NaN,NaN,NaN,NaN,NaN,1.066e-5,165,213.825,84,0,2.224,15,1013.25,340.389,0.01,0.018
0.91,-3.84e-4,-0.077,-7.679,0.077,7.722,-4.036e-5,0,4.036e-5,180,0.008,0.807,22.175,120.893,9.788,87.738,0,0,0,2.798e4,1.348e4,19.957,0.106,NaN,2019.664,NaN,0.007,4.379e5,56.319,7.289e-6,0.739,1.117e-4,0.404,0.215,0.12,NaN,NaN,NaN,NaN,NaN,NaN,NaN,NaN,1.044e-5,165,213.825,84,0,2.237,15,1013.25,340.389,0.01,0.018
0.92,-3.761e-4,-0.075,-7.522,0.076,7.563,-3.953e-5,0,3.953e-5,180,0.008,0.791,22.175,120.893,9.788,87.686,0,0,0,2.798e4,1.348e4,19.957,0.106,NaN,2019.641,NaN,0.007,4.405e5,60.748,7.89e-6,0.738,1.194e-4,0.403,0.215,0.12,NaN,NaN,NaN,NaN,NaN,NaN,NaN,NaN,1.022e-5,165,213.825,84,0,2.251,15,1013.25,340.389,0.01,0.018
0.93,-3.643e-4,-0.073,-7.286,0.073,7.326,-3.829e-5,0,3.829e-5,180,0.008,0.766,22.175,120.893,9.788,87.614,0,0,0,2.798e4,1.348e4,19.956,0.106,NaN,2019.615,NaN,0.007,4.432e5,67.387,8.737e-6,0.738,1.306e-4,0.402,0.215,0.12,NaN,NaN,NaN,NaN,NaN,NaN,NaN,NaN,9.903e-6,165,213.825,84,0,2.264,15,1013.25,340.389,0.01,0.018
0.94,-3.499e-4,-0.07,-6.999,0.07,7.037,-3.678e-5,0,3.678e-5,180,0.007,0.736,22.175,120.893,9.788,87.53,0,0,0,2.798e4,1.348e4,19.956,0.106,NaN,2019.586,NaN,0.007,4.458e5,75.455,9.789e-6,0.737,1.446e-4,0.402,0.215,0.12,NaN,NaN,NaN,NaN,NaN,NaN,NaN,NaN,9.513e-6,165,213.825,84,0,2.277,15,1013.25,340.389,0.01,0.018
0.95,-3.337e-4,-0.067,-6.674,0.067,6.71,-3.507e-5,0,3.507e-5,180,0.007,0.701,22.175,120.893,9.788,87.438,0,0,0,2.798e4,1.348e4,19.955,0.106,NaN,2019.554,NaN,0.007,4.485e5,84.603,1.104e-5,0.737,1.612e-4,0.401,0.215,0.12,NaN,NaN,NaN,NaN,NaN,NaN,NaN,NaN,9.071e-6,165,213.825,84,0,2.291,15,1013.25,340.389,0.01,0.018
0.96,-3.135e-4,-0.063,-6.271,0.063,6.305,-3.295e-5,0,3.295e-5,180,0.007,0.659,22.175,120.893,9.788,87.334,0,0,0,2.798e4,1.348e4,19.954,0.106,NaN,2019.517,NaN,0.007,4.492e5,95.934,1.246e-5,0.736,1.814e-4,0.401,0.215,0.12,NaN,NaN,NaN,NaN,NaN,NaN,NaN,NaN,8.523e-6,165,213.825,84,0,2.294,15,1013.25,340.389,0.01,0.019
0.97,-2.933e-4,-0.059,-5.865,0.059,5.898,-3.082e-5,0,3.082e-5,180,0.006,0.616,22.175,120.893,9.788,87.23,0,0,0,2.798e4,1.348e4,19.954,0.106,NaN,2019.476,NaN,0.007,4.5e5,107.326,1.401e-5,0.736,2.032e-4,0.401,0.215,0.12,NaN,NaN,NaN,NaN,NaN,NaN,NaN,NaN,7.972e-6,165,213.825,84,0,2.298,15,1013.25,340.389,0.01,0.019
0.98,-2.671e-4,-0.053,-5.342,0.054,5.372,-2.808e-5,0,2.808e-5,180,0.006,0.561,22.175,120.893,9.788,87.097,0,0,0,2.797e4,1.347e4,19.953,0.106,NaN,2019.43,NaN,0.007,4.507e5,122.033,1.616e-5,0.736,2.336e-4,0.401,0.215,0.12,NaN,NaN,NaN,NaN,NaN,NaN,NaN,NaN,7.261e-6,165,213.825,84,0,2.302,15,1013.25,340.389,0.01,0.019
0.99,-2.333e-4,-0.047,-4.667,0.047,4.692,-2.453e-5,0,2.453e-5,180,0.005,0.49,22.175,120.893,9.788,86.926,0,0,0,2.797e4,1.347e4,19.952,0.106,NaN,2019.376,NaN,0.007,4.515e5,141.022,1.921e-5,0.736,2.767e-4,0.401,0.215,0.12,NaN,NaN,NaN,NaN,NaN,NaN,NaN,NaN,6.343e-6,165,213.825,84,0,2.305,15,1013.25,340.389,0.01,0.019
1,-1.839e-4,-0.037,-3.678,0.037,3.699,-1.933e-5,0,1.933e-5,180,0.004,0.387,22.175,120.893,9.788,86.678,0,0,0,2.797e4,1.347e4,19.951,0.106,NaN,2019.312,NaN,0.007,4.523e5,168.795,2.427e-5,0.736,3.484e-4,0.401,0.215,0.12,NaN,NaN,NaN,NaN,NaN,NaN,NaN,NaN,5e-6,165,213.825,84,0,2.309,15,1013.25,340.389,0.01,0.019
1.01,-1.138e-4,-0.023,-2.275,0.023,2.288,-1.196e-5,0,1.196e-5,180,0.002,0.239,22.175,120.893,9.788,86.328,0,0,0,2.796e4,1.346e4,19.949,0.106,NaN,2019.232,NaN,0.007,4.523e5,208.221,3.264e-5,0.736,4.685e-4,0.401,0.215,0.12,NaN,NaN,NaN,NaN,NaN,NaN,NaN,NaN,3.094e-6,165,213.825,84,0,2.308,15,1013.25,340.389,0.01,0.02
1.02,-4.855e-5,-0.01,-0.97,0.01,0.975,-5.103e-6,0,5.103e-6,180,0.001,0.102,22.175,120.893,9.788,86.003,0,0,0,2.796e4,1.346e4,19.948,0.106,NaN,2019.139,NaN,0.007,4.524e5,244.886,4.196e-5,0.736,6.022e-4,0.401,0.215,0.12,NaN,NaN,NaN,NaN,NaN,NaN,NaN,NaN,1.32e-6,165,213.825,84,0,2.307,15,1013.25,340.389,0.01,0.02
1.03,2.205e-5,0.004,0.442,0.004,0.445,2.317e-6,0,2.317e-6,0,4.638e-4,0.046,22.175,120.893,9.788,85.651,0,0,0,2.795e4,1.345e4,19.946,0.106,NaN,2019.03,NaN,0.007,4.524e5,284.538,5.385e-5,0.736,7.727e-4,0.401,0.215,0.12,NaN,NaN,NaN,NaN,NaN,NaN,NaN,NaN,5.997e-7,165,213.825,84,0,2.306,15,1013.25,340.389,0.01,0.02
1.04,1.641e-4,0.024,1.96,0.024,1.971,1.725e-5,0,1.725e-5,0,0.003,0.206,22.175,120.893,9.788,85.164,0,0,0,2.795e4,1.345e4,19.943,0.106,NaN,2018.905,NaN,0.007,4.526e5,327.142,7.374e-5,0.736,0.001,0.401,0.215,0.12,NaN,NaN,NaN,NaN,NaN,NaN,NaN,NaN,3.263e-6,165,213.825,84,0,2.306,15,1013.25,340.389,0.01,0.02
1.05,5.833e-4,0.06,3.585,0.06,3.604,6.13e-5,0,6.13e-5,0,0.006,0.377,22.175,120.893,9.788,84.273,0,0,0,2.794e4,1.344e4,19.941,0.106,NaN,2018.763,NaN,0.007,4.531e5,372.693,1.215e-4,0.736,0.002,0.401,0.215,0.12,NaN,NaN,NaN,NaN,NaN,NaN,NaN,NaN,8.133e-6,165,213.825,84,0,2.305,15,1013.25,340.389,0.01,0.02
1.06,0.001,0.115,5.563,0.116,5.594,1.534e-4,0,1.534e-4,0,0.012,0.585,22.175,120.893,9.788,82.912,0,0,0,2.793e4,1.343e4,19.938,0.106,NaN,2018.599,NaN,0.007,4.567e5,428.171,2.304e-4,0.735,0.003,0.4,0.215,0.12,NaN,NaN,NaN,NaN,NaN,NaN,NaN,NaN,1.569e-5,165,213.825,84,0,2.317,15,1013.25,340.389,0.01,0.02
1.07,0.003,0.191,7.517,0.192,7.558,3.142e-4,0,3.142e-4,0,0.02,0.79,22.175,120.893,9.788,81.1,0,0,0,2.792e4,1.342e4,19.935,0.106,NaN,2018.415,NaN,0.007,4.612e5,482.882,4.553e-4,0.734,0.006,0.399,0.215,0.12,NaN,NaN,NaN,NaN,NaN,NaN,NaN,NaN,2.59e-5,165,213.825,84,0,2.33,15,1013.25,340.389,0.01,0.021
1.08,0.005,0.288,9.758,0.29,9.812,5.658e-4,0,5.658e-4,0,0.03,1.026,22.175,120.893,9.788,78.793,0,0,0,2.791e4,1.341e4,19.931,0.106,NaN,2018.206,NaN,0.007,4.67e5,545.617,9.065e-4,0.733,0.012,0.398,0.215,0.12,NaN,NaN,NaN,NaN,NaN,NaN,NaN,NaN,3.916e-5,165,213.825,84,0,2.342,15,1013.249,340.389,0.01,0.021
1.09,0.009,0.411,12.305,0.413,12.373,9.333e-4,0,9.333e-4,0,0.043,1.293,22.175,120.893,9.788,75.956,0,0,0,2.79e4,1.34e4,19.927,0.106,NaN,2017.969,NaN,0.007,4.748e5,616.859,0.002,0.732,0.023,0.397,0.215,0.12,NaN,NaN,NaN,NaN,NaN,NaN,NaN,NaN,5.588e-5,165,213.825,84,0,2.355,15,1013.249,340.389,0.01,0.021
1.1,0.014,0.563,15.219,0.566,15.303,0.001,0,0.001,0,0.059,1.6,22.175,120.893,9.788,72.568,0,0,0,2.789e4,1.339e4,19.922,0.106,NaN,2017.702,NaN,0.007,4.853e5,698.307,0.003,0.73,0.042,0.395,0.215,0.12,NaN,NaN,NaN,NaN,NaN,NaN,NaN,NaN,7.656e-5,165,213.825,84,0,2.368,15,1013.248,340.389,0.01,0.021
1.11,0.02,0.746,18.289,0.75,18.39,0.002,0,0.002,0,0.078,1.922,22.175,120.893,9.788,68.415,0,0,0,2.788e4,1.338e4,19.917,0.106,NaN,2017.401,NaN,0.007,4.921e5,784.022,0.006,0.729,0.076,0.394,0.215,0.12,NaN,NaN,NaN,NaN,NaN,NaN,NaN,NaN,1.014e-4,165,213.825,84,0,2.34,15,1013.248,340.389,0.01,0.021
1.12,0.029,0.96,21.44,0.966,21.558,0.003,0,0.003,0,0.101,2.253,22.175,120.893,9.788,63.76,0,0,0,2.786e4,1.336e4,19.911,0.106,NaN,2017.066,NaN,0.008,5.042e5,871.849,0.011,0.727,0.128,0.391,0.215,0.12,NaN,NaN,NaN,NaN,NaN,NaN,NaN,NaN,1.305e-4,165,213.825,84,0,2.312,15,1013.247,340.389,0.01,0.021
1.13,0.04,1.207,24.646,1.213,24.781,0.004,0,0.004,0,0.127,2.59,22.175,120.893,9.788,58.753,0,0,0,2.784e4,1.334e4,19.904,0.106,NaN,2016.696,NaN,0.008,5.226e5,961.049,0.019,0.724,0.2,0.389,0.215,0.12,NaN,NaN,NaN,NaN,NaN,NaN,NaN,NaN,1.64e-4,165,213.825,84,0,2.284,15,1013.245,340.389,0.01,0.022
1.14,0.053,1.482,27.565,1.49,27.716,0.006,0,0.006,0,0.156,2.897,22.175,120.893,9.788,53.633,0,0,0,2.782e4,1.332e4,19.897,0.106,NaN,2016.295,NaN,0.008,5.481e5,1042.073,0.03,0.72,0.29,0.385,0.215,0.12,NaN,NaN,NaN,NaN,NaN,NaN,NaN,NaN,2.015e-4,165,213.825,84,0,2.257,15,1013.244,340.389,0.01,0.022
1.15,0.069,1.783,30.093,1.793,30.259,0.007,0,0.007,0,0.187,3.163,22.175,120.893,9.788,48.63,0,0,0,2.78e4,1.33e4,19.889,0.106,NaN,2015.866,NaN,0.009,5.809e5,1112.029,0.045,0.715,0.389,0.38,0.215,0.12,NaN,NaN,NaN,NaN,NaN,NaN,NaN,NaN,2.424e-4,165,213.825,84,0,2.229,15,1013.242,340.389,0.01,0.022
1.16,0.089,2.106,32.29,2.117,32.468,0.009,0,0.009,0,0.221,3.394,22.175,120.893,9.788,44.356,0,0,0,2.778e4,1.328e4,19.881,0.106,NaN,2015.413,NaN,0.009,6.261e5,1172.553,0.064,0.709,0.479,0.374,0.215,0.12,NaN,NaN,NaN,NaN,NaN,NaN,NaN,NaN,2.862e-4,165,213.825,84,0,2.238,14.999,1013.24,340.389,0.01,0.022
1.17,0.112,2.446,34.029,2.459,34.216,0.012,0,0.012,0,0.257,3.577,22.175,120.893,9.788,40.485,0,0,0,2.776e4,1.326e4,19.873,0.105,NaN,2014.941,NaN,0.01,6.77e5,1220.187,0.087,0.703,0.561,0.368,0.215,0.12,NaN,NaN,NaN,NaN,NaN,NaN,NaN,NaN,3.325e-4,165,213.825,84,0,2.247,14.999,1013.237,340.388,0.01,0.022
1.18,0.138,2.799,35.305,2.814,35.5,0.014,0,0.014,0,0.294,3.711,22.175,120.893,9.788,37.05,0,0,0,2.774e4,1.324e4,19.864,0.105,NaN,2014.455,NaN,0.011,7.325e5,1254.818,0.115,0.697,0.631,0.362,0.215,0.12,NaN,NaN,NaN,NaN,NaN,NaN,NaN,NaN,3.804e-4,165,213.825,84,0,2.257,14.999,1013.234,340.388,0.01,0.023
1.19,0.168,3.16,36.107,3.177,36.306,0.018,0,0.018,0,0.332,3.795,22.175,120.893,9.788,34.043,0,0,0,2.771e4,1.321e4,19.855,0.105,NaN,2013.959,NaN,0.012,7.916e5,1276.135,0.147,0.692,0.689,0.356,0.215,0.12,NaN,NaN,NaN,NaN,NaN,NaN,NaN,NaN,4.295e-4,165,213.825,84,0,2.266,14.999,1013.23,340.388,0.01,0.023
1.2,0.201,3.526,36.66,3.545,36.862,0.021,0,0.021,0,0.371,3.853,22.175,120.893,9.788,31.421,0,0,0,2.769e4,1.319e4,19.846,0.105,NaN,2013.458,NaN,0.013,8.534e5,1290.479,0.182,0.686,0.734,0.351,0.215,0.12,NaN,NaN,NaN,NaN,NaN,NaN,NaN,NaN,4.793e-4,165,213.825,84,0,2.275,14.999,1013.226,340.388,0.01,0.023
1.21,0.238,3.896,36.966,3.917,37.169,0.025,0,0.025,0,0.409,3.885,22.175,120.893,9.788,29.146,0,0,0,2.767e4,1.317e4,19.837,0.105,NaN,2012.952,NaN,0.014,9.175e5,1297.933,0.22,0.681,0.769,0.346,0.215,0.12,NaN,NaN,NaN,NaN,NaN,NaN,NaN,NaN,5.295e-4,165,213.825,84,0,2.285,14.998,1013.222,340.388,0.01,0.023
1.22,0.279,4.266,37.025,4.289,37.229,0.029,0,0.029,0,0.448,3.891,22.175,120.893,9.788,27.166,0,0,0,2.764e4,1.314e4,19.828,0.105,NaN,2012.446,NaN,0.015,9.828e5,1298.512,0.262,0.676,0.795,0.341,0.215,0.12,NaN,NaN,NaN,NaN,NaN,NaN,NaN,NaN,5.798e-4,165,213.825,84,0,2.294,14.998,1013.217,340.388,0.01,0.023
1.23,0.324,4.636,37.068,4.662,37.272,0.034,0,0.034,0,0.487,3.896,22.175,120.893,9.788,25.434,0,0,0,2.762e4,1.312e4,19.819,0.105,NaN,2011.938,NaN,0.016,1.049e6,1298.633,0.305,0.672,0.814,0.337,0.215,0.12,NaN,NaN,NaN,NaN,NaN,NaN,NaN,NaN,6.301e-4,165,213.825,84,0,2.304,14.998,1013.212,340.388,0.01,0.023
1.24,0.372,5.006,36.974,5.033,37.177,0.039,0,0.039,0,0.526,3.886,22.175,120.893,9.788,23.912,0,0,0,2.76e4,1.31e4,19.81,0.105,NaN,2011.431,NaN,0.017,1.116e6,1294.965,0.351,0.668,0.827,0.333,0.215,0.12,NaN,NaN,NaN,NaN,NaN,NaN,NaN,NaN,6.804e-4,165,213.825,84,0,2.314,14.998,1013.206,340.387,0.01,0.024
1.25,0.424,5.374,36.888,5.404,37.091,0.045,0,0.045,0,0.565,3.877,22.175,120.893,9.788,22.568,0,0,0,2.757e4,1.307e4,19.801,0.105,NaN,2010.925,NaN,0.018,1.184e6,1291.53,0.399,0.664,0.836,0.329,0.215,0.12,NaN,NaN,NaN,NaN,NaN,NaN,NaN,NaN,7.305e-4,165,213.825,84,0,2.324,14.997,1013.2,340.387,0.01,0.024
1.26,0.479,5.742,36.8,5.774,37.003,0.05,0,0.05,0,0.604,3.868,22.175,120.893,9.788,21.213,0,0,0,2.755e4,1.305e4,19.792,0.105,NaN,2010.419,NaN,0.019,1.251e6,1288.052,0.449,0.661,0.843,0.326,0.215,0.12,NaN,NaN,NaN,NaN,NaN,NaN,NaN,NaN,7.805e-4,165,213.825,84,0,2.314,14.997,1013.194,340.387,0.01,0.024
1.27,0.538,6.109,36.688,6.142,36.89,0.057,0,0.057,0,0.642,3.856,22.175,120.893,9.788,19.998,0,0,0,2.753e4,1.303e4,19.783,0.105,NaN,2009.914,NaN,0.02,1.317e6,1283.912,0.5,0.657,0.846,0.322,0.215,0.12,NaN,NaN,NaN,NaN,NaN,NaN,NaN,NaN,8.303e-4,165,213.825,84,0,2.304,14.997,1013.187,340.387,0.01,0.024
1.28,0.601,6.475,36.655,6.511,36.857,0.063,0,0.063,0,0.681,3.853,22.175,120.893,9.788,18.902,0,0,0,2.75e4,1.3e4,19.774,0.105,NaN,2009.409,NaN,0.021,1.385e6,1281.967,0.553,0.654,0.847,0.319,0.215,0.12,NaN,NaN,NaN,NaN,NaN,NaN,NaN,NaN,8.801e-4,165,213.825,84,0,2.294,14.996,1013.179,340.387,0.01,0.025
1.29,0.668,6.841,36.572,6.878,36.774,0.07,0,0.07,0,0.719,3.844,22.175,120.893,9.788,17.91,0,0,0,2.748e4,1.298e4,19.765,0.105,NaN,2008.904,NaN,0.022,1.452e6,1278.651,0.608,0.651,0.846,0.316,0.215,0.12,NaN,NaN,NaN,NaN,NaN,NaN,NaN,NaN,9.298e-4,165,213.825,84,0,2.284,14.996,1013.172,340.386,0.01,0.025
1.3,0.738,7.206,36.531,7.246,36.732,0.078,0,0.078,0,0.757,3.84,22.175,120.893,9.788,17.007,0,0,0,2.746e4,1.296e4,19.756,0.105,NaN,2008.399,NaN,0.023,1.52e6,1276.485,0.664,0.649,0.843,0.314,0.215,0.12,NaN,NaN,NaN,NaN,NaN,NaN,NaN,NaN,9.794e-4,165,213.825,84,0,2.274,14.995,1013.163,340.386,0.01,0.025
1.31,0.812,7.571,36.526,7.613,36.727,0.085,0,0.085,0,0.796,3.839,22.175,120.893,9.788,16.003,0,0,0,2.743e4,1.293e4,19.747,0.105,NaN,2007.894,NaN,0.024,1.587e6,1275.318,0.719,0.646,0.838,0.311,0.215,0.12,NaN,NaN,NaN,NaN,NaN,NaN,NaN,NaN,0.001,165,213.825,84,0,2.237,14.995,1013.155,340.386,0.01,0.025
1.32,0.89,7.936,36.498,7.979,36.699,0.094,0,0.094,0,0.834,3.836,22.175,120.893,9.788,15.08,0,0,0,2.741e4,1.291e4,19.738,0.105,NaN,2007.388,NaN,0.025,1.654e6,1273.528,0.773,0.644,0.83,0.309,0.215,0.12,NaN,NaN,NaN,NaN,NaN,NaN,NaN,NaN,0.001,165,213.825,84,0,2.2,14.994,1013.146,340.385,0.01,0.025
1.33,0.971,8.301,36.548,8.347,36.749,0.102,0,0.102,0,0.872,3.841,22.175,120.893,9.788,14.229,0,0,0,2.739e4,1.289e4,19.729,0.105,NaN,2006.882,NaN,0.026,1.721e6,1273.891,0.827,0.641,0.82,0.306,0.215,0.12,NaN,NaN,NaN,NaN,NaN,NaN,NaN,NaN,0.001,165,213.825,84,0,2.163,14.994,1013.136,340.385,0.01,0.025
1.34,1.056,8.666,36.525,8.714,36.727,0.111,0,0.111,0,0.911,3.839,22.175,120.893,9.788,13.442,0,0,0,2.736e4,1.286e4,19.72,0.105,NaN,2006.376,NaN,0.027,1.789e6,1272.247,0.882,0.639,0.809,0.304,0.215,0.12,NaN,NaN,NaN,NaN,NaN,NaN,NaN,NaN,0.001,165,213.825,84,0,2.126,14.993,1013.126,340.385,0.01,0.026
1.35,1.144,9.031,36.536,9.081,36.737,0.12,0,0.12,0,0.949,3.84,22.175,120.893,9.788,12.712,0,0,0,2.734e4,1.284e4,19.711,0.105,NaN,2005.868,NaN,0.028,1.857e6,1271.517,0.937,0.637,0.798,0.302,0.215,0.12,NaN,NaN,NaN,NaN,NaN,NaN,NaN,NaN,0.001,165,213.825,84,0,2.089,14.993,1013.116,340.384,0.01,0.026
1.36,1.236,9.397,36.574,9.449,36.775,0.13,0,0.13,0,0.988,3.844,22.175,120.893,9.788,12.171,0,0,0,2.732e4,1.282e4,19.702,0.105,NaN,2005.361,NaN,0.029,1.926e6,1271.539,0.996,0.635,0.788,0.3,0.215,0.12,NaN,NaN,NaN,NaN,NaN,NaN,NaN,NaN,0.001,165,213.825,84,0,2.077,14.992,1013.105,340.384,0.01,0.026
1.37,1.332,9.763,36.59,9.816,36.792,0.14,0,0.14,0,1.026,3.846,22.175,120.893,9.788,11.668,0,0,0,2.729e4,1.279e4,19.693,0.105,NaN,2004.852,NaN,0.03,1.996e6,1270.983,1.057,0.633,0.779,0.298,0.215,0.12,NaN,NaN,NaN,NaN,NaN,NaN,NaN,NaN,0.001,165,213.825,84,0,2.064,14.991,1013.094,340.384,0.01,0.026
1.38,1.431,10.129,36.707,10.185,36.909,0.15,0,0.15,0,1.065,3.858,22.175,120.893,9.788,11.197,0,0,0,2.727e4,1.277e4,19.684,0.105,NaN,2004.342,NaN,0.031,2.066e6,1273.167,1.119,0.631,0.77,0.296,0.215,0.12,NaN,NaN,NaN,NaN,NaN,NaN,NaN,NaN,0.001,165,213.825,84,0,2.052,14.991,1013.082,340.383,0.01,0.026
1.39,1.535,10.497,36.748,10.555,36.95,0.161,0,0.161,0,1.103,3.862,22.175,120.893,9.788,10.757,0,0,0,2.725e4,1.275e4,19.675,0.105,NaN,2003.83,NaN,0.032,2.137e6,1273.278,1.183,0.629,0.761,0.294,0.215,0.12,NaN,NaN,NaN,NaN,NaN,NaN,NaN,NaN,0.001,165,213.825,84,0,2.039,14.99,1013.07,340.383,0.01,0.027
1.4,1.641,10.865,36.836,10.925,37.039,0.173,0,0.173,0,1.142,3.872,22.175,120.893,9.788,10.344,0,0,0,2.723e4,1.273e4,19.666,0.105,NaN,2003.318,NaN,0.033,2.208e6,1274.663,1.248,0.628,0.752,0.292,0.215,0.12,NaN,NaN,NaN,NaN,NaN,NaN,NaN,NaN,0.001,165,213.825,84,0,2.027,14.989,1013.057,340.382,0.01,0.027
1.41,1.752,11.234,36.943,11.296,37.147,0.184,0,0.184,0,1.181,3.883,22.175,120.893,9.788,10.046,0,0,0,2.72e4,1.27e4,19.657,0.105,NaN,2002.803,NaN,0.034,2.279e6,1276.588,1.319,0.626,0.745,0.291,0.215,0.12,NaN,NaN,NaN,NaN,NaN,NaN,NaN,NaN,0.002,165,213.825,84,0,2.033,14.989,1013.045,340.382,0.01,0.027
1.42,1.866,11.604,37.012,11.668,37.216,0.196,0,0.196,0,1.22,3.89,22.175,120.893,9.788,9.766,0,0,0,2.718e4,1.268e4,19.648,0.105,NaN,2002.288,NaN,0.035,2.352e6,1277.444,1.391,0.624,0.739,0.289,0.215,0.12,NaN,NaN,NaN,NaN,NaN,NaN,NaN,NaN,0.002,165,213.825,84,0,2.04,14.988,1013.031,340.382,0.01,0.027
1.43,1.984,11.975,37.148,12.041,37.352,0.209,0,0.209,0,1.259,3.904,22.175,120.893,9.788,9.502,0,0,0,2.716e4,1.266e4,19.639,0.105,NaN,2001.77,NaN,0.036,2.424e6,1280.14,1.467,0.623,0.733,0.288,0.215,0.12,NaN,NaN,NaN,NaN,NaN,NaN,NaN,NaN,0.002,165,213.825,84,0,2.046,14.987,1013.017,340.381,0.01,0.027
1.44,2.106,12.347,37.205,12.415,37.41,0.221,0,0.221,0,1.298,3.91,22.175,120.893,9.788,9.253,0,0,0,2.713e4,1.263e4,19.629,0.105,NaN,2001.252,NaN,0.037,2.497e6,1280.681,1.548,0.623,0.729,0.288,0.215,0.12,NaN,NaN,NaN,NaN,NaN,NaN,NaN,NaN,0.002,165,213.825,84,0,2.053,14.986,1013.003,340.381,0.01,0.028
1.45,2.231,12.72,37.314,12.79,37.52,0.234,0,0.234,0,1.337,3.922,22.175,120.893,9.788,9.017,0,0,0,2.711e4,1.261e4,19.62,0.105,NaN,2000.731,NaN,0.038,2.57e6,1282.653,1.631,0.623,0.725,0.288,0.215,0.12,NaN,NaN,NaN,NaN,NaN,NaN,NaN,NaN,0.002,165,213.825,84,0,2.059,14.985,1012.988,340.38,0.01,0.028
1.46,2.36,13.094,37.433,13.166,37.639,0.248,0,0.248,0,1.376,3.934,22.175,120.893,9.788,8.739,0,0,0,2.709e4,1.259e4,19.611,0.104,NaN,2000.209,NaN,0.04,2.642e6,1284.861,1.713,0.623,0.721,0.288,0.215,0.12,NaN,NaN,NaN,NaN,NaN,NaN,NaN,NaN,0.002,165,213.825,84,0,2.053,14.985,1012.973,340.38,0.01,0.028
1.47,2.493,13.469,37.486,13.543,37.693,0.262,0,0.262,0,1.416,3.94,22.175,120.893,9.788,8.477,0,0,0,2.706e4,1.256e4,19.602,0.104,NaN,1999.686,NaN,0.041,2.715e6,1285.292,1.798,0.623,0.716,0.288,0.215,0.12,NaN,NaN,NaN,NaN,NaN,NaN,NaN,NaN,0.002,165,213.825,84,0,2.047,14.984,1012.958,340.379,0.01,0.028
1.48,2.629,13.845,37.608,13.921,37.816,0.276,0,0.276,0,1.455,3.953,22.175,120.893,9.788,8.227,0,0,0,2.704e4,1.254e4,19.592,0.104,NaN,1999.161,NaN,0.042,2.788e6,1287.587,1.885,0.623,0.712,0.288,0.215,0.12,NaN,NaN,NaN,NaN,NaN,NaN,NaN,NaN,0.002,165,213.825,84,0,2.04,14.983,1012.942,340.379,0.01,0.028
1.49,2.77,14.221,37.655,14.3,37.863,0.291,0,0.291,0,1.495,3.958,22.175,120.893,9.788,7.99,0,0,0,2.702e4,1.252e4,19.583,0.104,NaN,1998.635,NaN,0.043,2.861e6,1287.832,1.975,0.623,0.708,0.288,0.215,0.12,NaN,NaN,NaN,NaN,NaN,NaN,NaN,NaN,0.002,165,213.825,84,0,2.034,14.982,1012.925,340.378,0.01,0.029
1.5,2.914,14.598,37.726,14.679,37.934,0.306,0,0.306,0,1.534,3.965,22.175,120.893,9.788,7.764,0,0,0,2.699e4,1.249e4,19.574,0.104,NaN,1998.108,NaN,0.044,2.934e6,1288.735,2.067,0.623,0.705,0.288,0.215,0.12,NaN,NaN,NaN,NaN,NaN,NaN,NaN,NaN,0.002,165,213.825,84,0,2.027,14.981,1012.908,340.377,0.01,0.029
1.51,3.062,14.976,37.809,15.059,38.017,0.322,0,0.322,0,1.574,3.974,22.175,120.893,9.788,7.507,0,0,0,2.697e4,1.247e4,19.564,0.104,NaN,1997.579,NaN,0.045,3.007e6,1289.948,2.158,0.623,0.701,0.288,0.215,0.12,NaN,NaN,NaN,NaN,NaN,NaN,NaN,NaN,0.002,165,213.825,84,0,2.01,14.98,1012.891,340.377,0.01,0.029
1.52,3.213,15.354,37.825,15.439,38.034,0.338,0,0.338,0,1.614,3.976,22.175,120.893,9.788,7.263,0,0,0,2.695e4,1.244e4,19.555,0.104,NaN,1997.049,NaN,0.046,3.081e6,1289.376,2.252,0.623,0.697,0.288,0.215,0.12,NaN,NaN,NaN,NaN,NaN,NaN,NaN,NaN,0.002,165,213.825,84,0,1.992,14.979,1012.873,340.376,0.01,0.029
1.53,3.369,15.734,37.966,15.82,38.176,0.354,0,0.354,0,1.654,3.99,22.175,120.893,9.788,7.029,0,0,0,2.692e4,1.242e4,19.546,0.104,NaN,1996.518,NaN,0.047,3.154e6,1292.164,2.348,0.623,0.693,0.288,0.215,0.12,NaN,NaN,NaN,NaN,NaN,NaN,NaN,NaN,0.002,165,213.825,84,0,1.974,14.978,1012.855,340.376,0.01,0.029
1.54,3.528,16.114,38.037,16.203,38.247,0.371,0,0.371,0,1.694,3.998,22.175,120.893,9.788,6.805,0,0,0,2.69e4,1.24e4,19.536,0.104,NaN,1995.985,NaN,0.048,3.228e6,1293.051,2.446,0.623,0.689,0.288,0.215,0.12,NaN,NaN,NaN,NaN,NaN,NaN,NaN,NaN,0.002,165,213.825,84,0,1.956,14.977,1012.836,340.375,0.01,0.029
1.55,3.691,16.495,38.143,16.586,38.353,0.388,0,0.388,0,1.734,4.009,22.175,120.893,9.788,6.591,0,0,0,2.687e4,1.237e4,19.527,0.104,NaN,1995.451,NaN,0.049,3.302e6,1294.89,2.547,0.623,0.686,0.288,0.215,0.12,NaN,NaN,NaN,NaN,NaN,NaN,NaN,NaN,0.002,165,213.825,84,0,1.938,14.976,1012.817,340.374,0.01,0.03
1.56,3.858,16.878,38.269,16.971,38.48,0.405,0,0.405,0,1.774,4.022,22.175,120.893,9.788,6.437,0,0,0,2.685e4,1.235e4,19.517,0.104,NaN,1994.914,NaN,0.051,3.377e6,1297.251,2.655,0.623,0.684,0.288,0.215,0.12,NaN,NaN,NaN,NaN,NaN,NaN,NaN,NaN,0.002,165,213.825,84,0,1.936,14.975,1012.798,340.374,0.01,0.03
1.57,4.029,17.26,38.289,17.355,38.5,0.423,0,0.423,0,1.814,4.024,22.175,120.893,9.788,6.289,0,0,0,2.683e4,1.233e4,19.508,0.104,NaN,1994.377,NaN,0.052,3.451e6,1296.778,2.764,0.623,0.681,0.288,0.215,0.12,NaN,NaN,NaN,NaN,NaN,NaN,NaN,NaN,0.002,165,213.825,84,0,1.934,14.974,1012.778,340.373,0.01,0.03
1.585,4.292,17.835,38.326,17.934,38.638,0.451,-1.738e-5,0.451,-0.002,1.888,4.898,22.175,120.893,9.788,6.101,0,0.038,-1.198e-4,2.679e4,1.229e4,19.493,0.104,2141.18,1993.568,0.895,0.053,3.564e6,1298.654,2.936,0.624,0.679,0.288,0.215,0.12,1.38,1.234,-3.354e-4,0,0,0,0,4.949e-6,0.002,165,213.825,84,0.002,1.93,14.972,1012.747,340.372,0.015,0.03
1.608,4.703,18.701,38.53,18.807,38.841,0.495,-1.098e-4,0.495,-0.013,1.998,4.913,22.175,120.893,9.788,5.822,0,0.098,-6.63e-4,2.674e4,1.224e4,19.472,0.104,2146.271,1992.348,0.933,0.056,3.734e6,1301.804,3.203,0.624,0.674,0.288,0.215,0.12,1.305,1.217,4.816e-4,0,0,0,0,3.07e-5,0.003,165,213.825,83.999,0.012,1.919,14.969,1012.698,340.37,0.023,0.03
1.641,5.356,20.01,38.869,20.127,39.181,0.565,-4.014e-4,0.565,-0.041,2.165,4.941,22.175,120.893,9.788,5.395,0,0.199,-0.003,2.666e4,1.216e4,19.439,0.104,2154.237,1990.501,0.992,0.06,3.991e6,1307.398,3.625,0.624,0.668,0.288,0.215,0.12,1.194,1.184,3.7e-4,0,0,0,0,1.093e-4,0.003,165,213.825,83.995,0.046,1.886,14.965,1012.622,340.368,0.034,0.031
1.691,6.406,21.969,39.292,22.101,39.607,0.68,-0.001,0.68,-0.099,2.413,4.98,22.175,120.893,9.788,4.836,0,0.366,-0.008,2.654e4,1.204e4,19.39,0.104,2165.022,1987.731,1.074,0.066,4.375e6,1313.533,4.307,0.624,0.661,0.288,0.215,0.121,1.051,1.129,4.213e-4,0,0,0,0,3.095e-4,0.003,165,213.825,83.985,0.139,1.834,14.958,1012.499,340.364,0.05,0.031
1.741,7.554,23.958,39.873,24.106,40.19,0.807,-0.002,0.807,-0.167,2.664,5.04,22.175,120.893,9.788,4.365,0,0.557,-0.017,2.642e4,1.192e4,19.34,0.104,2174.468,1984.915,1.149,0.071,4.765e6,1323.765,5.063,0.624,0.655,0.288,0.216,0.121,0.935,1.073,-2.486e-5,0,0,0,0,6.038e-4,0.003,165,213.825,83.968,0.289,1.786,14.951,1012.364,340.359,0.05,0.031
1.791,8.802,25.978,40.502,26.142,40.823,0.946,-0.004,0.946,-0.237,2.919,5.108,22.175,120.893,9.788,4.032,0,0.773,-0.03,2.63e4,1.18e4,19.29,0.103,2181.331,1982.048,1.208,0.077,5.162e6,1335.184,5.908,0.624,0.651,0.288,0.216,0.121,0.854,1.031,-1.903e-4,0,0,0,0,9.88e-4,0.004,165,213.825,83.944,0.501,1.778,14.943,1012.218,340.354,0.05,0.031
1.841,10.152,28.032,41.176,28.211,41.501,1.098,-0.006,1.099,-0.304,3.178,5.183,22.175,120.893,9.788,3.811,0,1.017,-0.044,2.617e4,1.167e4,19.238,0.103,2185.994,1979.127,1.254,0.083,5.568e6,1347.677,6.847,0.624,0.648,0.288,0.216,0.121,0.802,1.003,-3.006e-4,0,0,0,0,0.001,0.004,165,213.825,83.91,0.781,1.811,14.934,1012.059,340.349,0.05,0.031
1.891,11.606,30.126,41.98,30.322,42.314,1.264,-0.008,1.264,-0.366,3.441,5.306,22.175,120.893,9.788,3.292,0,1.284,-0.075,2.605e4,1.155e4,19.185,0.103,2197.182,1976.143,1.34,0.09,5.976e6,1363.475,7.823,0.624,0.643,0.288,0.216,0.121,0.681,0.909,-1.38e-4,0,0,0,0,0.002,0.004,165,213.825,83.867,1.132,1.678,14.925,1011.889,340.343,0.05,0.031
1.941,13.166,32.253,42.64,32.465,42.982,1.443,-0.011,1.443,-0.418,3.711,5.414,22.175,120.893,9.788,2.977,0,1.563,-0.107,2.593e4,1.143e4,19.132,0.103,2204.181,1973.105,1.4,0.096,6.394e6,1375.364,8.916,0.625,0.64,0.288,0.216,0.121,0.609,0.851,6.379e-5,0,0,0,0,0.003,0.004,165,213.825,83.812,1.554,1.634,14.914,1011.706,340.337,0.05,0.032
1.991,14.832,34.417,43.387,34.647,43.739,1.635,-0.013,1.635,-0.458,3.986,5.54,22.175,120.893,9.788,2.74,0,1.865,-0.142,2.58e4,1.13e4,19.077,0.103,2209.597,1970.006,1.452,0.102,6.82e6,1389.417,10.113,0.625,0.638,0.288,0.216,0.121,0.556,0.804,4.015e-4,0,0,0,0,0.003,0.005,165,213.825,83.744,2.045,1.626,14.904,1011.51,340.33,0.05,0.032
2.041,16.608,36.631,44.383,36.878,44.745,1.841,-0.016,1.841,-0.485,4.269,5.688,22.175,120.893,9.788,2.714,0,2.2,-0.155,2.567e4,1.117e4,19.021,0.102,2210.257,1966.831,1.475,0.109,7.259e6,1409.711,11.459,0.625,0.638,0.288,0.216,0.122,0.55,0.808,3.24e-5,0,0,0,0,0.004,0.005,165,213.825,83.663,2.604,1.756,14.892,1011.302,340.323,0.05,0.032
2.091,18.496,38.888,45.257,39.154,45.636,2.062,-0.018,2.062,-0.5,4.559,5.864,22.175,120.893,9.788,2.479,-7.247e-7,2.572,-0.203,2.554e4,1.104e4,18.964,0.102,2215.719,1963.584,1.528,0.116,7.704e6,1426.753,12.871,0.625,0.636,0.287,0.216,0.122,0.499,0.757,3.7e-4,0,0,0,0,0.005,0.005,165,213.825,83.566,3.233,1.756,14.88,1011.081,340.316,0.05,0.032
2.141,20.498,41.175,45.853,41.461,46.249,2.297,-0.02,2.298,-0.5,4.857,6.034,22.175,120.893,9.788,2.229,-7.136e-7,2.954,-0.266,2.541e4,1.091e4,18.906,0.102,2221.651,1960.282,1.584,0.122,8.154e6,1436.554,14.382,0.626,0.635,0.287,0.216,0.122,0.445,0.698,-4.834e-4,0,0,0,0,0.006,0.006,165,213.825,83.452,3.926,1.742,14.867,1010.846,340.308,0.05,0.032
2.191,22.615,43.497,46.531,43.802,46.947,2.548,-0.022,2.548,-0.484,5.165,6.233,22.175,120.893,9.788,2.022,-6.06e-7,3.352,-0.33,2.528e4,1.078e4,18.847,0.102,2226.637,1956.918,1.635,0.129,8.611e6,1448.404,16.014,0.626,0.633,0.287,0.216,0.122,0.401,0.648,-4.864e-5,0,0,0,0,0.007,0.006,165,213.825,83.319,4.676,1.764,14.853,1010.598,340.3,0.05,0.033
2.241,24.848,45.854,47.246,46.18,47.689,2.814,-0.022,2.814,-0.451,5.483,6.485,22.175,120.893,9.788,1.71,-1.062e-6,3.745,-0.468,2.515e4,1.065e4,18.787,0.102,2234.293,1953.489,1.702,0.136,9.074e6,1461.178,17.735,0.626,0.632,0.287,0.217,0.122,0.335,0.563,-2.568e-4,0,0,0,0,0.007,0.006,165,213.825,83.167,5.472,1.7,14.838,1010.336,340.291,0.05,0.033
2.291,27.201,48.235,47.737,48.584,48.211,3.097,-0.022,3.097,-0.4,5.814,6.74,22.175,120.893,9.788,1.414,0,4.103,-0.655,2.501e4,1.051e4,18.726,0.101,2241.702,1950.006,1.768,0.143,9.541e6,1468.288,19.573,0.627,0.63,0.287,0.217,0.123,0.274,0.476,-1.912e-4,0,0,0,0,0.008,0.007,165,213.825,82.996,6.296,1.644,14.823,1010.06,340.282,0.05,0.033
2.341,29.672,50.62,47.8,50.993,48.302,3.396,-0.02,3.396,-0.33,6.154,6.945,22.175,120.893,9.788,1.258,-1.718e-6,4.458,-0.752,2.488e4,1.038e4,18.664,0.101,2245.749,1946.495,1.814,0.15,1.001e7,1464.702,21.545,0.627,0.63,0.287,0.217,0.123,0.243,0.431,-1.488e-5,0,0,0,0,0.009,0.007,165,213.825,82.805,7.132,1.715,14.807,1009.77,340.272,0.05,0.033
2.391,32.263,53.007,47.832,53.404,48.369,3.712,-0.016,3.712,-0.24,6.504,7.183,22.175,120.893,9.788,1.058,6.091e-7,4.791,-0.941,2.475e4,1.025e4,18.602,0.101,2250.963,1942.956,1.867,0.157,1.048e7,1460.577,23.605,0.627,0.63,0.287,0.217,0.123,0.203,0.369,-6.508e-5,0,0,0,0,0.009,0.007,165,213.825,82.595,7.967,1.752,14.79,1009.466,340.262,0.05,0.033
2.441,34.973,55.398,47.91,55.822,48.482,4.046,-0.009,4.046,-0.131,6.867,7.425,22.175,120.893,9.788,0.968,-1.321e-6,5.141,-0.937,2.461e4,1.011e4,18.539,0.101,2253.382,1939.385,1.903,0.165,1.096e7,1457.734,25.799,0.628,0.63,0.287,0.217,0.124,0.185,0.343,1.564e-4,0,0,0,0,0.01,0.008,165,213.825,82.366,8.789,1.913,14.773,1009.148,340.251,0.05,0.034
2.491,37.802,57.771,47.562,58.223,48.179,4.399,-3.319e-4,4.399,-0.004,7.239,7.683,22.175,120.893,9.788,0.721,-3.193e-6,5.381,-1.379,2.448e4,9982.7,18.477,0.101,2259.95,1935.809,1.964,0.172,1.143e7,1444.705,28.037,0.628,0.629,0.287,0.217,0.124,0.137,0.258,-3.848e-4,0,0,0,0,0.01,0.008,165,213.825,82.119,9.592,1.916,14.754,1008.816,340.24,0.05,0.034
2.541,40.75,60.141,47.47,60.622,48.142,4.77,0.012,4.77,0.141,7.627,8.016,22.175,120.893,9.788,0.453,-2.42e-6,5.232,-2.478,2.435e4,9851.919,18.414,0.1,2267.228,1932.21,2.03,0.179,1.189e7,1438.362,30.369,0.629,0.629,0.287,0.218,0.124,0.085,0.164,-2.307e-4,0,0,0,0,0.008,0.008,165,213.825,81.856,10.359,1.875,14.735,1008.471,340.228,0.05,0.034
2.591,43.816,62.499,47.25,63.013,47.981,5.161,0.027,5.161,0.304,8.03,8.346,22.175,120.893,9.788,0.255,-1.226e-6,3.584,-4.71,2.422e4,9721.977,18.351,0.1,2272.702,1928.595,2.085,0.186,1.236e7,1429.136,32.805,0.629,0.629,0.287,0.218,0.124,0.047,0.095,5.007e-6,0,0,0,0,0.004,0.009,165,213.825,81.582,11.074,1.865,14.715,1008.111,340.216,0.05,0.034
2.641,47,64.87,47.482,65.418,48.285,5.573,0.047,5.573,0.485,8.452,8.766,22.175,120.893,9.788,0.239,-6.782e-6,-2.468,-5.396,2.409e4,9591.843,18.287,0.1,2273.288,1924.936,2.111,0.193,1.282e7,1431.244,35.364,0.63,0.63,0.287,0.218,0.125,0.044,0.095,-2.445e-4,0,0,0,0,-0.002,0.009,165,213.825,81.301,11.719,1.84,14.695,1007.738,340.204,0.05,0.035
2.691,50.303,67.247,47.609,67.832,48.481,6.005,0.072,6.006,0.684,8.894,9.156,22.175,120.893,9.788,0.341,-1.874e-6,-4.537,-3.636,2.396e4,9461.748,18.222,0.1,2270.641,1921.238,2.118,0.2,1.329e7,1430.823,38.051,0.63,0.63,0.287,0.218,0.125,0.064,0.14,-1.805e-4,0,0,0,0,-0.005,0.009,165,213.825,81.02,12.281,1.902,14.673,1007.35,340.191,0.05,0.035
2.741,53.725,69.637,47.872,70.263,48.828,6.461,0.101,6.461,0.9,9.357,9.615,22.175,120.893,9.788,0.568,-4.554e-6,-5.023,-2.39,2.383e4,9331.363,18.157,0.1,2264.705,1917.492,2.104,0.207,1.376e7,1433.995,40.859,0.631,0.631,0.287,0.219,0.126,0.107,0.231,-3.495e-4,0,0,0,0,-0.006,0.009,165,213.825,80.745,12.752,1.837,14.651,1006.949,340.177,0.05,0.035
2.791,57.267,72.049,48.318,72.719,49.351,6.939,0.137,6.941,1.131,9.843,10.046,22.175,120.893,9.788,0.667,-5.091e-6,-4.79,-1.875,2.37e4,9200.305,18.091,0.099,2262.238,1913.685,2.112,0.214,1.424e7,1441.415,43.812,0.631,0.632,0.287,0.219,0.126,0.126,0.272,-3.63e-4,0,0,0,0,-0.005,0.01,165,213.825,80.484,13.124,1.915,14.628,1006.534,340.163,0.05,0.035
2.841,60.93,74.481,48.706,75.197,49.812,7.442,0.179,7.444,1.375,10.349,10.441,22.175,120.893,9.788,0.734,-6.729e-6,-4.388,-1.522,2.357e4,9068.707,18.023,0.099,2260.638,1909.819,2.126,0.222,1.473e7,1447.346,46.899,0.632,0.633,0.286,0.219,0.126,0.139,0.3,-3.592e-4,0,0,0,0,-0.004,0.01,165,213.825,80.243,13.397,2.006,14.604,1006.104,340.149,0.05,0.035
2.891,64.715,76.911,48.662,77.676,49.841,7.97,0.227,7.974,1.631,10.871,10.776,22.175,120.893,9.787,0.861,-7.503e-6,-3.806,-1.312,2.344e4,8937.495,17.955,0.099,2257.485,1905.922,2.131,0.229,1.521e7,1443.113,50.092,0.632,0.634,0.286,0.219,0.127,0.164,0.352,3.159e-4,0,0,0,0,-0.003,0.01,165,213.825,80.028,13.576,1.976,14.579,1005.66,340.134,0.05,0.035
2.941,68.621,79.331,48.471,80.147,49.704,8.525,0.282,8.529,1.895,11.408,11.004,22.175,120.893,9.787,0.895,-6.512e-6,-3.076,-1.154,2.331e4,8806.998,17.887,0.099,2256.805,1902.002,2.15,0.236,1.569e7,1435.232,53.375,0.633,0.635,0.286,0.22,0.127,0.171,0.369,-2.513e-5,0,0,0,0,-0.002,0.011,165,213.825,79.846,13.659,2.024,14.554,1005.202,340.119,0.05,0.036
2.991,72.648,81.763,48.723,82.633,50.008,9.105,0.344,9.112,2.165,11.959,11.264,22.175,120.893,9.787,0.914,-6.775e-6,-2.258,-1.052,2.318e4,8676.274,17.818,0.099,2256.495,1898.031,2.173,0.244,1.617e7,1437.734,56.777,0.634,0.635,0.286,0.22,0.128,0.175,0.38,2.428e-5,0,0,0,0,-8.521e-4,0.011,165,213.825,79.702,13.651,2.036,14.528,1004.73,340.103,0.05,0.036
3.041,76.798,84.22,49.222,85.146,50.541,9.713,0.414,9.722,2.439,12.523,11.475,22.175,120.893,9.787,0.859,-8.009e-6,-1.384,-0.974,2.305e4,8544.831,17.748,0.098,2258.098,1893.993,2.207,0.251,1.665e7,1445.651,60.312,0.634,0.636,0.286,0.22,0.128,0.164,0.362,2.372e-4,0,0,0,0,-3.017e-4,0.011,165,213.825,79.599,13.555,2.096,14.501,1004.243,340.086,0.05,0.036
