# Time (s),Altitude (m),Vertical velocity (m/s),Vertical acceleration (m/s²),Total velocity (m/s),Total acceleration (m/s²),Position East of launch (m),Position North of launch (m),Lateral distance (m),Lateral direction (°),Lateral velocity (m/s),Lateral acceleration (m/s²),Latitude (°),Longitude (°),Gravitational acceleration (m/s²),Angle of attack (°),Roll rate (°/s),Pitch rate (°/s),Yaw rate (°/s),Mass (g),Motor mass (g),Longitudinal moment of inertia (kg·m²),Rotational moment of inertia (kg·m²),CP location (mm),CG location (mm),Stability margin calibers (​),Mach number (​),Reynolds number (​),Thrust (N),Drag force (N),Drag coefficient (​),Axial drag coefficient (​),Friction drag coefficient (​),Pressure drag coefficient (​),Base drag coefficient (​),Normal force coefficient (​),Pitch moment coefficient (​),Yaw moment coefficient (​),Side force coefficient (​),Roll moment coefficient (​),Roll forcing coefficient (​),Roll damping coefficient (​),Pitch damping coefficient (​),Coriolis acceleration (m/s²),Reference length (mm),Reference area (cm²),Vertical orientation (zenith) (°),Lateral orientation (azimuth) (°),Wind velocity (m/s),Air temperature (°C),Air pressure (mbar),Speed of sound (m/s),Simulation time step (s),Computation time (s)
0.01,-4.664e-4,-0.093,-9.324,0.095,9.468,-8.224e-5,0,8.224e-5,180,0.016,1.644,22.175,120.893,9.788,83.946,0,0,0,2.8e4,1.35e4,19.963,0.106,NaN,2019.994,NaN,0.016,1.057e6,4.784,7.108e-4,0.672,0.002,0.336,0.215,0.12,NaN,NaN,NaN,NaN,NaN,NaN,NaN,NaN,1.282e-5,165,213.825,80,0,5.401,15,1013.25,340.389,0.01,0.002
0.02,-4.668e-4,-0.093,-9.336,0.095,9.48,-8.231e-5,0,8.231e-5,180,0.016,1.646,22.175,120.893,9.788,83.941,0,0,0,2.8e4,1.35e4,19.963,0.106,NaN,2019.992,NaN,0.016,1.064e6,4.461,7.213e-4,0.671,0.002,0.336,0.215,0.12,NaN,NaN,NaN,NaN,NaN,NaN,NaN,NaN,1.283e-5,165,213.825,80,0,5.436,15,1013.25,340.389,0.01,0.002
0.03,-4.67e-4,-0.093,-9.34,0.095,9.484,-8.234e-5,0,8.234e-5,180,0.016,1.647,22.175,120.893,9.788,83.935,0,0,0,2.8e4,1.35e4,19.963,0.106,NaN,2019.991,NaN,0.016,1.071e6,4.343,7.321e-4,0.671,0.002,0.336,0.215,0.12,NaN,NaN,NaN,NaN,NaN,NaN,NaN,NaN,1.284e-5,165,213.825,80,0,5.47,15,1013.25,340.389,0.01,0.002
0.04,-4.672e-4,-0.093,-9.343,0.095,9.487,-8.237e-5,0,8.237e-5,180,0.016,1.647,22.175,120.893,9.788,83.929,0,0,0,2.8e4,1.35e4,19.963,0.106,NaN,2019.989,NaN,0.016,1.077e6,4.249,7.431e-4,0.67,0.002,0.335,0.215,0.12,NaN,NaN,NaN,NaN,NaN,NaN,NaN,NaN,1.285e-5,165,213.825,80,0,5.505,15,1013.25,340.389,0.01,0.003
0.05,-4.668e-4,-0.093,-9.336,0.095,9.48,-8.231e-5,0,8.231e-5,180,0.016,1.646,22.175,120.893,9.788,83.922,0,0,0,2.8e4,1.35e4,19.963,0.106,NaN,2019.988,NaN,0.016,1.084e6,4.443,7.545e-4,0.67,0.002,0.335,0.215,0.12,NaN,NaN,NaN,NaN,NaN,NaN,NaN,NaN,1.284e-5,165,213.825,80,0,5.539,15,1013.25,340.389,0.01,0.003
0.06,-4.664e-4,-0.093,-9.328,0.095,9.472,-8.224e-5,0,8.224e-5,180,0.016,1.645,22.175,120.893,9.788,83.935,0,0,0,2.8e4,1.35e4,19.963,0.106,NaN,2019.986,NaN,0.016,1.069e6,4.681,7.294e-4,0.671,0.002,0.336,0.215,0.12,NaN,NaN,NaN,NaN,NaN,NaN,NaN,NaN,1.282e-5,165,213.825,80,0,5.46,15,1013.25,340.389,0.01,0.003
0.07,-4.668e-4,-0.093,-9.336,0.095,9.481,-8.231e-5,0,8.231e-5,180,0.016,1.646,22.175,120.893,9.788,83.951,0,0,0,2.8e4,1.35e4,19.963,0.106,NaN,2019.984,NaN,0.016,1.053e6,4.438,7.041e-4,0.672,0.002,0.337,0.215,0.12,NaN,NaN,NaN,NaN,NaN,NaN,NaN,NaN,1.284e-5,165,213.825,80,0,5.381,15,1013.25,340.389,0.01,0.003
0.08,-4.668e-4,-0.093,-9.335,0.095,9.479,-8.23e-5,0,8.23e-5,180,0.016,1.646,22.175,120.893,9.788,83.966,0,0,0,2.8e4,1.35e4,19.963,0.106,NaN,2019.982,NaN,0.016,1.038e6,4.479,6.795e-4,0.673,0.002,0.338,0.215,0.12,NaN,NaN,NaN,NaN,NaN,NaN,NaN,NaN,1.283e-5,165,213.825,80,0,5.302,15,1013.25,340.389,0.01,0.004
0.09,-4.665e-4,-0.093,-9.331,0.095,9.475,-8.226e-5,0,8.226e-5,180,0.016,1.645,22.175,120.893,9.788,83.981,0,0,0,2.8e4,1.35e4,19.963,0.106,NaN,2019.981,NaN,0.015,1.022e6,4.603,6.555e-4,0.674,0.002,0.339,0.215,0.12,NaN,NaN,NaN,NaN,NaN,NaN,NaN,NaN,1.283e-5,165,213.825,80,0,5.223,15,1013.25,340.389,0.01,0.004
0.1,-4.67e-4,-0.093,-9.341,0.095,9.485,-8.235e-5,0,8.235e-5,180,0.016,1.647,22.175,120.893,9.788,83.998,0,0,0,2.8e4,1.35e4,19.963,0.106,NaN,2019.979,NaN,0.015,1.007e6,4.315,6.314e-4,0.675,0.002,0.34,0.215,0.12,NaN,NaN,NaN,NaN,NaN,NaN,NaN,NaN,1.284e-5,165,213.825,80,0,5.143,15,1013.25,340.389,0.01,0.004
0.11,-4.668e-4,-0.093,-9.337,0.095,9.481,-8.232e-5,0,8.232e-5,180,0.016,1.646,22.175,120.893,9.788,84.003,0,0,0,2.8e4,1.35e4,19.963,0.106,NaN,2019.977,NaN,0.015,1.002e6,4.431,6.241e-4,0.675,0.002,0.34,0.215,0.12,NaN,NaN,NaN,NaN,NaN,NaN,NaN,NaN,1.284e-5,165,213.825,80,0,5.118,15,1013.25,340.389,0.01,0.004
0.12,-4.668e-4,-0.093,-9.337,0.095,9.481,-8.231e-5,0,8.231e-5,180,0.016,1.646,22.175,120.893,9.788,84.008,0,0,0,2.8e4,1.35e4,19.962,0.106,NaN,2019.976,NaN,0.015,9.967e5,4.436,6.168e-4,0.675,0.002,0.34,0.215,0.12,NaN,NaN,NaN,NaN,NaN,NaN,NaN,NaN,1.284e-5,165,213.825,80,0,5.093,15,1013.25,340.389,0.01,0.004
0.13,-4.665e-4,-0.093,-9.33,0.095,9.474,-8.226e-5,0,8.226e-5,180,0.016,1.645,22.175,120.893,9.788,84.012,0,0,0,2.8e4,1.35e4,19.962,0.106,NaN,2019.974,NaN,0.015,9.918e5,4.62,6.096e-4,0.676,0.002,0.341,0.215,0.12,NaN,NaN,NaN,NaN,NaN,NaN,NaN,NaN,1.283e-5,165,213.825,80,0,5.068,15,1013.25,340.389,0.01,0.005
0.14,-4.669e-4,-0.093,-9.338,0.095,9.482,-8.232e-5,0,8.232e-5,180,0.016,1.646,22.175,120.893,9.788,84.018,0,0,0,2.8e4,1.35e4,19.962,0.106,NaN,2019.972,NaN,0.015,9.869e5,4.404,6.021e-4,0.676,0.002,0.341,0.215,0.12,NaN,NaN,NaN,NaN,NaN,NaN,NaN,NaN,1.284e-5,165,213.825,80,0,5.043,15,1013.25,340.389,0.01,0.005
0.15,-4.668e-4,-0.093,-9.336,0.095,9.48,-8.231e-5,0,8.231e-5,180,0.016,1.646,22.175,120.893,9.788,84.024,0,0,0,2.8e4,1.35e4,19.962,0.106,NaN,2019.97,NaN,0.015,9.82e5,4.444,5.949e-4,0.676,0.002,0.341,0.215,0.12,NaN,NaN,NaN,NaN,NaN,NaN,NaN,NaN,1.284e-5,165,213.825,80,0,5.018,15,1013.25,340.389,0.01,0.005
0.16,-4.664e-4,-0.093,-9.329,0.095,9.473,-8.225e-5,0,8.225e-5,180,0.016,1.645,22.175,120.893,9.788,84.028,0,0,0,2.8e4,1.35e4,19.962,0.106,NaN,2019.969,NaN,0.015,9.775e5,4.651,5.886e-4,0.677,0.002,0.342,0.215,0.12,NaN,NaN,NaN,NaN,NaN,NaN,NaN,NaN,1.283e-5,165,213.825,80,0,4.995,15,1013.25,340.389,0.01,0.005
0.17,-4.672e-4,-0.093,-9.344,0.095,9.488,-8.238e-5,0,8.238e-5,180,0.016,1.648,22.175,120.893,9.788,84.034,0,0,0,2.8e4,1.35e4,19.962,0.106,NaN,2019.967,NaN,0.015,9.731e5,4.218,5.816e-4,0.677,0.002,0.342,0.215,0.12,NaN,NaN,NaN,NaN,NaN,NaN,NaN,NaN,1.285e-5,165,213.825,80,0,4.973,15,1013.25,340.389,0.01,0.005
0.18,-4.672e-4,-0.093,-9.344,0.095,9.488,-8.238e-5,0,8.238e-5,180,0.016,1.648,22.175,120.893,9.788,84.039,0,0,0,2.8e4,1.35e4,19.962,0.106,NaN,2019.965,NaN,0.015,9.687e5,4.225,5.752e-4,0.677,0.002,0.342,0.215,0.12,NaN,NaN,NaN,NaN,NaN,NaN,NaN,NaN,1.285e-5,165,213.825,80,0,4.95,15,1013.25,340.389,0.01,0.005
0.19,-4.67e-4,-0.093,-9.341,0.095,9.485,-8.235e-5,0,8.235e-5,180,0.016,1.647,22.175,120.893,9.788,84.044,0,0,0,2.8e4,1.35e4,19.962,0.106,NaN,2019.964,NaN,0.014,9.642e5,4.321,5.689e-4,0.678,0.002,0.343,0.215,0.12,NaN,NaN,NaN,NaN,NaN,NaN,NaN,NaN,1.284e-5,165,213.825,80,0,4.927,15,1013.25,340.389,0.01,0.006
0.2,-4.673e-4,-0.093,-9.346,0.095,9.49,-8.24e-5,0,8.24e-5,180,0.016,1.648,22.175,120.893,9.788,84.05,0,0,0,2.8e4,1.35e4,19.962,0.106,NaN,2019.962,NaN,0.014,9.598e5,4.174,5.624e-4,0.678,0.002,0.343,0.215,0.12,NaN,NaN,NaN,NaN,NaN,NaN,NaN,NaN,1.285e-5,165,213.825,80,0,4.905,15,1013.25,340.389,0.01,0.006
0.21,-4.669e-4,-0.093,-9.338,0.095,9.483,-8.233e-5,0,8.233e-5,180,0.016,1.647,22.175,120.893,9.788,84.05,0,0,0,2.8e4,1.35e4,19.962,0.106,NaN,2019.961,NaN,0.014,9.589e5,4.381,5.613e-4,0.678,0.002,0.343,0.215,0.12,NaN,NaN,NaN,NaN,NaN,NaN,NaN,NaN,1.284e-5,165,213.825,80,0,4.9,15,1013.25,340.389,0.01,0.006
0.22,-4.664e-4,-0.093,-9.329,0.095,9.473,-8.225e-5,0,8.225e-5,180,0.016,1.645,22.175,120.893,9.788,84.05,0,0,0,2.8e4,1.35e4,19.962,0.106,NaN,2019.959,NaN,0.014,9.579e5,4.657,5.602e-4,0.678,0.002,0.343,0.215,0.12,NaN,NaN,NaN,NaN,NaN,NaN,NaN,NaN,1.283e-5,165,213.825,80,0,4.895,15,1013.25,340.389,0.01,0.006
0.23,-4.669e-4,-0.093,-9.338,0.095,9.482,-8.233e-5,0,8.233e-5,180,0.016,1.647,22.175,120.893,9.788,84.052,0,0,0,2.8e4,1.35e4,19.962,0.106,NaN,2019.957,NaN,0.014,9.57e5,4.392,5.586e-4,0.678,0.002,0.343,0.215,0.12,NaN,NaN,NaN,NaN,NaN,NaN,NaN,NaN,1.284e-5,165,213.825,80,0,4.89,15,1013.25,340.389,0.01,0.006
0.24,-4.667e-4,-0.093,-9.334,0.095,9.478,-8.229e-5,0,8.229e-5,180,0.016,1.646,22.175,120.893,9.788,84.053,0,0,0,2.8e4,1.35e4,19.962,0.106,NaN,2019.955,NaN,0.014,9.56e5,4.513,5.574e-4,0.678,0.002,0.343,0.215,0.12,NaN,NaN,NaN,NaN,NaN,NaN,NaN,NaN,1.283e-5,165,213.825,80,0,4.885,15,1013.25,340.389,0.01,0.007
0.25,-4.666e-4,-0.093,-9.331,0.095,9.475,-8.227e-5,0,8.227e-5,180,0.016,1.645,22.175,120.893,9.788,84.053,0,0,0,2.8e4,1.35e4,19.962,0.106,NaN,2019.954,NaN,0.014,9.551e5,4.587,5.561e-4,0.678,0.002,0.343,0.215,0.12,NaN,NaN,NaN,NaN,NaN,NaN,NaN,NaN,1.283e-5,165,213.825,80,0,4.881,15,1013.25,340.389,0.01,0.007
0.26,-4.668e-4,-0.093,-9.337,0.095,9.481,-8.232e-5,0,8.232e-5,180,0.016,1.646,22.175,120.893,9.788,84.035,0,0,0,2.8e4,1.35e4,19.962,0.106,NaN,2019.952,NaN,0.015,9.72e5,4.429,5.803e-4,0.677,0.002,0.342,0.215,0.12,NaN,NaN,NaN,NaN,NaN,NaN,NaN,NaN,1.284e-5,165,213.825,80,0,4.967,15,1013.25,340.389,0.01,0.007
0.27,-4.667e-4,-0.093,-9.333,0.095,9.477,-8.229e-5,0,8.229e-5,180,0.016,1.646,22.175,120.893,9.788,84.016,0,0,0,2.8e4,1.35e4,19.962,0.106,NaN,2019.95,NaN,0.015,9.89e5,4.527,6.054e-4,0.676,0.002,0.341,0.215,0.12,NaN,NaN,NaN,NaN,NaN,NaN,NaN,NaN,1.283e-5,165,213.825,80,0,5.054,15,1013.25,340.389,0.01,0.007
0.28,-4.667e-4,-0.093,-9.335,0.095,9.479,-8.23e-5,0,8.23e-5,180,0.016,1.646,22.175,120.893,9.788,83.998,0,0,0,2.8e4,1.35e4,19.962,0.106,NaN,2019.949,NaN,0.015,1.006e6,4.488,6.308e-4,0.675,0.002,0.34,0.215,0.12,NaN,NaN,NaN,NaN,NaN,NaN,NaN,NaN,1.283e-5,165,213.825,80,0,5.14,15,1013.25,340.389,0.01,0.007
0.29,-4.665e-4,-0.093,-9.33,0.095,9.474,-8.226e-5,0,8.226e-5,180,0.016,1.645,22.175,120.893,9.788,83.98,0,0,0,2.8e4,1.35e4,19.962,0.106,NaN,2019.947,NaN,0.015,1.023e6,4.616,6.569e-4,0.674,0.002,0.339,0.215,0.12,NaN,NaN,NaN,NaN,NaN,NaN,NaN,NaN,1.283e-5,165,213.825,80,0,5.227,15,1013.25,340.389,0.01,0.008
0.3,-4.666e-4,-0.093,-9.333,0.095,9.477,-8.228e-5,0,8.228e-5,180,0.016,1.646,22.175,120.893,9.788,83.963,0,0,0,2.8e4,1.35e4,19.962,0.106,NaN,2019.945,NaN,0.016,1.04e6,4.548,6.832e-4,0.673,0.002,0.337,0.215,0.12,NaN,NaN,NaN,NaN,NaN,NaN,NaN,NaN,1.283e-5,165,213.825,80,0,5.313,15,1013.25,340.389,0.01,0.008
0.31,-4.664e-4,-0.093,-9.327,0.095,9.471,-8.223e-5,0,8.223e-5,180,0.016,1.645,22.175,120.893,9.788,83.952,0,0,0,2.8e4,1.35e4,19.962,0.106,NaN,2019.943,NaN,0.016,1.05e6,4.706,7.001e-4,0.672,0.002,0.337,0.215,0.12,NaN,NaN,NaN,NaN,NaN,NaN,NaN,NaN,1.282e-5,165,213.825,80,0,5.367,15,1013.25,340.389,0.01,0.008
0.32,-4.67e-4,-0.093,-9.34,0.095,9.484,-8.235e-5,0,8.235e-5,180,0.016,1.647,22.175,120.893,9.788,83.944,0,0,0,2.8e4,1.35e4,19.962,0.106,NaN,2019.942,NaN,0.016,1.061e6,4.332,7.164e-4,0.671,0.002,0.336,0.215,0.12,NaN,NaN,NaN,NaN,NaN,NaN,NaN,NaN,1.284e-5,165,213.825,80,0,5.421,15,1013.25,340.389,0.01,0.008
0.33,-4.667e-4,-0.093,-9.335,0.095,9.479,-8.23e-5,0,8.23e-5,180,0.016,1.646,22.175,120.893,9.788,83.934,0,0,0,2.8e4,1.35e4,19.962,0.106,NaN,2019.94,NaN,0.016,1.071e6,4.483,7.336e-4,0.671,0.002,0.335,0.215,0.12,NaN,NaN,NaN,NaN,NaN,NaN,NaN,NaN,1.283e-5,165,213.825,80,0,5.474,15,1013.25,340.389,0.01,0.008
0.34,-4.666e-4,-0.093,-9.332,0.095,9.476,-8.227e-5,0,8.227e-5,180,0.016,1.645,22.175,120.893,9.788,83.924,0,0,0,2.8e4,1.35e4,19.962,0.106,NaN,2019.938,NaN,0.016,1.082e6,4.57,7.509e-4,0.67,0.002,0.335,0.215,0.12,NaN,NaN,NaN,NaN,NaN,NaN,NaN,NaN,1.283e-5,165,213.825,80,0,5.528,15,1013.25,340.389,0.01,0.008
0.35,-4.669e-4,-0.093,-9.337,0.095,9.481,-8.232e-5,0,8.232e-5,180,0.016,1.646,22.175,120.893,9.788,83.915,0,0,0,2.8e4,1.35e4,19.962,0.106,NaN,2019.936,NaN,0.016,1.092e6,4.419,7.681e-4,0.669,0.002,0.334,0.215,0.12,NaN,NaN,NaN,NaN,NaN,NaN,NaN,NaN,1.284e-5,165,213.825,80,0,5.581,15,1013.25,340.389,0.01,0.009
0.36,-4.67e-4,-0.093,-9.341,0.095,9.485,-8.235e-5,0,8.235e-5,180,0.016,1.647,22.175,120.893,9.788,83.924,0,0,0,2.8e4,1.35e4,19.962,0.106,NaN,2019.935,NaN,0.016,1.083e6,4.317,7.515e-4,0.67,0.002,0.335,0.215,0.12,NaN,NaN,NaN,NaN,NaN,NaN,NaN,NaN,1.284e-5,165,213.825,80,0,5.531,15,1013.25,340.389,0.01,0.009
0.37,-4.667e-4,-0.093,-9.334,0.095,9.478,-8.229e-5,0,8.229e-5,180,0.016,1.646,22.175,120.893,9.788,83.932,0,0,0,2.8e4,1.35e4,19.962,0.106,NaN,2019.933,NaN,0.016,1.073e6,4.522,7.355e-4,0.671,0.002,0.335,0.215,0.12,NaN,NaN,NaN,NaN,NaN,NaN,NaN,NaN,1.283e-5,165,213.825,80,0,5.48,15,1013.25,340.389,0.01,0.009
0.38,-4.668e-4,-0.093,-9.337,0.095,9.481,-8.232e-5,0,8.232e-5,180,0.016,1.646,22.175,120.893,9.788,83.942,0,0,0,2.8e4,1.35e4,19.962,0.106,NaN,2019.931,NaN,0.016,1.063e6,4.433,7.192e-4,0.671,0.002,0.336,0.215,0.12,NaN,NaN,NaN,NaN,NaN,NaN,NaN,NaN,1.284e-5,165,213.825,80,0,5.429,15,1013.25,340.389,0.01,0.009
0.39,-4.664e-4,-0.093,-9.328,0.095,9.472,-8.224e-5,0,8.224e-5,180,0.016,1.645,22.175,120.893,9.788,83.95,0,0,0,2.8e4,1.35e4,19.962,0.106,NaN,2019.93,NaN,0.016,1.053e6,4.673,7.036e-4,0.672,0.002,0.337,0.215,0.12,NaN,NaN,NaN,NaN,NaN,NaN,NaN,NaN,1.282e-5,165,213.825,80,0,5.378,15,1013.25,340.389,0.01,0.009
0.4,-4.662e-4,-0.093,-9.323,0.095,9.467,-8.22e-5,0,8.22e-5,180,0.016,1.644,22.175,120.893,9.788,83.96,0,0,0,2.8e4,1.35e4,19.962,0.106,NaN,2019.928,NaN,0.016,1.043e6,4.812,6.88e-4,0.672,0.002,0.337,0.215,0.12,NaN,NaN,NaN,NaN,NaN,NaN,NaN,NaN,1.282e-5,165,213.825,80,0,5.328,15,1013.25,340.389,0.01,0.01
0.41,-4.665e-4,-0.093,-9.331,0.095,9.475,-8.226e-5,0,8.226e-5,180,0.016,1.645,22.175,120.893,9.788,83.975,0,0,0,2.8e4,1.35e4,19.962,0.106,NaN,2019.926,NaN,0.015,1.028e6,4.595,6.647e-4,0.673,0.002,0.338,0.215,0.12,NaN,NaN,NaN,NaN,NaN,NaN,NaN,NaN,1.283e-5,165,213.825,80,0,5.253,15,1013.25,340.389,0.01,0.01
0.42,-4.665e-4,-0.093,-9.329,0.095,9.473,-8.225e-5,0,8.225e-5,180,0.016,1.645,22.175,120.893,9.788,83.99,0,0,0,2.8e4,1.35e4,19.962,0.106,NaN,2019.924,NaN,0.015,1.013e6,4.638,6.42e-4,0.674,0.002,0.339,0.215,0.12,NaN,NaN,NaN,NaN,NaN,NaN,NaN,NaN,1.283e-5,165,213.825,80,0,5.178,15,1013.25,340.389,0.01,0.01
0.43,-4.662e-4,-0.093,-9.323,0.095,9.467,-8.22e-5,0,8.22e-5,180,0.016,1.644,22.175,120.893,9.788,84.004,0,0,0,2.8e4,1.35e4,19.962,0.106,NaN,2019.922,NaN,0.015,9.986e5,4.811,6.2e-4,0.675,0.002,0.34,0.215,0.12,NaN,NaN,NaN,NaN,NaN,NaN,NaN,NaN,1.282e-5,165,213.825,80,0,5.102,15,1013.25,340.389,0.01,0.01
0.44,-4.66e-4,-0.093,-9.32,0.095,9.463,-8.216e-5,0,8.216e-5,180,0.016,1.643,22.175,120.893,9.788,84.02,0,0,0,2.8e4,1.35e4,19.962,0.106,NaN,2019.921,NaN,0.015,9.838e5,4.919,5.982e-4,0.676,0.002,0.341,0.215,0.12,NaN,NaN,NaN,NaN,NaN,NaN,NaN,NaN,1.281e-5,165,213.825,80,0,5.027,15,1013.25,340.389,0.01,0.01
0.45,-4.666e-4,-0.093,-9.331,0.095,9.475,-8.227e-5,0,8.227e-5,180,0.016,1.645,22.175,120.893,9.788,84.037,0,0,0,2.8e4,1.35e4,19.961,0.106,NaN,2019.919,NaN,0.015,9.691e5,4.583,5.763e-4,0.677,0.002,0.342,0.215,0.12,NaN,NaN,NaN,NaN,NaN,NaN,NaN,NaN,1.283e-5,165,213.825,80,0,4.952,15,1013.25,340.389,0.01,0.01
0.46,-4.668e-4,-0.093,-9.337,0.095,9.481,-8.232e-5,0,8.232e-5,180,0.016,1.646,22.175,120.893,9.788,84.023,0,0,0,2.8e4,1.35e4,19.961,0.106,NaN,2019.917,NaN,0.015,9.829e5,4.429,5.962e-4,0.676,0.002,0.341,0.215,0.12,NaN,NaN,NaN,NaN,NaN,NaN,NaN,NaN,1.284e-5,165,213.825,80,0,5.023,15,1013.25,340.389,0.01,0.011
0.47,-4.668e-4,-0.093,-9.336,0.095,9.48,-8.231e-5,0,8.231e-5,180,0.016,1.646,22.175,120.893,9.788,84.008,0,0,0,2.8e4,1.35e4,19.961,0.106,NaN,2019.915,NaN,0.015,9.967e5,4.45,6.167e-4,0.675,0.002,0.34,0.215,0.12,NaN,NaN,NaN,NaN,NaN,NaN,NaN,NaN,1.284e-5,165,213.825,80,0,5.093,15,1013.25,340.389,0.01,0.011
0.48,-4.66e-4,-0.093,-9.32,0.095,9.464,-8.217e-5,0,8.217e-5,180,0.016,1.643,22.175,120.893,9.788,83.991,0,0,0,2.8e4,1.35e4,19.961,0.106,NaN,2019.914,NaN,0.015,1.01e6,4.905,6.381e-4,0.675,0.002,0.339,0.215,0.12,NaN,NaN,NaN,NaN,NaN,NaN,NaN,NaN,1.281e-5,165,213.825,80,0,5.163,15,1013.25,340.389,0.01,0.011
0.49,-4.663e-4,-0.093,-9.326,0.095,9.469,-8.222e-5,0,8.222e-5,180,0.016,1.644,22.175,120.893,9.788,83.978,0,0,0,2.8e4,1.35e4,19.961,0.106,NaN,2019.912,NaN,0.015,1.024e6,4.746,6.59e-4,0.674,0.002,0.338,0.215,0.12,NaN,NaN,NaN,NaN,NaN,NaN,NaN,NaN,1.282e-5,165,213.825,80,0,5.234,15,1013.25,340.389,0.01,0.011
0.5,-4.668e-4,-0.093,-9.335,0.095,9.479,-8.23e-5,0,8.23e-5,180,0.016,1.646,22.175,120.893,9.788,83.965,0,0,0,2.8e4,1.35e4,19.961,0.106,NaN,2019.91,NaN,0.016,1.038e6,4.47,6.802e-4,0.673,0.002,0.338,0.215,0.12,NaN,NaN,NaN,NaN,NaN,NaN,NaN,NaN,1.283e-5,165,213.825,80,0,5.304,15,1013.25,340.389,0.01,0.011
0.51,-4.664e-4,-0.093,-9.329,0.095,9.473,-8.225e-5,0,8.225e-5,180,0.016,1.645,22.175,120.893,9.788,83.966,0,0,0,2.8e4,1.35e4,19.961,0.106,NaN,2019.908,NaN,0.016,1.037e6,4.657,6.785e-4,0.673,0.002,0.338,0.215,0.12,NaN,NaN,NaN,NaN,NaN,NaN,NaN,NaN,1.283e-5,165,213.825,80,0,5.298,15,1013.25,340.389,0.01,0.011
0.52,-4.656e-4,-0.093,-9.313,0.095,9.456,-8.21e-5,0,8.21e-5,180,0.016,1.642,22.175,120.893,9.788,83.965,0,0,0,2.8e4,1.35e4,19.961,0.106,NaN,2019.906,NaN,0.016,1.036e6,5.115,6.772e-4,0.673,0.002,0.338,0.215,0.12,NaN,NaN,NaN,NaN,NaN,NaN,NaN,NaN,1.28e-5,165,213.825,80,0,5.292,15,1013.25,340.389,0.01,0.012
0.53,-4.652e-4,-0.093,-9.305,0.094,9.448,-8.203e-5,0,8.203e-5,180,0.016,1.641,22.175,120.893,9.788,83.966,0,0,0,2.8e4,1.35e4,19.961,0.106,NaN,2019.904,NaN,0.015,1.034e6,5.339,6.756e-4,0.673,0.002,0.338,0.215,0.12,NaN,NaN,NaN,NaN,NaN,NaN,NaN,NaN,1.279e-5,165,213.825,80,0,5.285,15,1013.25,340.389,0.01,0.012
0.54,-4.665e-4,-0.093,-9.329,0.095,9.473,-8.225e-5,0,8.225e-5,180,0.016,1.645,22.175,120.893,9.788,83.97,0,0,0,2.8e4,1.35e4,19.961,0.106,NaN,2019.903,NaN,0.015,1.033e6,4.638,6.728e-4,0.673,0.002,0.338,0.215,0.12,NaN,NaN,NaN,NaN,NaN,NaN,NaN,NaN,1.283e-5,165,213.825,80,0,5.279,15,1013.25,340.389,0.01,0.017
0.55,-4.662e-4,-0.093,-9.323,0.095,9.467,-8.219e-5,0,8.219e-5,180,0.016,1.644,22.175,120.893,9.788,83.97,0,0,0,2.8e4,1.35e4,19.961,0.106,NaN,2019.901,NaN,0.015,1.032e6,4.82,6.711e-4,0.673,0.002,0.338,0.215,0.12,NaN,NaN,NaN,NaN,NaN,NaN,NaN,NaN,1.282e-5,165,213.825,80,0,5.273,15,1013.25,340.389,0.01,0.018
0.56,-4.656e-4,-0.093,-9.312,0.095,9.455,-8.21e-5,0,8.21e-5,180,0.016,1.642,22.175,120.893,9.788,83.958,0,0,0,2.8e4,1.35e4,19.961,0.106,NaN,2019.899,NaN,0.016,1.043e6,5.14,6.892e-4,0.672,0.002,0.337,0.215,0.12,NaN,NaN,NaN,NaN,NaN,NaN,NaN,NaN,1.28e-5,165,213.825,80,0,5.33,15,1013.25,340.389,0.01,0.018
0.57,-4.655e-4,-0.093,-9.311,0.095,9.455,-8.209e-5,0,8.209e-5,180,0.016,1.642,22.175,120.893,9.788,83.947,0,0,0,2.8e4,1.35e4,19.961,0.106,NaN,2019.897,NaN,0.016,1.055e6,5.164,7.071e-4,0.672,0.002,0.337,0.215,0.12,NaN,NaN,NaN,NaN,NaN,NaN,NaN,NaN,1.28e-5,165,213.825,80,0,5.388,15,1013.25,340.389,0.01,0.018
0.58,-4.656e-4,-0.093,-9.312,0.095,9.456,-8.21e-5,0,8.21e-5,180,0.016,1.642,22.175,120.893,9.788,83.936,0,0,0,2.8e4,1.35e4,19.961,0.106,NaN,2019.895,NaN,0.016,1.066e6,5.125,7.252e-4,0.671,0.002,0.336,0.215,0.12,NaN,NaN,NaN,NaN,NaN,NaN,NaN,NaN,1.28e-5,165,213.825,80,0,5.445,15,1013.25,340.389,0.01,0.018
0.59,-4.653e-4,-0.093,-9.306,0.094,9.45,-8.205e-5,0,8.205e-5,180,0.016,1.641,22.175,120.893,9.788,83.925,0,0,0,2.8e4,1.35e4,19.961,0.106,NaN,2019.893,NaN,0.016,1.077e6,5.296,7.438e-4,0.67,0.002,0.335,0.215,0.12,NaN,NaN,NaN,NaN,NaN,NaN,NaN,NaN,1.279e-5,165,213.825,80,0,5.502,15,1013.25,340.389,0.01,0.018
0.6,-4.648e-4,-0.093,-9.297,0.094,9.44,-8.196e-5,0,8.196e-5,180,0.016,1.639,22.175,120.893,9.788,83.914,0,0,0,2.8e4,1.349e4,19.961,0.106,NaN,2019.891,NaN,0.016,1.088e6,5.567,7.627e-4,0.67,0.002,0.334,0.215,0.12,NaN,NaN,NaN,NaN,NaN,NaN,NaN,NaN,1.278e-5,165,213.825,80,0,5.56,15,1013.25,340.389,0.01,0.019
0.61,-4.646e-4,-0.093,-9.291,0.094,9.435,-8.192e-5,0,8.192e-5,180,0.016,1.638,22.175,120.893,9.788,83.902,0,0,0,2.8e4,1.349e4,19.961,0.106,NaN,2019.889,NaN,0.016,1.101e6,5.717,7.849e-4,0.669,0.002,0.334,0.215,0.12,NaN,NaN,NaN,NaN,NaN,NaN,NaN,NaN,1.277e-5,165,213.825,80,0,5.627,15,1013.25,340.389,0.01,0.019
0.62,-4.652e-4,-0.093,-9.304,0.094,9.447,-8.203e-5,0,8.203e-5,180,0.016,1.641,22.175,120.893,9.788,83.892,0,0,0,2.8e4,1.349e4,19.961,0.106,NaN,2019.887,NaN,0.017,1.115e6,5.366,8.067e-4,0.668,0.002,0.333,0.215,0.12,NaN,NaN,NaN,NaN,NaN,NaN,NaN,NaN,1.279e-5,165,213.825,80,0,5.694,15,1013.25,340.389,0.01,0.019
0.63,-4.643e-4,-0.093,-9.287,0.094,9.43,-8.188e-5,0,8.188e-5,180,0.016,1.638,22.175,120.893,9.788,83.879,0,0,0,2.799e4,1.349e4,19.961,0.106,NaN,2019.884,NaN,0.017,1.128e6,5.844,8.3e-4,0.667,0.002,0.332,0.215,0.12,NaN,NaN,NaN,NaN,NaN,NaN,NaN,NaN,1.277e-5,165,213.825,80,0,5.761,15,1013.25,340.389,0.01,0.019
0.64,-4.645e-4,-0.093,-9.289,0.094,9.432,-8.19e-5,0,8.19e-5,180,0.016,1.638,22.175,120.893,9.788,83.869,0,0,0,2.799e4,1.349e4,19.961,0.106,NaN,2019.882,NaN,0.017,1.141e6,5.786,8.529e-4,0.667,0.002,0.331,0.215,0.12,NaN,NaN,NaN,NaN,NaN,NaN,NaN,NaN,1.277e-5,165,213.825,80,0,5.829,15,1013.25,340.389,0.01,0.019
0.65,-4.641e-4,-0.093,-9.283,0.094,9.426,-8.184e-5,0,8.184e-5,180,0.016,1.637,22.175,120.893,9.788,83.858,0,0,0,2.799e4,1.349e4,19.961,0.106,NaN,2019.88,NaN,0.017,1.154e6,5.968,8.764e-4,0.666,0.002,0.331,0.215,0.12,NaN,NaN,NaN,NaN,NaN,NaN,NaN,NaN,1.276e-5,165,213.825,80,0,5.896,15,1013.25,340.389,0.01,0.02
0.66,-4.631e-4,-0.093,-9.262,0.094,9.405,-8.166e-5,0,8.166e-5,180,0.016,1.633,22.175,120.893,9.788,83.867,0,0,0,2.799e4,1.349e4,19.961,0.106,NaN,2019.877,NaN,0.017,1.14e6,6.551,8.524e-4,0.667,0.002,0.331,0.215,0.12,NaN,NaN,NaN,NaN,NaN,NaN,NaN,NaN,1.273e-5,165,213.825,80,0,5.824,15,1013.25,340.389,0.01,0.02
0.67,-4.628e-4,-0.093,-9.256,0.094,9.399,-8.161e-5,0,8.161e-5,180,0.016,1.632,22.175,120.893,9.788,83.878,0,0,0,2.799e4,1.349e4,19.961,0.106,NaN,2019.875,NaN,0.017,1.126e6,6.72,8.282e-4,0.667,0.002,0.332,0.215,0.12,NaN,NaN,NaN,NaN,NaN,NaN,NaN,NaN,1.273e-5,165,213.825,80,0,5.752,15,1013.25,340.389,0.01,0.02
0.68,-4.618e-4,-0.092,-9.236,0.094,9.378,-8.143e-5,0,8.143e-5,180,0.016,1.629,22.175,120.893,9.788,83.888,0,0,0,2.799e4,1.349e4,19.961,0.106,NaN,2019.872,NaN,0.017,1.112e6,7.299,8.049e-4,0.668,0.002,0.333,0.215,0.12,NaN,NaN,NaN,NaN,NaN,NaN,NaN,NaN,1.27e-5,165,213.825,80,0,5.681,15,1013.25,340.389,0.01,0.02
0.69,-4.615e-4,-0.092,-9.23,0.094,9.372,-8.137e-5,0,8.137e-5,180,0.016,1.627,22.175,120.893,9.788,83.899,0,0,0,2.799e4,1.349e4,19.961,0.106,NaN,2019.869,NaN,0.016,1.098e6,7.467,7.813e-4,0.669,0.002,0.334,0.215,0.12,NaN,NaN,NaN,NaN,NaN,NaN,NaN,NaN,1.269e-5,165,213.825,80,0,5.609,15,1013.25,340.389,0.01,0.02
0.7,-4.606e-4,-0.092,-9.213,0.094,9.355,-8.122e-5,0,8.122e-5,180,0.016,1.624,22.175,120.893,9.788,83.91,0,0,0,2.799e4,1.349e4,19.961,0.106,NaN,2019.866,NaN,0.016,1.084e6,7.951,7.585e-4,0.67,0.002,0.335,0.215,0.12,NaN,NaN,NaN,NaN,NaN,NaN,NaN,NaN,1.267e-5,165,213.825,80,0,5.537,15,1013.25,340.389,0.01,0.02
0.71,-4.589e-4,-0.092,-9.178,0.093,9.32,-8.092e-5,0,8.092e-5,180,0.016,1.618,22.175,120.893,9.788,83.901,0,0,0,2.799e4,1.349e4,19.96,0.106,NaN,2019.863,NaN,0.016,1.09e6,8.938,7.699e-4,0.67,0.002,0.334,0.215,0.12,NaN,NaN,NaN,NaN,NaN,NaN,NaN,NaN,1.262e-5,165,213.825,80,0,5.568,15,1013.25,340.389,0.01,0.021
0.72,-4.584e-4,-0.092,-9.167,0.093,9.308,-8.082e-5,0,8.082e-5,180,0.016,1.616,22.175,120.893,9.788,83.894,0,0,0,2.799e4,1.349e4,19.96,0.106,NaN,2019.859,NaN,0.016,1.096e6,9.255,7.805e-4,0.669,0.002,0.334,0.215,0.12,NaN,NaN,NaN,NaN,NaN,NaN,NaN,NaN,1.26e-5,165,213.825,80,0,5.599,15,1013.25,340.389,0.01,0.021
0.73,-4.567e-4,-0.091,-9.134,0.093,9.275,-8.053e-5,0,8.053e-5,180,0.016,1.611,22.175,120.893,9.788,83.886,0,0,0,2.799e4,1.349e4,19.96,0.106,NaN,2019.855,NaN,0.017,1.102e6,10.185,7.92e-4,0.669,0.002,0.334,0.215,0.12,NaN,NaN,NaN,NaN,NaN,NaN,NaN,NaN,1.256e-5,165,213.825,80,0,5.63,15,1013.25,340.389,0.01,0.021
0.74,-4.548e-4,-0.091,-9.096,0.092,9.236,-8.019e-5,0,8.019e-5,180,0.016,1.604,22.175,120.893,9.788,83.877,0,0,0,2.799e4,1.349e4,19.96,0.106,NaN,2019.851,NaN,0.017,1.108e6,11.275,8.037e-4,0.668,0.002,0.333,0.215,0.12,NaN,NaN,NaN,NaN,NaN,NaN,NaN,NaN,1.251e-5,165,213.825,80,0,5.661,15,1013.25,340.389,0.01,0.021
0.75,-4.53e-4,-0.091,-9.059,0.092,9.199,-7.987e-5,0,7.987e-5,180,0.016,1.597,22.175,120.893,9.788,83.868,0,0,0,2.799e4,1.349e4,19.96,0.106,NaN,2019.846,NaN,0.017,1.114e6,12.322,8.156e-4,0.668,0.002,0.333,0.215,0.12,NaN,NaN,NaN,NaN,NaN,NaN,NaN,NaN,1.245e-5,165,213.825,80,0,5.691,15,1013.25,340.389,0.01,0.021
0.76,-4.506e-4,-0.09,-9.012,0.092,9.151,-7.945e-5,0,7.945e-5,180,0.016,1.589,22.175,120.893,9.788,83.869,0,0,0,2.799e4,1.349e4,19.96,0.106,NaN,2019.841,NaN,0.017,1.107e6,13.663,8.056e-4,0.669,0.002,0.333,0.215,0.12,NaN,NaN,NaN,NaN,NaN,NaN,NaN,NaN,1.239e-5,165,213.825,80,0,5.656,15,1013.25,340.389,0.01,0.022
0.77,-4.495e-4,-0.09,-8.989,0.091,9.128,-7.925e-5,0,7.925e-5,180,0.016,1.585,22.175,120.893,9.788,83.872,0,0,0,2.799e4,1.349e4,19.96,0.106,NaN,2019.836,NaN,0.016,1.1e6,14.302,7.946e-4,0.669,0.002,0.334,0.215,0.12,NaN,NaN,NaN,NaN,NaN,NaN,NaN,NaN,1.236e-5,165,213.825,80,0,5.621,15,1013.25,340.389,0.01,0.022
0.78,-4.469e-4,-0.089,-8.938,0.091,9.076,-7.88e-5,0,7.88e-5,180,0.016,1.576,22.175,120.893,9.788,83.873,0,0,0,2.799e4,1.349e4,19.96,0.106,NaN,2019.83,NaN,0.016,1.093e6,15.77,7.849e-4,0.669,0.002,0.334,0.215,0.12,NaN,NaN,NaN,NaN,NaN,NaN,NaN,NaN,1.229e-5,165,213.825,80,0,5.585,15,1013.25,340.389,0.01,0.022
0.79,-4.449e-4,-0.089,-8.897,0.09,9.034,-7.844e-5,0,7.844e-5,180,0.016,1.569,22.175,120.893,9.788,83.874,0,0,0,2.799e4,1.349e4,19.96,0.106,NaN,2019.823,NaN,0.016,1.086e6,16.927,7.749e-4,0.67,0.002,0.335,0.215,0.12,NaN,NaN,NaN,NaN,NaN,NaN,NaN,NaN,1.223e-5,165,213.825,80,0,5.55,15,1013.25,340.389,0.01,0.022
0.8,-4.428e-4,-0.089,-8.855,0.09,8.992,-7.807e-5,0,7.807e-5,180,0.016,1.561,22.175,120.893,9.788,83.876,0,0,0,2.799e4,1.349e4,19.96,0.106,NaN,2019.816,NaN,0.016,1.079e6,18.121,7.649e-4,0.67,0.002,0.335,0.215,0.12,NaN,NaN,NaN,NaN,NaN,NaN,NaN,NaN,1.217e-5,165,213.825,80,0,5.514,15,1013.25,340.389,0.01,0.022
0.81,-4.404e-4,-0.088,-8.809,0.089,8.945,-7.766e-5,0,7.766e-5,180,0.016,1.553,22.175,120.893,9.788,83.877,0,0,0,2.799e4,1.349e4,19.96,0.106,NaN,2019.809,NaN,0.016,1.073e6,19.438,7.557e-4,0.671,0.002,0.335,0.215,0.12,NaN,NaN,NaN,NaN,NaN,NaN,NaN,NaN,1.211e-5,165,213.825,80,0,5.48,15,1013.25,340.389,0.01,0.023
0.82,-4.392e-4,-0.088,-8.783,0.089,8.919,-7.744e-5,0,7.744e-5,180,0.015,1.549,22.175,120.893,9.788,83.88,0,0,0,2.799e4,1.349e4,19.959,0.106,NaN,2019.801,NaN,0.016,1.066e6,20.155,7.457e-4,0.671,0.002,0.336,0.215,0.12,NaN,NaN,NaN,NaN,NaN,NaN,NaN,NaN,1.208e-5,165,213.825,80,0,5.447,15,1013.25,340.389,0.01,0.023
0.83,-4.343e-4,-0.087,-8.687,0.088,8.821,-7.659e-5,0,7.659e-5,180,0.015,1.532,22.175,120.893,9.788,83.875,0,0,0,2.799e4,1.349e4,19.959,0.106,NaN,2019.793,NaN,0.016,1.06e6,22.899,7.386e-4,0.671,0.002,0.336,0.215,0.12,NaN,NaN,NaN,NaN,NaN,NaN,NaN,NaN,1.194e-5,165,213.825,80,0,5.413,15,1013.25,340.389,0.01,0.023
0.84,-4.256e-4,-0.085,-8.511,0.086,8.643,-7.504e-5,0,7.504e-5,180,0.015,1.501,22.175,120.893,9.788,83.862,0,0,0,2.799e4,1.349e4,19.959,0.106,NaN,2019.782,NaN,0.016,1.053e6,27.886,7.344e-4,0.672,0.002,0.337,0.215,0.12,NaN,NaN,NaN,NaN,NaN,NaN,NaN,NaN,1.17e-5,165,213.825,80,0,5.379,15,1013.25,340.389,0.01,0.023
0.85,-4.183e-4,-0.084,-8.365,0.085,8.494,-7.375e-5,0,7.375e-5,180,0.015,1.475,22.175,120.893,9.788,83.852,0,0,0,2.799e4,1.349e4,19.959,0.106,NaN,2019.77,NaN,0.016,1.046e6,32.036,7.292e-4,0.672,0.002,0.337,0.215,0.12,NaN,NaN,NaN,NaN,NaN,NaN,NaN,NaN,1.15e-5,165,213.825,80,0,5.345,15,1013.25,340.389,0.01,0.023
0.86,-4.106e-4,-0.082,-8.212,0.083,8.339,-7.24e-5,0,7.24e-5,180,0.014,1.448,22.175,120.893,9.788,83.84,0,0,0,2.799e4,1.349e4,19.959,0.106,NaN,2019.756,NaN,0.016,1.041e6,36.392,7.268e-4,0.673,0.002,0.337,0.215,0.12,NaN,NaN,NaN,NaN,NaN,NaN,NaN,NaN,1.129e-5,165,213.825,80,0,5.319,15,1013.25,340.389,0.01,0.023
0.87,-4.032e-4,-0.081,-8.065,0.082,8.189,-7.11e-5,0,7.11e-5,180,0.014,1.422,22.175,120.893,9.788,83.828,0,0,0,2.799e4,1.349e4,19.958,0.106,NaN,2019.74,NaN,0.016,1.036e6,40.581,7.243e-4,0.673,0.002,0.338,0.215,0.12,NaN,NaN,NaN,NaN,NaN,NaN,NaN,NaN,1.109e-5,165,213.825,80,0,5.294,15,1013.25,340.389,0.01,0.024
0.88,-3.96e-4,-0.079,-7.92,0.08,8.043,-6.983e-5,0,6.983e-5,180,0.014,1.397,22.175,120.893,9.788,83.817,0,0,0,2.799e4,1.349e4,19.958,0.106,NaN,2019.723,NaN,0.015,1.031e6,44.682,7.216e-4,0.673,0.002,0.338,0.215,0.12,NaN,NaN,NaN,NaN,NaN,NaN,NaN,NaN,1.089e-5,165,213.825,80,0,5.268,15,1013.25,340.389,0.01,0.024
0.89,-3.897e-4,-0.078,-7.793,0.079,7.913,-6.871e-5,0,6.871e-5,180,0.014,1.374,22.175,120.893,9.788,83.807,0,0,0,2.799e4,1.349e4,19.958,0.106,NaN,2019.705,NaN,0.015,1.026e6,48.294,7.183e-4,0.674,0.002,0.338,0.215,0.12,NaN,NaN,NaN,NaN,NaN,NaN,NaN,NaN,1.071e-5,165,213.825,80,0,5.243,15,1013.25,340.389,0.01,0.024
0.9,-3.836e-4,-0.077,-7.671,0.078,7.79,-6.763e-5,0,6.763e-5,180,0.014,1.353,22.175,120.893,9.788,83.798,0,0,0,2.799e4,1.349e4,19.957,0.106,NaN,2019.685,NaN,0.015,1.021e6,51.752,7.148e-4,0.674,0.002,0.339,0.215,0.12,NaN,NaN,NaN,NaN,NaN,NaN,NaN,NaN,1.055e-5,165,213.825,80,0,5.217,15,1013.25,340.389,0.01,0.024
0.91,-3.755e-4,-0.075,-7.511,0.076,7.626,-6.622e-5,0,6.622e-5,180,0.013,1.324,22.175,120.893,9.788,83.788,0,0,0,2.798e4,1.348e4,19.957,0.106,NaN,2019.664,NaN,0.015,1.012e6,56.319,7.054e-4,0.674,0.002,0.339,0.215,0.12,NaN,NaN,NaN,NaN,NaN,NaN,NaN,NaN,1.033e-5,165,213.825,80,0,5.168,15,1013.25,340.389,0.01,0.024
0.92,-3.677e-4,-0.074,-7.355,0.075,7.468,-6.484e-5,0,6.484e-5,180,0.013,1.297,22.175,120.893,9.788,83.778,0,0,0,2.798e4,1.348e4,19.957,0.106,NaN,2019.641,NaN,0.015,1.002e6,60.748,6.959e-4,0.675,0.002,0.34,0.215,0.12,NaN,NaN,NaN,NaN,NaN,NaN,NaN,NaN,1.011e-5,165,213.825,80,0,5.119,15,1013.25,340.389,0.01,0.024
0.93,-3.561e-4,-0.071,-7.121,0.072,7.231,-6.278e-5,0,6.278e-5,180,0.013,1.256,22.175,120.893,9.788,83.759,0,0,0,2.798e4,1.348e4,19.956,0.106,NaN,2019.615,NaN,0.015,9.926e5,67.387,6.894e-4,0.676,0.002,0.341,0.215,0.12,NaN,NaN,NaN,NaN,NaN,NaN,NaN,NaN,9.79e-6,165,213.825,80,0,5.07,15,1013.25,340.389,0.01,0.025
0.94,-3.418e-4,-0.068,-6.837,0.069,6.942,-6.028e-5,0,6.028e-5,180,0.012,1.206,22.175,120.893,9.788,83.735,0,0,0,2.798e4,1.348e4,19.956,0.106,NaN,2019.586,NaN,0.015,9.831e5,75.455,6.847e-4,0.676,0.002,0.341,0.215,0.12,NaN,NaN,NaN,NaN,NaN,NaN,NaN,NaN,9.4e-6,165,213.825,80,0,5.021,15,1013.25,340.389,0.01,0.025
0.95,-3.257e-4,-0.065,-6.515,0.066,6.615,-5.744e-5,0,5.744e-5,180,0.011,1.149,22.175,120.893,9.788,83.705,0,0,0,2.798e4,1.348e4,19.955,0.106,NaN,2019.554,NaN,0.015,9.735e5,84.603,6.815e-4,0.677,0.002,0.342,0.215,0.12,NaN,NaN,NaN,NaN,NaN,NaN,NaN,NaN,8.957e-6,165,213.825,80,0,4.972,15,1013.25,340.389,0.01,0.025
0.96,-3.058e-4,-0.061,-6.116,0.062,6.21,-5.392e-5,0,5.392e-5,180,0.011,1.078,22.175,120.893,9.788,83.661,0,0,0,2.798e4,1.348e4,19.954,0.106,NaN,2019.517,NaN,0.015,9.701e5,95.934,6.909e-4,0.677,0.002,0.342,0.215,0.12,NaN,NaN,NaN,NaN,NaN,NaN,NaN,NaN,8.408e-6,165,213.825,80,0,4.954,15,1013.25,340.389,0.01,0.025
0.97,-2.857e-4,-0.057,-5.714,0.058,5.803,-5.038e-5,0,5.038e-5,180,0.01,1.008,22.175,120.893,9.788,83.616,0,0,0,2.798e4,1.348e4,19.954,0.106,NaN,2019.476,NaN,0.014,9.667e5,107.326,7.005e-4,0.678,0.002,0.342,0.215,0.12,NaN,NaN,NaN,NaN,NaN,NaN,NaN,NaN,7.856e-6,165,213.825,80,0,4.936,15,1013.25,340.389,0.01,0.025
0.98,-2.598e-4,-0.052,-5.196,0.053,5.277,-4.581e-5,0,4.581e-5,180,0.009,0.916,22.175,120.893,9.788,83.558,0,0,0,2.797e4,1.347e4,19.953,0.106,NaN,2019.43,NaN,0.014,9.633e5,122.033,7.147e-4,0.678,0.002,0.343,0.215,0.12,NaN,NaN,NaN,NaN,NaN,NaN,NaN,NaN,7.144e-6,165,213.825,80,0,4.918,15,1013.25,340.389,0.01,0.026
0.99,-2.264e-4,-0.045,-4.527,0.046,4.597,-3.992e-5,0,3.992e-5,180,0.008,0.798,22.175,120.893,9.788,83.481,0,0,0,2.797e4,1.347e4,19.952,0.106,NaN,2019.376,NaN,0.014,9.599e5,141.022,7.35e-4,0.678,0.002,0.343,0.215,0.12,NaN,NaN,NaN,NaN,NaN,NaN,NaN,NaN,6.225e-6,165,213.825,80,0,4.9,15,1013.25,340.389,0.01,0.026
1,-1.775e-4,-0.035,-3.549,0.036,3.604,-3.129e-5,0,3.129e-5,180,0.006,0.626,22.175,120.893,9.788,83.367,0,0,0,2.797e4,1.347e4,19.951,0.106,NaN,2019.312,NaN,0.014,9.566e5,168.795,7.683e-4,0.678,0.002,0.343,0.215,0.12,NaN,NaN,NaN,NaN,NaN,NaN,NaN,NaN,4.88e-6,165,213.825,80,0,4.882,15,1013.25,340.389,0.01,0.026
1.01,-1.08e-4,-0.022,-2.16,0.022,2.193,-1.905e-5,0,1.905e-5,180,0.004,0.381,22.175,120.893,9.788,83.2,0,0,0,2.796e4,1.346e4,19.949,0.106,NaN,2019.232,NaN,0.014,9.659e5,208.221,8.416e-4,0.678,0.003,0.342,0.215,0.12,NaN,NaN,NaN,NaN,NaN,NaN,NaN,NaN,2.97e-6,165,213.825,80,0,4.928,15,1013.25,340.389,0.01,0.026
1.02,-4.34e-5,-0.009,-0.867,0.009,0.88,-7.652e-6,0,7.652e-6,180,0.002,0.153,22.175,120.893,9.788,83.048,0,0,0,2.796e4,1.346e4,19.948,0.106,NaN,2019.139,NaN,0.015,9.752e5,244.886,9.144e-4,0.677,0.003,0.342,0.215,0.12,NaN,NaN,NaN,NaN,NaN,NaN,NaN,NaN,1.193e-6,165,213.825,80,0,4.974,15,1013.25,340.389,0.01,0.026
1.03,2.651e-5,0.005,0.531,0.005,0.54,4.675e-6,0,4.675e-6,0,9.355e-4,0.094,22.175,120.893,9.788,82.886,0,0,0,2.795e4,1.345e4,19.946,0.106,NaN,2019.03,NaN,0.015,9.846e5,284.538,9.959e-4,0.676,0.003,0.341,0.215,0.12,NaN,NaN,NaN,NaN,NaN,NaN,NaN,NaN,7.294e-7,165,213.825,80,0,5.02,15,1013.25,340.389,0.01,0.026
1.04,1.812e-4,0.026,2.035,0.026,2.066,3.196e-5,0,3.196e-5,0,0.005,0.359,22.175,120.893,9.788,82.655,0,0,0,2.795e4,1.345e4,19.943,0.106,NaN,2018.905,NaN,0.015,9.941e5,327.142,0.001,0.676,0.003,0.341,0.215,0.12,NaN,NaN,NaN,NaN,NaN,NaN,NaN,NaN,3.525e-6,165,213.825,80,0,5.066,15,1013.25,340.389,0.01,0.027
1.05,6.197e-4,0.062,3.643,0.063,3.699,1.093e-4,0,1.093e-4,0,0.011,0.642,22.175,120.893,9.788,82.247,0,0,0,2.794e4,1.344e4,19.941,0.106,NaN,2018.763,NaN,0.015,1.004e6,372.693,0.001,0.675,0.004,0.34,0.215,0.12,NaN,NaN,NaN,NaN,NaN,NaN,NaN,NaN,8.532e-6,165,213.825,80,0,5.112,15,1013.25,340.389,0.01,0.027
1.06,0.002,0.118,5.603,0.12,5.689,2.681e-4,0,2.681e-4,0,0.021,0.988,22.175,120.893,9.788,81.629,0,0,0,2.793e4,1.343e4,19.938,0.106,NaN,2018.599,NaN,0.015,1.014e6,428.171,0.002,0.674,0.005,0.339,0.215,0.12,NaN,NaN,NaN,NaN,NaN,NaN,NaN,NaN,1.623e-5,165,213.825,80,0,5.155,15,1013.25,340.389,0.01,0.027
1.07,0.003,0.193,7.537,0.196,7.653,5.426e-4,0,5.426e-4,0,0.034,1.329,22.175,120.893,9.788,80.81,0,0,0,2.792e4,1.342e4,19.935,0.106,NaN,2018.415,NaN,0.015,1.025e6,482.882,0.002,0.674,0.006,0.338,0.215,0.12,NaN,NaN,NaN,NaN,NaN,NaN,NaN,NaN,2.659e-5,165,213.825,80,0,5.198,15,1013.25,340.389,0.01,0.027
1.08,0.005,0.291,9.756,0.295,9.907,9.696e-4,0,9.696e-4,0,0.051,1.72,22.175,120.893,9.788,79.767,0,0,0,2.791e4,1.341e4,19.931,0.106,NaN,2018.206,NaN,0.016,1.037e6,545.617,0.003,0.673,0.009,0.338,0.215,0.12,NaN,NaN,NaN,NaN,NaN,NaN,NaN,NaN,4e-5,165,213.825,80,0,5.241,15,1013.249,340.389,0.01,0.027
1.09,0.009,0.414,12.278,0.42,12.467,0.002,0,0.002,0,0.073,2.165,22.175,120.893,9.788,78.48,0,0,0,2.79e4,1.34e4,19.927,0.106,NaN,2017.969,NaN,0.016,1.05e6,616.859,0.005,0.672,0.012,0.337,0.215,0.12,NaN,NaN,NaN,NaN,NaN,NaN,NaN,NaN,5.687e-5,165,213.825,80,0,5.284,15,1013.249,340.389,0.01,0.028
1.1,0.014,0.565,15.164,0.574,15.398,0.002,0,0.002,0,0.1,2.674,22.175,120.893,9.788,76.923,0,0,0,2.789e4,1.339e4,19.922,0.106,NaN,2017.702,NaN,0.016,1.064e6,698.307,0.007,0.671,0.017,0.336,0.215,0.12,NaN,NaN,NaN,NaN,NaN,NaN,NaN,NaN,7.771e-5,165,213.825,80,0,5.327,15,1013.248,340.389,0.01,0.028
1.11,0.02,0.747,18.204,0.759,18.485,0.004,0,0.004,0,0.132,3.21,22.175,120.893,9.788,75.086,0,0,0,2.788e4,1.338e4,19.917,0.106,NaN,2017.401,NaN,0.016,1.08e6,784.022,0.01,0.67,0.025,0.335,0.215,0.12,NaN,NaN,NaN,NaN,NaN,NaN,NaN,NaN,1.027e-4,165,213.825,80,0,5.361,15,1013.248,340.389,0.01,0.028
1.12,0.029,0.96,21.324,0.975,21.653,0.005,0,0.005,0,0.169,3.76,22.175,120.893,9.788,72.993,0,0,0,2.786e4,1.336e4,19.911,0.106,NaN,2017.066,NaN,0.016,1.098e6,871.849,0.015,0.669,0.036,0.334,0.215,0.12,NaN,NaN,NaN,NaN,NaN,NaN,NaN,NaN,1.32e-4,165,213.825,80,0,5.395,15,1013.247,340.389,0.01,0.028
1.13,0.04,1.205,24.498,1.224,24.876,0.007,0,0.007,0,0.213,4.32,22.175,120.893,9.788,70.664,0,0,0,2.784e4,1.334e4,19.904,0.106,NaN,2016.696,NaN,0.017,1.12e6,961.049,0.022,0.668,0.052,0.333,0.215,0.12,NaN,NaN,NaN,NaN,NaN,NaN,NaN,NaN,1.657e-4,165,213.825,80,0,5.428,15,1013.245,340.389,0.01,0.028
1.14,0.053,1.479,27.389,1.502,27.811,0.009,0,0.009,0,0.261,4.829,22.175,120.893,9.788,68.16,0,0,0,2.782e4,1.332e4,19.897,0.106,NaN,2016.295,NaN,0.017,1.145e6,1042.073,0.032,0.666,0.072,0.331,0.215,0.12,NaN,NaN,NaN,NaN,NaN,NaN,NaN,NaN,2.033e-4,165,213.825,80,0,5.462,15,1013.244,340.389,0.01,0.028
1.15,0.07,1.778,29.893,1.805,30.354,0.012,0,0.012,0,0.313,5.271,22.175,120.893,9.788,65.549,0,0,0,2.78e4,1.33e4,19.889,0.106,NaN,2015.866,NaN,0.018,1.175e6,1112.029,0.046,0.665,0.097,0.329,0.215,0.12,NaN,NaN,NaN,NaN,NaN,NaN,NaN,NaN,2.444e-4,165,213.825,80,0,5.496,15,1013.242,340.389,0.01,0.029
1.16,0.089,2.098,32.068,2.131,32.563,0.016,0,0.016,0,0.37,5.654,22.175,120.893,9.788,62.809,0,0,0,2.778e4,1.328e4,19.881,0.106,NaN,2015.413,NaN,0.018,1.205e6,1172.553,0.063,0.663,0.128,0.328,0.215,0.12,NaN,NaN,NaN,NaN,NaN,NaN,NaN,NaN,2.885e-4,165,213.825,80,0,5.505,14.999,1013.24,340.389,0.01,0.029
1.17,0.112,2.436,33.79,2.474,34.311,0.02,0,0.02,0,0.43,5.958,22.175,120.893,9.788,60.069,0,0,0,2.776e4,1.326e4,19.873,0.105,NaN,2014.941,NaN,0.019,1.238e6,1220.187,0.086,0.661,0.164,0.326,0.215,0.12,NaN,NaN,NaN,NaN,NaN,NaN,NaN,NaN,3.349e-4,165,213.825,80,0,5.514,14.999,1013.237,340.388,0.01,0.029
1.18,0.138,2.786,35.054,2.829,35.595,0.024,0,0.024,0,0.491,6.181,22.175,120.893,9.788,57.385,0,0,0,2.774e4,1.324e4,19.864,0.105,NaN,2014.455,NaN,0.019,1.276e6,1254.818,0.113,0.659,0.203,0.324,0.215,0.12,NaN,NaN,NaN,NaN,NaN,NaN,NaN,NaN,3.831e-4,165,213.825,80,0,5.523,14.999,1013.234,340.388,0.01,0.029
1.19,0.167,3.145,35.848,3.193,36.401,0.03,0,0.03,0,0.554,6.321,22.175,120.893,9.788,54.805,0,0,0,2.771e4,1.321e4,19.855,0.105,NaN,2013.959,NaN,0.02,1.318e6,1276.135,0.145,0.657,0.245,0.322,0.215,0.12,NaN,NaN,NaN,NaN,NaN,NaN,NaN,NaN,4.323e-4,165,213.825,80,0,5.533,14.999,1013.23,340.388,0.01,0.029
1.2,0.201,3.508,36.395,3.563,36.957,0.035,0,0.035,0,0.619,6.417,22.175,120.893,9.788,52.35,0,0,0,2.769e4,1.319e4,19.846,0.105,NaN,2013.458,NaN,0.02,1.362e6,1290.479,0.181,0.655,0.287,0.32,0.215,0.12,NaN,NaN,NaN,NaN,NaN,NaN,NaN,NaN,4.824e-4,165,213.825,80,0,5.542,14.999,1013.226,340.388,0.01,0.03
1.21,0.238,3.875,36.698,3.935,37.264,0.042,0,0.042,0,0.683,6.471,22.175,120.893,9.788,49.963,0,0,0,2.767e4,1.317e4,19.837,0.105,NaN,2012.952,NaN,0.021,1.407e6,1297.933,0.222,0.653,0.33,0.318,0.215,0.12,NaN,NaN,NaN,NaN,NaN,NaN,NaN,NaN,5.328e-4,165,213.825,80,0,5.534,14.998,1013.222,340.388,0.01,0.03
1.22,0.278,4.243,36.757,4.308,37.324,0.049,0,0.049,0,0.748,6.481,22.175,120.893,9.788,47.722,0,0,0,2.764e4,1.314e4,19.828,0.105,NaN,2012.446,NaN,0.022,1.454e6,1298.512,0.268,0.651,0.372,0.316,0.215,0.12,NaN,NaN,NaN,NaN,NaN,NaN,NaN,NaN,5.833e-4,165,213.825,80,0,5.526,14.998,1013.217,340.388,0.01,0.03
1.23,0.322,4.61,36.799,4.682,37.366,0.057,0,0.057,0,0.813,6.489,22.175,120.893,9.788,45.622,0,0,0,2.762e4,1.312e4,19.819,0.105,NaN,2011.938,NaN,0.023,1.503e6,1298.633,0.317,0.649,0.413,0.314,0.215,0.12,NaN,NaN,NaN,NaN,NaN,NaN,NaN,NaN,6.339e-4,165,213.825,80,0,5.519,14.998,1013.212,340.388,0.01,0.03
1.24,0.37,4.977,36.705,5.054,37.272,0.065,0,0.065,0,0.878,6.472,22.175,120.893,9.788,43.662,0,0,0,2.76e4,1.31e4,19.81,0.105,NaN,2011.431,NaN,0.023,1.554e6,1294.965,0.371,0.647,0.451,0.312,0.215,0.12,NaN,NaN,NaN,NaN,NaN,NaN,NaN,NaN,6.843e-4,165,213.825,80,0,5.511,14.998,1013.207,340.387,0.01,0.03
1.25,0.422,5.343,36.62,5.426,37.185,0.074,0,0.074,0,0.942,6.457,22.175,120.893,9.788,41.832,0,0,0,2.757e4,1.307e4,19.801,0.105,NaN,2010.925,NaN,0.024,1.606e6,1291.53,0.428,0.645,0.487,0.31,0.215,0.12,NaN,NaN,NaN,NaN,NaN,NaN,NaN,NaN,7.346e-4,165,213.825,80,0,5.503,14.997,1013.201,340.387,0.01,0.03
1.26,0.477,5.708,36.533,5.797,37.096,0.084,0,0.084,0,1.007,6.442,22.175,120.893,9.788,40.347,0,0,0,2.755e4,1.305e4,19.792,0.105,NaN,2010.419,NaN,0.025,1.667e6,1288.052,0.488,0.643,0.516,0.308,0.215,0.12,NaN,NaN,NaN,NaN,NaN,NaN,NaN,NaN,7.848e-4,165,213.825,80,0,5.544,14.997,1013.194,340.387,0.01,0.031
1.27,0.536,6.072,36.421,6.166,36.983,0.095,0,0.095,0,1.071,6.422,22.175,120.893,9.788,38.972,0,0,0,2.753e4,1.303e4,19.783,0.105,NaN,2009.914,NaN,0.026,1.728e6,1283.912,0.551,0.641,0.542,0.306,0.215,0.12,NaN,NaN,NaN,NaN,NaN,NaN,NaN,NaN,8.349e-4,165,213.825,80,0,5.585,14.997,1013.187,340.387,0.01,0.031
1.28,0.599,6.436,36.388,6.535,36.95,0.106,0,0.106,0,1.135,6.416,22.175,120.893,9.788,37.695,0,0,0,2.75e4,1.3e4,19.774,0.105,NaN,2009.409,NaN,0.027,1.791e6,1281.967,0.618,0.639,0.566,0.304,0.215,0.12,NaN,NaN,NaN,NaN,NaN,NaN,NaN,NaN,8.849e-4,165,213.825,80,0,5.627,14.996,1013.18,340.387,0.01,0.031
1.29,0.665,6.799,36.306,6.904,36.866,0.117,0,0.117,0,1.199,6.402,22.175,120.893,9.788,36.506,0,0,0,2.748e4,1.298e4,19.765,0.105,NaN,2008.904,NaN,0.028,1.854e6,1278.651,0.688,0.637,0.587,0.302,0.215,0.12,NaN,NaN,NaN,NaN,NaN,NaN,NaN,NaN,9.347e-4,165,213.825,80,0,5.668,14.996,1013.172,340.386,0.01,0.031
1.3,0.735,7.162,36.264,7.272,36.823,0.13,0,0.13,0,1.263,6.394,22.175,120.893,9.788,35.399,0,0,0,2.746e4,1.296e4,19.756,0.105,NaN,2008.399,NaN,0.029,1.918e6,1276.485,0.76,0.635,0.607,0.3,0.215,0.12,NaN,NaN,NaN,NaN,NaN,NaN,NaN,NaN,9.846e-4,165,213.825,80,0,5.709,14.995,1013.164,340.386,0.01,0.031
1.31,0.808,7.524,36.258,7.64,36.817,0.142,0,0.142,0,1.327,6.393,22.175,120.893,9.788,34.291,0,0,0,2.743e4,1.293e4,19.747,0.105,NaN,2007.894,NaN,0.03,1.981e6,1275.318,0.836,0.634,0.626,0.298,0.215,0.12,NaN,NaN,NaN,NaN,NaN,NaN,NaN,NaN,0.001,165,213.825,80,0,5.733,14.995,1013.155,340.386,0.01,0.032
1.32,0.885,7.886,36.23,8.008,36.789,0.156,0,0.156,0,1.391,6.388,22.175,120.893,9.788,33.253,0,0,0,2.741e4,1.291e4,19.738,0.105,NaN,2007.388,NaN,0.031,2.044e6,1273.528,0.915,0.632,0.644,0.297,0.215,0.12,NaN,NaN,NaN,NaN,NaN,NaN,NaN,NaN,0.001,165,213.825,80,0,5.758,14.994,1013.146,340.385,0.01,0.032
1.33,0.966,8.249,36.278,8.376,36.838,0.17,0,0.17,0,1.454,6.397,22.175,120.893,9.788,32.276,0,0,0,2.739e4,1.289e4,19.729,0.105,NaN,2006.882,NaN,0.032,2.107e6,1273.891,0.997,0.63,0.659,0.295,0.215,0.12,NaN,NaN,NaN,NaN,NaN,NaN,NaN,NaN,0.001,165,213.825,80,0,5.782,14.994,1013.137,340.385,0.01,0.032
1.34,1.05,8.611,36.255,8.744,36.814,0.185,0,0.185,0,1.518,6.393,22.175,120.893,9.788,31.357,0,0,0,2.736e4,1.286e4,19.72,0.105,NaN,2006.376,NaN,0.033,2.172e6,1272.247,1.082,0.629,0.674,0.293,0.215,0.12,NaN,NaN,NaN,NaN,NaN,NaN,NaN,NaN,0.001,165,213.825,80,0,5.807,14.993,1013.127,340.385,0.01,0.032
1.35,1.138,8.973,36.264,9.112,36.824,0.201,0,0.201,0,1.582,6.394,22.175,120.893,9.788,30.491,0,0,0,2.734e4,1.284e4,19.711,0.105,NaN,2005.868,NaN,0.034,2.237e6,1271.517,1.169,0.627,0.686,0.292,0.215,0.12,NaN,NaN,NaN,NaN,NaN,NaN,NaN,NaN,0.001,165,213.825,80,0,5.831,14.993,1013.117,340.384,0.01,0.032
1.36,1.23,9.336,36.3,9.48,36.86,0.217,0,0.217,0,1.646,6.401,22.175,120.893,9.788,29.697,0,0,0,2.732e4,1.282e4,19.702,0.105,NaN,2005.361,NaN,0.034,2.303e6,1271.539,1.259,0.625,0.698,0.29,0.215,0.12,NaN,NaN,NaN,NaN,NaN,NaN,NaN,NaN,0.001,165,213.825,80,0,5.862,14.992,1013.106,340.384,0.01,0.032
1.37,1.325,9.699,36.316,9.849,36.876,0.234,0,0.234,0,1.71,6.403,22.175,120.893,9.788,28.947,0,0,0,2.729e4,1.279e4,19.693,0.105,NaN,2004.852,NaN,0.035,2.369e6,1270.983,1.352,0.624,0.707,0.289,0.215,0.12,NaN,NaN,NaN,NaN,NaN,NaN,NaN,NaN,0.001,165,213.825,80,0,5.892,14.991,1013.095,340.384,0.01,0.033
1.38,1.424,10.063,36.43,10.219,36.992,0.251,0,0.251,0,1.774,6.424,22.175,120.893,9.788,28.236,0,0,0,2.727e4,1.277e4,19.684,0.105,NaN,2004.342,NaN,0.037,2.436e6,1273.167,1.45,0.623,0.717,0.288,0.215,0.12,NaN,NaN,NaN,NaN,NaN,NaN,NaN,NaN,0.001,165,213.825,80,0,5.923,14.991,1013.083,340.383,0.01,0.033
1.39,1.526,10.428,36.469,10.589,37.032,0.269,0,0.269,0,1.839,6.431,22.175,120.893,9.788,27.563,0,0,0,2.725e4,1.275e4,19.675,0.105,NaN,2003.83,NaN,0.038,2.504e6,1273.278,1.552,0.623,0.727,0.288,0.215,0.12,NaN,NaN,NaN,NaN,NaN,NaN,NaN,NaN,0.001,165,213.825,80,0,5.953,14.99,1013.071,340.383,0.01,0.033
1.4,1.632,10.793,36.555,10.96,37.119,0.288,0,0.288,0,1.903,6.446,22.175,120.893,9.788,26.923,0,0,0,2.723e4,1.273e4,19.666,0.105,NaN,2003.318,NaN,0.039,2.572e6,1274.663,1.658,0.623,0.736,0.288,0.215,0.12,NaN,NaN,NaN,NaN,NaN,NaN,NaN,NaN,0.001,165,213.825,80,0,5.984,14.989,1013.059,340.382,0.01,0.033
1.41,1.742,11.16,36.66,11.332,37.225,0.307,0,0.307,0,1.968,6.464,22.175,120.893,9.788,26.294,0,0,0,2.72e4,1.27e4,19.657,0.105,NaN,2002.803,NaN,0.04,2.64e6,1276.588,1.766,0.623,0.744,0.288,0.215,0.12,NaN,NaN,NaN,NaN,NaN,NaN,NaN,NaN,0.002,165,213.825,80,0,6.009,14.989,1013.046,340.382,0.01,0.033
1.42,1.855,11.527,36.726,11.705,37.293,0.327,0,0.327,0,2.032,6.476,22.175,120.893,9.788,25.695,0,0,0,2.718e4,1.268e4,19.648,0.105,NaN,2002.288,NaN,0.041,2.708e6,1277.444,1.878,0.623,0.752,0.288,0.215,0.12,NaN,NaN,NaN,NaN,NaN,NaN,NaN,NaN,0.002,165,213.825,80,0,6.034,14.988,1013.032,340.382,0.01,0.033
1.43,1.972,11.895,36.859,12.079,37.428,0.348,0,0.348,0,2.097,6.499,22.175,120.893,9.788,25.123,0,0,0,2.716e4,1.266e4,19.639,0.105,NaN,2001.77,NaN,0.042,2.777e6,1280.14,1.993,0.623,0.759,0.288,0.215,0.12,NaN,NaN,NaN,NaN,NaN,NaN,NaN,NaN,0.002,165,213.825,80,0,6.059,14.987,1013.019,340.381,0.01,0.034
1.44,2.093,12.264,36.914,12.453,37.484,0.369,0,0.369,0,2.163,6.509,22.175,120.893,9.788,24.579,0,0,0,2.713e4,1.263e4,19.629,0.105,NaN,2001.252,NaN,0.043,2.846e6,1280.681,2.11,0.623,0.765,0.288,0.215,0.12,NaN,NaN,NaN,NaN,NaN,NaN,NaN,NaN,0.002,165,213.825,80,0,6.084,14.986,1013.005,340.381,0.01,0.034
1.45,2.218,12.634,37.022,12.829,37.593,0.391,0,0.391,0,2.228,6.528,22.175,120.893,9.788,24.058,0,0,0,2.711e4,1.261e4,19.62,0.105,NaN,2000.731,NaN,0.044,2.916e6,1282.653,2.231,0.623,0.771,0.288,0.215,0.12,NaN,NaN,NaN,NaN,NaN,NaN,NaN,NaN,0.002,165,213.825,80,0,6.109,14.986,1012.99,340.38,0.01,0.034
1.46,2.346,13.005,37.137,13.206,37.71,0.414,0,0.414,0,2.293,6.548,22.175,120.893,9.788,23.62,0,0,0,2.709e4,1.259e4,19.611,0.104,NaN,2000.209,NaN,0.045,2.988e6,1284.861,2.356,0.623,0.775,0.288,0.215,0.12,NaN,NaN,NaN,NaN,NaN,NaN,NaN,NaN,0.002,165,213.825,80,0,6.152,14.985,1012.975,340.38,0.01,0.034
1.47,2.478,13.377,37.189,13.583,37.762,0.437,0,0.437,0,2.359,6.557,22.175,120.893,9.788,23.201,0,0,0,2.706e4,1.256e4,19.602,0.104,NaN,1999.686,NaN,0.046,3.06e6,1285.292,2.485,0.623,0.779,0.288,0.215,0.12,NaN,NaN,NaN,NaN,NaN,NaN,NaN,NaN,0.002,165,213.825,80,0,6.195,14.984,1012.959,340.379,0.01,0.034
1.48,2.613,13.75,37.308,13.962,37.883,0.461,0,0.461,0,2.425,6.578,22.175,120.893,9.788,22.8,0,0,0,2.704e4,1.254e4,19.592,0.104,NaN,1999.161,NaN,0.047,3.133e6,1287.587,2.616,0.623,0.783,0.288,0.215,0.12,NaN,NaN,NaN,NaN,NaN,NaN,NaN,NaN,0.002,165,213.825,80,0,6.238,14.983,1012.943,340.379,0.01,0.035
1.49,2.753,14.123,37.352,14.341,37.929,0.485,0,0.485,0,2.49,6.586,22.175,120.893,9.788,22.416,0,0,0,2.702e4,1.252e4,19.583,0.104,NaN,1998.635,NaN,0.048,3.205e6,1287.832,2.751,0.623,0.786,0.288,0.215,0.12,NaN,NaN,NaN,NaN,NaN,NaN,NaN,NaN,0.002,165,213.825,80,0,6.281,14.982,1012.927,340.378,0.01,0.035
1.5,2.896,14.497,37.421,14.721,37.998,0.511,0,0.511,0,2.556,6.598,22.175,120.893,9.788,22.049,0,0,0,2.699e4,1.249e4,19.574,0.104,NaN,1998.108,NaN,0.049,3.278e6,1288.735,2.889,0.623,0.789,0.288,0.215,0.12,NaN,NaN,NaN,NaN,NaN,NaN,NaN,NaN,0.002,165,213.825,80,0,6.325,14.981,1012.91,340.377,0.01,0.035
1.51,3.043,14.872,37.501,15.102,38.08,0.537,0,0.537,0,2.622,6.612,22.175,120.893,9.788,21.518,0,0,0,2.697e4,1.247e4,19.564,0.104,NaN,1997.579,NaN,0.05,3.346e6,1289.948,3.025,0.623,0.793,0.288,0.215,0.12,NaN,NaN,NaN,NaN,NaN,NaN,NaN,NaN,0.002,165,213.825,80,0,6.307,14.98,1012.893,340.377,0.01,0.035
1.52,3.193,15.247,37.516,15.482,38.095,0.563,0,0.563,0,2.688,6.615,22.175,120.893,9.788,21.008,0,0,0,2.695e4,1.244e4,19.555,0.104,NaN,1997.049,NaN,0.051,3.414e6,1289.376,3.163,0.623,0.797,0.288,0.215,0.12,NaN,NaN,NaN,NaN,NaN,NaN,NaN,NaN,0.002,165,213.825,80,0,6.29,14.979,1012.875,340.376,0.01,0.035
1.53,3.348,15.624,37.654,15.865,38.235,0.59,0,0.59,0,2.755,6.639,22.175,120.893,9.788,20.517,0,0,0,2.692e4,1.242e4,19.546,0.104,NaN,1996.518,NaN,0.052,3.482e6,1292.164,3.304,0.623,0.8,0.288,0.215,0.12,NaN,NaN,NaN,NaN,NaN,NaN,NaN,NaN,0.002,165,213.825,80,0,6.273,14.978,1012.857,340.376,0.01,0.035
1.54,3.506,16.001,37.722,16.247,38.304,0.618,0,0.618,0,2.821,6.651,22.175,120.893,9.788,20.044,0,0,0,2.69e4,1.24e4,19.536,0.104,NaN,1995.985,NaN,0.053,3.551e6,1293.051,3.447,0.624,0.803,0.288,0.215,0.12,NaN,NaN,NaN,NaN,NaN,NaN,NaN,NaN,0.002,165,213.825,80,0,6.255,14.977,1012.839,340.375,0.01,0.036
1.55,3.668,16.379,37.826,16.631,38.409,0.647,0,0.647,0,2.888,6.67,22.175,120.893,9.788,19.588,0,0,0,2.687e4,1.237e4,19.527,0.104,NaN,1995.451,NaN,0.054,3.62e6,1294.89,3.593,0.624,0.805,0.288,0.215,0.12,NaN,NaN,NaN,NaN,NaN,NaN,NaN,NaN,0.002,165,213.825,80,0,6.238,14.976,1012.82,340.374,0.01,0.036
1.56,3.833,16.758,37.948,17.017,38.534,0.676,0,0.676,0,2.955,6.691,22.175,120.893,9.788,19.32,0,0,0,2.685e4,1.235e4,19.517,0.104,NaN,1994.914,NaN,0.055,3.696e6,1297.251,3.749,0.624,0.806,0.288,0.215,0.12,NaN,NaN,NaN,NaN,NaN,NaN,NaN,NaN,0.002,165,213.825,80,0,6.284,14.975,1012.8,340.374,0.01,0.036
1.57,4.003,17.137,37.967,17.402,38.552,0.706,0,0.706,0,3.022,6.695,22.175,120.893,9.788,19.064,0,0,0,2.683e4,1.233e4,19.508,0.104,NaN,1994.377,NaN,0.057,3.771e6,1296.778,3.908,0.624,0.807,0.288,0.215,0.12,NaN,NaN,NaN,NaN,NaN,NaN,NaN,NaN,0.002,165,213.825,80,0,6.33,14.974,1012.781,340.373,0.01,0.036
1.585,4.264,17.706,37.93,17.982,38.696,0.752,-8.681e-5,0.752,-0.007,3.136,7.66,22.175,120.893,9.788,18.7,0,-0.015,7.889e-6,2.679e4,1.229e4,19.493,0.104,1983.557,1993.568,-0.061,0.058,3.884e6,1298.654,4.153,0.624,0.808,0.288,0.215,0.12,5.782,-0.351,4.127e-4,0,0,0,0,-6.92e-7,0.002,165,213.825,80,-4.954e-4,6.399,14.972,1012.75,340.372,0.015,0.036
1.608,4.672,18.563,38.133,18.855,38.895,0.824,-5.512e-4,0.824,-0.038,3.308,7.662,22.175,120.893,9.788,18.079,0,-0.03,8.089e-5,2.674e4,1.224e4,19.472,0.104,1988.947,1992.348,-0.021,0.061,4.052e6,1301.804,4.528,0.624,0.81,0.288,0.215,0.12,5.52,-0.114,2.531e-4,0,0,0,0,-2.383e-6,0.003,165,213.825,80,-0.003,6.46,14.97,1012.702,340.37,0.023,0.037
1.641,5.321,19.859,38.468,20.177,39.229,0.94,-0.002,0.94,-0.123,3.566,7.692,22.175,120.893,9.788,16.916,0,-0.02,2.836e-4,2.666e4,1.216e4,19.439,0.104,1999.528,1990.501,0.055,0.064,4.296e6,1307.398,5.097,0.624,0.811,0.288,0.215,0.121,5.042,0.276,-3.712e-4,0,0,0,0,-1.001e-6,0.003,165,213.825,80.001,-0.007,6.42,14.965,1012.626,340.368,0.034,0.037
1.691,6.362,21.798,38.884,22.153,39.648,1.128,-0.006,1.128,-0.302,3.952,7.748,22.175,120.893,9.788,15.095,0,0.07,-4.828e-6,2.654e4,1.204e4,19.39,0.104,2017.552,1987.731,0.181,0.07,4.653e6,1313.533,5.933,0.624,0.805,0.288,0.216,0.121,4.323,0.782,-4.676e-5,0,0,0,0,9.995e-6,0.003,165,213.825,80.001,-0.003,6.224,14.959,1012.504,340.364,0.05,0.037
1.741,7.501,23.766,39.457,24.159,40.227,1.336,-0.012,1.336,-0.514,4.342,7.831,22.175,120.893,9.788,13.574,0,0.259,-0.002,2.642e4,1.192e4,19.34,0.104,2034.109,1984.915,0.298,0.075,5.021e6,1323.765,6.799,0.624,0.791,0.288,0.216,0.121,3.754,1.119,4.476e-4,0,0,0,0,1.171e-4,0.003,165,213.825,79.995,0.028,6.056,14.951,1012.37,340.359,0.05,0.037
1.791,8.739,25.765,40.088,26.197,40.85,1.562,-0.02,1.563,-0.738,4.735,7.851,22.175,120.893,9.788,13.071,0,0.531,-0.005,2.63e4,1.18e4,19.29,0.103,2039.96,1982.048,0.351,0.081,5.427e6,1335.184,7.888,0.624,0.786,0.288,0.216,0.121,3.571,1.253,6.879e-5,0,0,0,0,4.228e-4,0.004,165,213.825,79.981,0.105,6.319,14.943,1012.225,340.354,0.05,0.037
1.841,10.078,27.798,40.755,28.267,41.526,1.809,-0.031,1.809,-0.966,5.131,7.965,22.175,120.893,9.788,11.841,0,0.887,-0.012,2.617e4,1.167e4,19.238,0.103,2054.909,1979.127,0.459,0.087,5.812e6,1347.677,8.868,0.624,0.77,0.288,0.216,0.121,3.139,1.441,3.669e-4,0,0,0,0,0.001,0.004,165,213.825,79.955,0.243,6.166,14.934,1012.068,340.349,0.05,0.038
1.891,11.52,29.87,41.549,30.379,42.339,2.075,-0.043,2.076,-1.19,5.535,8.141,22.175,120.893,9.788,10.529,0,1.345,-0.026,2.605e4,1.155e4,19.185,0.103,2072.11,1976.143,0.582,0.093,6.201e6,1363.475,9.841,0.625,0.751,0.288,0.216,0.121,2.699,1.568,2.431e-4,0,0,0,0,0.002,0.004,165,213.825,79.915,0.458,5.893,14.925,1011.899,340.344,0.05,0.038
1.941,13.066,31.975,42.197,32.524,43.01,2.362,-0.058,2.363,-1.402,5.948,8.322,22.175,120.893,9.788,9.27,-6.327e-7,1.896,-0.049,2.593e4,1.143e4,19.132,0.103,2089.975,1973.105,0.708,0.099,6.596e6,1375.364,10.839,0.625,0.731,0.288,0.216,0.121,2.298,1.624,-1.674e-4,0,0,0,0,0.004,0.004,165,213.825,79.855,0.765,5.577,14.915,1011.718,340.337,0.05,0.038
1.991,14.718,34.117,42.94,34.707,43.762,2.669,-0.074,2.67,-1.596,6.37,8.445,22.175,120.893,9.788,8.858,0,2.536,-0.065,2.58e4,1.13e4,19.077,0.103,2096.175,1970.006,0.765,0.105,7.026e6,1389.417,12.193,0.625,0.725,0.288,0.216,0.121,2.171,1.655,-1.594e-5,0,0,0,0,0.006,0.005,165,213.825,79.772,1.176,5.747,14.904,1011.524,340.331,0.05,0.038
2.041,16.479,36.308,43.918,36.939,44.772,2.998,-0.093,3,-1.771,6.801,8.704,22.175,120.893,9.788,8.02,-6.941e-7,3.271,-0.103,2.567e4,1.117e4,19.021,0.102,2109.218,1966.831,0.863,0.112,7.451e6,1409.711,13.457,0.625,0.711,0.288,0.216,0.122,1.921,1.649,5.765e-5,0,0,0,0,0.008,0.005,165,213.825,79.661,1.701,5.626,14.893,1011.317,340.324,0.05,0.038
2.091,18.35,38.542,44.777,39.217,45.663,3.349,-0.113,3.351,-1.925,7.246,8.949,22.175,120.893,9.788,7.426,-9.92e-7,4.087,-0.141,2.554e4,1.104e4,18.964,0.102,2118.938,1963.584,0.942,0.118,7.893e6,1426.753,14.903,0.626,0.702,0.287,0.216,0.122,1.748,1.634,1.638e-5,0,0,0,0,0.012,0.005,165,213.825,79.519,2.346,5.653,14.881,1011.098,340.317,0.05,0.038
2.141,20.334,40.805,45.363,41.524,46.269,3.722,-0.134,3.724,-2.058,7.699,9.113,22.175,120.893,9.788,7.237,0,5.007,-0.158,2.541e4,1.091e4,18.906,0.102,2122.171,1960.282,0.981,0.125,8.358e6,1436.554,16.644,0.626,0.699,0.287,0.216,0.122,1.695,1.647,3.133e-5,0,0,0,0,0.016,0.006,165,213.825,79.341,3.112,5.993,14.868,1010.865,340.309,0.05,0.039
2.191,22.431,43.1,46.007,43.867,46.982,4.118,-0.156,4.121,-2.168,8.166,9.52,22.175,120.893,9.788,6.16,-1.547e-6,6.016,-0.272,2.528e4,1.078e4,18.847,0.102,2140.904,1956.918,1.115,0.132,8.794e6,1448.404,17.991,0.626,0.682,0.287,0.217,0.122,1.397,1.537,7.443e-5,0,0,0,0,0.021,0.006,165,213.825,79.121,4,5.642,14.854,1010.619,340.301,0.05,0.039
2.241,24.644,45.43,46.69,46.247,47.73,4.537,-0.178,4.541,-2.252,8.653,9.909,22.175,120.893,9.788,5.552,-1.324e-6,7.047,-0.355,2.515e4,1.065e4,18.787,0.102,2152.126,1953.489,1.204,0.139,9.257e6,1461.178,19.681,0.627,0.674,0.287,0.217,0.123,1.236,1.463,2.214e-4,0,0,0,0,0.026,0.006,165,213.825,78.856,4.998,5.652,14.84,1010.36,340.292,0.05,0.039
2.291,26.975,47.783,47.149,48.653,48.251,4.982,-0.201,4.986,-2.307,9.157,10.254,22.175,120.893,9.788,5.241,-1.365e-6,8.165,-0.393,2.501e4,1.051e4,18.726,0.101,2158.118,1950.006,1.261,0.146,9.738e6,1468.288,21.651,0.627,0.669,0.287,0.217,0.123,1.156,1.426,-3.629e-4,0,0,0,0,0.031,0.007,165,213.825,78.541,6.091,5.941,14.825,1010.086,340.283,0.05,0.039
2.341,29.423,50.137,47.146,51.063,48.37,5.452,-0.222,5.457,-2.333,9.68,10.816,22.175,120.893,9.788,4.068,-3.651e-6,9.289,-0.73,2.488e4,1.038e4,18.664,0.101,2181.506,1946.495,1.424,0.153,1.018e7,1464.702,23.149,0.627,0.654,0.287,0.217,0.123,0.864,1.195,4.666e-4,0,0,0,0,0.037,0.007,165,213.825,78.173,7.263,5.445,14.809,1009.799,340.273,0.05,0.039
2.391,31.988,52.489,47.105,53.477,48.46,5.95,-0.242,5.955,-2.325,10.229,11.377,22.175,120.893,9.788,3.23,-4.952e-6,10.264,-1.105,2.475e4,1.025e4,18.602,0.101,2199.46,1942.956,1.555,0.16,1.064e7,1460.577,24.947,0.628,0.645,0.287,0.217,0.123,0.668,0.997,1.038e-4,0,0,0,0,0.041,0.007,165,213.825,77.752,8.478,5.228,14.792,1009.498,340.263,0.05,0.04
2.441,34.672,54.842,47.084,55.896,48.604,6.475,-0.258,6.48,-2.28,10.806,12.059,22.175,120.893,9.788,2.323,-8.99e-6,11.065,-1.872,2.461e4,1.011e4,18.539,0.101,2220.107,1939.385,1.701,0.167,1.11e7,1457.734,26.816,0.628,0.638,0.287,0.217,0.124,0.466,0.748,-4.39e-4,0,0,0,0,0.044,0.008,165,213.825,77.282,9.697,4.914,14.775,1009.184,340.252,0.05,0.04
2.491,37.472,57.172,46.66,58.299,48.312,7.03,-0.27,7.035,-2.197,11.408,12.524,22.175,120.893,9.788,2.04,-9.508e-7,11.807,-2.018,2.448e4,9982.7,18.477,0.101,2226.942,1935.809,1.764,0.174,1.159e7,1444.705,29.132,0.628,0.636,0.287,0.218,0.124,0.405,0.669,-8.817e-5,0,0,0,0,0.046,0.008,165,213.825,76.767,10.888,5.256,14.756,1008.855,340.241,0.05,0.04
2.541,40.389,59.494,46.447,60.699,48.304,7.616,-0.276,7.621,-2.076,12.038,13.265,22.175,120.893,9.788,1.32,-9.266e-6,12.158,-3.57,2.435e4,9851.919,18.414,0.1,2244.723,1932.21,1.894,0.181,1.205e7,1438.362,31.319,0.629,0.632,0.287,0.218,0.124,0.255,0.439,2.975e-5,0,0,0,0,0.045,0.008,165,213.825,76.21,12.031,5.111,14.737,1008.513,340.23,0.05,0.04
2.591,43.421,61.798,46.084,63.09,48.176,8.235,-0.276,8.239,-1.919,12.702,14.043,22.175,120.893,9.788,0.657,-7.712e-6,10.216,-8.117,2.422e4,9721.977,18.351,0.1,2261.959,1928.595,2.02,0.188,1.251e7,1429.136,33.651,0.629,0.63,0.287,0.218,0.125,0.124,0.222,9.555e-5,0,0,0,0,0.029,0.009,165,213.825,75.621,13.101,4.925,14.718,1008.157,340.218,0.05,0.04
2.641,46.569,64.106,46.166,65.493,48.505,8.887,-0.267,8.891,-1.724,13.406,14.882,22.175,120.893,9.788,0.407,-1.07e-5,1.652,-13.075,2.409e4,9591.843,18.287,0.1,2268.782,1924.936,2.084,0.195,1.298e7,1431.244,36.259,0.63,0.63,0.287,0.218,0.125,0.076,0.158,-4.04e-4,0,0,0,0,7.107e-4,0.009,165,213.825,75.013,14.072,5.045,14.697,1007.788,340.205,0.05,0.04
2.691,49.832,66.413,46.105,67.904,48.736,9.575,-0.25,9.579,-1.493,14.15,15.794,22.175,120.893,9.788,0.703,-2.376e-5,-10.211,-8.097,2.396e4,9461.748,18.222,0.1,2261.018,1921.238,2.059,0.202,1.345e7,1430.823,38.993,0.63,0.631,0.287,0.218,0.125,0.133,0.3,-2.137e-4,0,0,0,0,-0.025,0.009,165,213.825,74.396,14.929,4.958,14.676,1007.406,340.193,0.05,0.041
2.741,53.21,68.723,46.194,70.328,49.109,10.302,-0.221,10.304,-1.229,14.938,16.668,22.175,120.893,9.788,0.981,-1.999e-5,-11.234,-5.477,2.383e4,9331.363,18.157,0.1,2253.938,1917.492,2.039,0.21,1.393e7,1433.995,41.942,0.631,0.633,0.287,0.219,0.126,0.188,0.412,-1.606e-4,0,0,0,0,-0.028,0.009,165,213.825,73.789,15.652,5.155,14.654,1007.009,340.179,0.05,0.041
2.791,56.704,71.046,46.395,72.776,49.674,11.068,-0.18,11.07,-0.932,15.774,17.748,22.175,120.893,9.788,1.57,-3.007e-5,-11.019,-3.808,2.37e4,9200.305,18.091,0.099,2239.225,1913.685,1.973,0.217,1.44e7,1441.415,45.045,0.631,0.636,0.287,0.219,0.126,0.307,0.632,1.542e-4,0,0,0,0,-0.026,0.01,165,213.825,73.206,16.239,4.912,14.631,1006.6,340.166,0.05,0.041
2.841,60.315,73.376,46.575,75.243,50.167,11.877,-0.126,11.878,-0.606,16.658,18.643,22.175,120.893,9.788,1.832,-3.038e-5,-9.904,-3.115,2.357e4,9068.707,18.023,0.099,2232.998,1909.819,1.959,0.224,1.488e7,1447.346,48.313,0.632,0.638,0.286,0.219,0.127,0.362,0.728,-4.539e-4,0,0,0,0,-0.019,0.01,165,213.825,72.67,16.682,5.01,14.608,1006.176,340.151,0.05,0.041
2.891,64.042,75.695,46.382,77.709,50.218,12.73,-0.056,12.73,-0.254,17.576,19.249,22.175,120.893,9.788,1.888,-3.212e-5,-8.53,-2.637,2.344e4,8937.495,17.955,0.099,2231.838,1905.922,1.975,0.232,1.538e7,1443.113,51.669,0.633,0.639,0.286,0.219,0.127,0.374,0.751,2.915e-4,0,0,0,0,-0.013,0.01,165,213.825,72.196,16.985,5.295,14.584,1005.739,340.137,0.05,0.042
2.941,67.884,77.998,46.032,80.167,50.11,13.629,0.028,13.629,0.119,18.523,19.803,22.175,120.893,9.787,2.044,-3.057e-5,-6.919,-2.326,2.331e4,8806.998,17.887,0.099,2228.263,1902.002,1.977,0.239,1.586e7,1435.232,55.112,0.633,0.641,0.286,0.22,0.127,0.407,0.813,2.5e-4,0,0,0,0,-0.008,0.011,165,213.825,71.793,17.158,5.326,14.559,1005.288,340.122,0.05,0.042
2.991,71.841,80.303,46.084,82.638,50.452,14.574,0.129,14.574,0.507,19.507,20.533,22.175,120.893,9.787,2.353,-2.898e-5,-4.928,-2.195,2.318e4,8676.274,17.818,0.099,2221.175,1898.031,1.958,0.246,1.633e7,1437.734,58.677,0.634,0.644,0.286,0.22,0.128,0.474,0.932,-4.635e-4,0,0,0,0,-0.004,0.011,165,213.825,71.476,17.204,4.976,14.533,1004.824,340.106,0.05,0.042
3.041,75.915,82.624,46.44,85.135,51.01,15.568,0.247,15.57,0.908,20.527,21.103,22.175,120.893,9.787,2.439,-3.576e-5,-2.571,-2.117,2.305e4,8544.831,17.748,0.098,2219.361,1893.993,1.972,0.253,1.68e7,1445.651,62.299,0.635,0.645,0.286,0.22,0.128,0.493,0.973,4.653e-4,0,0,0,0,-0.001,0.011,165,213.825,71.261,17.115,4.769,14.507,1004.346,340.09,0.05,0.042
