# Time (s),Altitude (m),Vertical velocity (m/s),Vertical acceleration (m/s²),Total velocity (m/s),Total acceleration (m/s²),Position East of launch (m),Position North of launch (m),Lateral distance (m),Lateral direction (°),Lateral velocity (m/s),Lateral acceleration (m/s²),Latitude (°),Longitude (°),Gravitational acceleration (m/s²),Angle of attack (°),Roll rate (°/s),Pitch rate (°/s),Yaw rate (°/s),Mass (g),Motor mass (g),Longitudinal moment of inertia (kg·m²),Rotational moment of inertia (kg·m²),CP location (mm),CG location (mm),Stability margin calibers (​),Mach number (​),Reynolds number (​),Thrust (N),Drag force (N),Drag coefficient (​),Axial drag coefficient (​),Friction drag coefficient (​),Pressure drag coefficient (​),Base drag coefficient (​),Normal force coefficient (​),Pitch moment coefficient (​),Yaw moment coefficient (​),Side force coefficient (​),Roll moment coefficient (​),Roll forcing coefficient (​),Roll damping coefficient (​),Pitch damping coefficient (​),Coriolis acceleration (m/s²),Reference length (mm),Reference area (cm²),Vertical orientation (zenith) (°),Lateral orientation (azimuth) (°),Wind velocity (m/s),Air temperature (°C),Air pressure (mbar),Speed of sound (m/s),Simulation time step (s),Computation time (s)
0.01,-4.664e-4,-0.093,-9.324,0.095,9.468,-8.224e-5,0,8.224e-5,180,0.016,1.644,22.175,120.893,9.788,92.71,0,0,0,2.8e4,1.35e4,19.963,0.106,NaN,2019.994,NaN,0.006,3.927e5,4.784,-1.017e-5,0.748,-1.936e-4,0.413,0.215,0.12,NaN,NaN,NaN,NaN,NaN,NaN,NaN,NaN,1.282e-5,165,213.825,80,0,2,15,1013.25,340.389,0.01,0.002
0.02,-4.668e-4,-0.093,-9.336,0.095,9.48,-8.231e-5,0,8.231e-5,180,0.016,1.646,22.175,120.893,9.788,92.714,0,0,0,2.8e4,1.35e4,19.963,0.106,NaN,2019.992,NaN,0.006,3.927e5,4.461,-1.02e-5,0.748,-1.943e-4,0.413,0.215,0.12,NaN,NaN,NaN,NaN,NaN,NaN,NaN,NaN,1.283e-5,165,213.825,80,0,2,15,1013.25,340.389,0.01,0.003
0.03,-4.67e-4,-0.093,-9.34,0.095,9.484,-8.234e-5,0,8.234e-5,180,0.016,1.647,22.175,120.893,9.788,92.715,0,0,0,2.8e4,1.35e4,19.963,0.106,NaN,2019.991,NaN,0.006,3.927e5,4.343,-1.022e-5,0.748,-1.946e-4,0.413,0.215,0.12,NaN,NaN,NaN,NaN,NaN,NaN,NaN,NaN,1.284e-5,165,213.825,80,0,2,15,1013.25,340.389,0.01,0.003
0.04,-4.672e-4,-0.093,-9.343,0.095,9.487,-8.237e-5,0,8.237e-5,180,0.016,1.647,22.175,120.893,9.788,92.716,0,0,0,2.8e4,1.35e4,19.963,0.106,NaN,2019.989,NaN,0.006,3.927e5,4.249,-1.023e-5,0.748,-1.948e-4,0.413,0.215,0.12,NaN,NaN,NaN,NaN,NaN,NaN,NaN,NaN,1.285e-5,165,213.825,80,0,2,15,1013.25,340.389,0.01,0.003
0.05,-4.668e-4,-0.093,-9.336,0.095,9.48,-8.231e-5,0,8.231e-5,180,0.016,1.646,22.175,120.893,9.788,92.714,0,0,0,2.8e4,1.35e4,19.963,0.106,NaN,2019.988,NaN,0.006,3.927e5,4.443,-1.02e-5,0.748,-1.943e-4,0.413,0.215,0.12,NaN,NaN,NaN,NaN,NaN,NaN,NaN,NaN,1.284e-5,165,213.825,80,0,2,15,1013.25,340.389,0.01,0.003
0.06,-4.664e-4,-0.093,-9.328,0.095,9.472,-8.224e-5,0,8.224e-5,180,0.016,1.645,22.175,120.893,9.788,92.711,0,0,0,2.8e4,1.35e4,19.963,0.106,NaN,2019.986,NaN,0.006,3.927e5,4.681,-1.018e-5,0.748,-1.938e-4,0.413,0.215,0.12,NaN,NaN,NaN,NaN,NaN,NaN,NaN,NaN,1.282e-5,165,213.825,80,0,2,15,1013.25,340.389,0.01,0.003
0.07,-4.668e-4,-0.093,-9.336,0.095,9.481,-8.231e-5,0,8.231e-5,180,0.016,1.646,22.175,120.893,9.788,92.714,0,0,0,2.8e4,1.35e4,19.963,0.106,NaN,2019.984,NaN,0.006,3.927e5,4.438,-1.02e-5,0.748,-1.944e-4,0.413,0.215,0.12,NaN,NaN,NaN,NaN,NaN,NaN,NaN,NaN,1.284e-5,165,213.825,80,0,2,15,1013.25,340.389,0.01,0.004
0.08,-4.668e-4,-0.093,-9.335,0.095,9.479,-8.23e-5,0,8.23e-5,180,0.016,1.646,22.175,120.893,9.788,92.714,0,0,0,2.8e4,1.35e4,19.963,0.106,NaN,2019.982,NaN,0.006,3.927e5,4.479,-1.02e-5,0.748,-1.943e-4,0.413,0.215,0.12,NaN,NaN,NaN,NaN,NaN,NaN,NaN,NaN,1.283e-5,165,213.825,80,0,2,15,1013.25,340.389,0.01,0.004
0.09,-4.665e-4,-0.093,-9.331,0.095,9.475,-8.226e-5,0,8.226e-5,180,0.016,1.645,22.175,120.893,9.788,92.712,0,0,0,2.8e4,1.35e4,19.963,0.106,NaN,2019.981,NaN,0.006,3.927e5,4.603,-1.019e-5,0.748,-1.94e-4,0.413,0.215,0.12,NaN,NaN,NaN,NaN,NaN,NaN,NaN,NaN,1.283e-5,165,213.825,80,0,2,15,1013.25,340.389,0.01,0.004
0.1,-4.67e-4,-0.093,-9.341,0.095,9.485,-8.235e-5,0,8.235e-5,180,0.016,1.647,22.175,120.893,9.788,92.715,0,0,0,2.8e4,1.35e4,19.963,0.106,NaN,2019.979,NaN,0.006,3.927e5,4.315,-1.022e-5,0.748,-1.946e-4,0.413,0.215,0.12,NaN,NaN,NaN,NaN,NaN,NaN,NaN,NaN,1.284e-5,165,213.825,80,0,2,15,1013.25,340.389,0.01,0.004
0.11,-4.668e-4,-0.093,-9.337,0.095,9.481,-8.232e-5,0,8.232e-5,180,0.016,1.646,22.175,120.893,9.788,92.714,0,0,0,2.8e4,1.35e4,19.963,0.106,NaN,2019.977,NaN,0.006,3.927e5,4.431,-1.021e-5,0.748,-1.944e-4,0.413,0.215,0.12,NaN,NaN,NaN,NaN,NaN,NaN,NaN,NaN,1.284e-5,165,213.825,80,0,2,15,1013.25,340.389,0.01,0.004
0.12,-4.668e-4,-0.093,-9.337,0.095,9.481,-8.231e-5,0,8.231e-5,180,0.016,1.646,22.175,120.893,9.788,92.714,0,0,0,2.8e4,1.35e4,19.962,0.106,NaN,2019.976,NaN,0.006,3.927e5,4.436,-1.021e-5,0.748,-1.944e-4,0.413,0.215,0.12,NaN,NaN,NaN,NaN,NaN,NaN,NaN,NaN,1.284e-5,165,213.825,80,0,2,15,1013.25,340.389,0.01,0.005
0.13,-4.665e-4,-0.093,-9.33,0.095,9.474,-8.226e-5,0,8.226e-5,180,0.016,1.645,22.175,120.893,9.788,92.712,0,0,0,2.8e4,1.35e4,19.962,0.106,NaN,2019.974,NaN,0.006,3.927e5,4.62,-1.018e-5,0.748,-1.94e-4,0.413,0.215,0.12,NaN,NaN,NaN,NaN,NaN,NaN,NaN,NaN,1.283e-5,165,213.825,80,0,2,15,1013.25,340.389,0.01,0.005
0.14,-4.669e-4,-0.093,-9.338,0.095,9.482,-8.232e-5,0,8.232e-5,180,0.016,1.646,22.175,120.893,9.788,92.714,0,0,0,2.8e4,1.35e4,19.962,0.106,NaN,2019.972,NaN,0.006,3.927e5,4.404,-1.021e-5,0.748,-1.944e-4,0.413,0.215,0.12,NaN,NaN,NaN,NaN,NaN,NaN,NaN,NaN,1.284e-5,165,213.825,80,0,2,15,1013.25,340.389,0.01,0.005
0.15,-4.668e-4,-0.093,-9.336,0.095,9.48,-8.231e-5,0,8.231e-5,180,0.016,1.646,22.175,120.893,9.788,92.714,0,0,0,2.8e4,1.35e4,19.962,0.106,NaN,2019.97,NaN,0.006,3.927e5,4.444,-1.02e-5,0.748,-1.943e-4,0.413,0.215,0.12,NaN,NaN,NaN,NaN,NaN,NaN,NaN,NaN,1.284e-5,165,213.825,80,0,2,15,1013.25,340.389,0.01,0.005
0.16,-4.664e-4,-0.093,-9.329,0.095,9.473,-8.225e-5,0,8.225e-5,180,0.016,1.645,22.175,120.893,9.788,92.712,0,0,0,2.8e4,1.35e4,19.962,0.106,NaN,2019.969,NaN,0.006,3.927e5,4.651,-1.018e-5,0.748,-1.939e-4,0.413,0.215,0.12,NaN,NaN,NaN,NaN,NaN,NaN,NaN,NaN,1.283e-5,165,213.825,80,0,2,15,1013.25,340.389,0.01,0.005
0.17,-4.672e-4,-0.093,-9.344,0.095,9.488,-8.238e-5,0,8.238e-5,180,0.016,1.648,22.175,120.893,9.788,92.716,0,0,0,2.8e4,1.35e4,19.962,0.106,NaN,2019.967,NaN,0.006,3.927e5,4.218,-1.023e-5,0.748,-1.948e-4,0.413,0.215,0.12,NaN,NaN,NaN,NaN,NaN,NaN,NaN,NaN,1.285e-5,165,213.825,80,0,2,15,1013.25,340.389,0.01,0.006
0.18,-4.672e-4,-0.093,-9.344,0.095,9.488,-8.238e-5,0,8.238e-5,180,0.016,1.648,22.175,120.893,9.788,92.716,0,0,0,2.8e4,1.35e4,19.962,0.106,NaN,2019.965,NaN,0.006,3.927e5,4.225,-1.023e-5,0.748,-1.948e-4,0.413,0.215,0.12,NaN,NaN,NaN,NaN,NaN,NaN,NaN,NaN,1.285e-5,165,213.825,80,0,2,15,1013.25,340.389,0.01,0.006
0.19,-4.67e-4,-0.093,-9.341,0.095,9.485,-8.235e-5,0,8.235e-5,180,0.016,1.647,22.175,120.893,9.788,92.715,0,0,0,2.8e4,1.35e4,19.962,0.106,NaN,2019.964,NaN,0.006,3.927e5,4.321,-1.022e-5,0.748,-1.946e-4,0.413,0.215,0.12,NaN,NaN,NaN,NaN,NaN,NaN,NaN,NaN,1.284e-5,165,213.825,80,0,2,15,1013.25,340.389,0.01,0.006
0.2,-4.673e-4,-0.093,-9.346,0.095,9.49,-8.24e-5,0,8.24e-5,180,0.016,1.648,22.175,120.893,9.788,92.717,0,0,0,2.8e4,1.35e4,19.962,0.106,NaN,2019.962,NaN,0.006,3.927e5,4.174,-1.024e-5,0.748,-1.949e-4,0.413,0.215,0.12,NaN,NaN,NaN,NaN,NaN,NaN,NaN,NaN,1.285e-5,165,213.825,80,0,2,15,1013.25,340.389,0.01,0.006
0.21,-4.669e-4,-0.093,-9.338,0.095,9.483,-8.233e-5,0,8.233e-5,180,0.016,1.647,22.175,120.893,9.788,92.715,0,0,0,2.8e4,1.35e4,19.962,0.106,NaN,2019.961,NaN,0.006,3.927e5,4.381,-1.021e-5,0.748,-1.945e-4,0.413,0.215,0.12,NaN,NaN,NaN,NaN,NaN,NaN,NaN,NaN,1.284e-5,165,213.825,80,0,2,15,1013.25,340.389,0.01,0.006
0.22,-4.664e-4,-0.093,-9.329,0.095,9.473,-8.225e-5,0,8.225e-5,180,0.016,1.645,22.175,120.893,9.788,92.712,0,0,0,2.8e4,1.35e4,19.962,0.106,NaN,2019.959,NaN,0.006,3.927e5,4.657,-1.018e-5,0.748,-1.939e-4,0.413,0.215,0.12,NaN,NaN,NaN,NaN,NaN,NaN,NaN,NaN,1.283e-5,165,213.825,80,0,2,15,1013.25,340.389,0.01,0.006
0.23,-4.669e-4,-0.093,-9.338,0.095,9.482,-8.233e-5,0,8.233e-5,180,0.016,1.647,22.175,120.893,9.788,92.714,0,0,0,2.8e4,1.35e4,19.962,0.106,NaN,2019.957,NaN,0.006,3.927e5,4.392,-1.021e-5,0.748,-1.945e-4,0.413,0.215,0.12,NaN,NaN,NaN,NaN,NaN,NaN,NaN,NaN,1.284e-5,165,213.825,80,0,2,15,1013.25,340.389,0.01,0.007
0.24,-4.667e-4,-0.093,-9.334,0.095,9.478,-8.229e-5,0,8.229e-5,180,0.016,1.646,22.175,120.893,9.788,92.713,0,0,0,2.8e4,1.35e4,19.962,0.106,NaN,2019.955,NaN,0.006,3.927e5,4.513,-1.02e-5,0.748,-1.942e-4,0.413,0.215,0.12,NaN,NaN,NaN,NaN,NaN,NaN,NaN,NaN,1.283e-5,165,213.825,80,0,2,15,1013.25,340.389,0.01,0.007
0.25,-4.666e-4,-0.093,-9.331,0.095,9.475,-8.227e-5,0,8.227e-5,180,0.016,1.645,22.175,120.893,9.788,92.712,0,0,0,2.8e4,1.35e4,19.962,0.106,NaN,2019.954,NaN,0.006,3.927e5,4.587,-1.019e-5,0.748,-1.94e-4,0.413,0.215,0.12,NaN,NaN,NaN,NaN,NaN,NaN,NaN,NaN,1.283e-5,165,213.825,80,0,2,15,1013.25,340.389,0.01,0.007
0.26,-4.668e-4,-0.093,-9.337,0.095,9.481,-8.232e-5,0,8.232e-5,180,0.016,1.646,22.175,120.893,9.788,92.714,0,0,0,2.8e4,1.35e4,19.962,0.106,NaN,2019.952,NaN,0.006,3.927e5,4.429,-1.021e-5,0.748,-1.944e-4,0.413,0.215,0.12,NaN,NaN,NaN,NaN,NaN,NaN,NaN,NaN,1.284e-5,165,213.825,80,0,2,15,1013.25,340.389,0.01,0.007
0.27,-4.667e-4,-0.093,-9.333,0.095,9.477,-8.229e-5,0,8.229e-5,180,0.016,1.646,22.175,120.893,9.788,92.713,0,0,0,2.8e4,1.35e4,19.962,0.106,NaN,2019.95,NaN,0.006,3.927e5,4.527,-1.019e-5,0.748,-1.942e-4,0.413,0.215,0.12,NaN,NaN,NaN,NaN,NaN,NaN,NaN,NaN,1.283e-5,165,213.825,80,0,2,15,1013.25,340.389,0.01,0.007
0.28,-4.667e-4,-0.093,-9.335,0.095,9.479,-8.23e-5,0,8.23e-5,180,0.016,1.646,22.175,120.893,9.788,92.713,0,0,0,2.8e4,1.35e4,19.962,0.106,NaN,2019.949,NaN,0.006,3.927e5,4.488,-1.02e-5,0.748,-1.943e-4,0.413,0.215,0.12,NaN,NaN,NaN,NaN,NaN,NaN,NaN,NaN,1.283e-5,165,213.825,80,0,2,15,1013.25,340.389,0.01,0.008
0.29,-4.665e-4,-0.093,-9.33,0.095,9.474,-8.226e-5,0,8.226e-5,180,0.016,1.645,22.175,120.893,9.788,92.712,0,0,0,2.8e4,1.35e4,19.962,0.106,NaN,2019.947,NaN,0.006,3.927e5,4.616,-1.018e-5,0.748,-1.94e-4,0.413,0.215,0.12,NaN,NaN,NaN,NaN,NaN,NaN,NaN,NaN,1.283e-5,165,213.825,80,0,2,15,1013.25,340.389,0.01,0.008
0.3,-4.666e-4,-0.093,-9.333,0.095,9.477,-8.228e-5,0,8.228e-5,180,0.016,1.646,22.175,120.893,9.788,92.713,0,0,0,2.8e4,1.35e4,19.962,0.106,NaN,2019.945,NaN,0.006,3.927e5,4.548,-1.019e-5,0.748,-1.941e-4,0.413,0.215,0.12,NaN,NaN,NaN,NaN,NaN,NaN,NaN,NaN,1.283e-5,165,213.825,80,0,2,15,1013.25,340.389,0.01,0.008
0.31,-4.664e-4,-0.093,-9.327,0.095,9.471,-8.223e-5,0,8.223e-5,180,0.016,1.645,22.175,120.893,9.788,92.711,0,0,0,2.8e4,1.35e4,19.962,0.106,NaN,2019.943,NaN,0.006,3.927e5,4.706,-1.017e-5,0.748,-1.938e-4,0.413,0.215,0.12,NaN,NaN,NaN,NaN,NaN,NaN,NaN,NaN,1.282e-5,165,213.825,80,0,2,15,1013.25,340.389,0.01,0.008
0.32,-4.67e-4,-0.093,-9.34,0.095,9.484,-8.235e-5,0,8.235e-5,180,0.016,1.647,22.175,120.893,9.788,92.715,0,0,0,2.8e4,1.35e4,19.962,0.106,NaN,2019.942,NaN,0.006,3.927e5,4.332,-1.022e-5,0.748,-1.946e-4,0.413,0.215,0.12,NaN,NaN,NaN,NaN,NaN,NaN,NaN,NaN,1.284e-5,165,213.825,80,0,2,15,1013.25,340.389,0.01,0.008
0.33,-4.667e-4,-0.093,-9.335,0.095,9.479,-8.23e-5,0,8.23e-5,180,0.016,1.646,22.175,120.893,9.788,92.713,0,0,0,2.8e4,1.35e4,19.962,0.106,NaN,2019.94,NaN,0.006,3.927e5,4.483,-1.02e-5,0.748,-1.943e-4,0.413,0.215,0.12,NaN,NaN,NaN,NaN,NaN,NaN,NaN,NaN,1.283e-5,165,213.825,80,0,2,15,1013.25,340.389,0.01,0.009
0.34,-4.666e-4,-0.093,-9.332,0.095,9.476,-8.227e-5,0,8.227e-5,180,0.016,1.645,22.175,120.893,9.788,92.713,0,0,0,2.8e4,1.35e4,19.962,0.106,NaN,2019.938,NaN,0.006,3.927e5,4.57,-1.019e-5,0.748,-1.941e-4,0.413,0.215,0.12,NaN,NaN,NaN,NaN,NaN,NaN,NaN,NaN,1.283e-5,165,213.825,80,0,2,15,1013.25,340.389,0.01,0.009
0.35,-4.669e-4,-0.093,-9.337,0.095,9.481,-8.232e-5,0,8.232e-5,180,0.016,1.646,22.175,120.893,9.788,92.714,0,0,0,2.8e4,1.35e4,19.962,0.106,NaN,2019.936,NaN,0.006,3.927e5,4.419,-1.021e-5,0.748,-1.944e-4,0.413,0.215,0.12,NaN,NaN,NaN,NaN,NaN,NaN,NaN,NaN,1.284e-5,165,213.825,80,0,2,15,1013.25,340.389,0.01,0.009
0.36,-4.67e-4,-0.093,-9.341,0.095,9.485,-8.235e-5,0,8.235e-5,180,0.016,1.647,22.175,120.893,9.788,92.715,0,0,0,2.8e4,1.35e4,19.962,0.106,NaN,2019.935,NaN,0.006,3.927e5,4.317,-1.022e-5,0.748,-1.946e-4,0.413,0.215,0.12,NaN,NaN,NaN,NaN,NaN,NaN,NaN,NaN,1.284e-5,165,213.825,80,0,2,15,1013.25,340.389,0.01,0.009
0.37,-4.667e-4,-0.093,-9.333,0.095,9.477,-8.229e-5,0,8.229e-5,180,0.016,1.646,22.175,120.893,9.788,92.713,0,0,0,2.8e4,1.35e4,19.962,0.106,NaN,2019.933,NaN,0.006,3.927e5,4.522,-1.02e-5,0.748,-1.942e-4,0.413,0.215,0.12,NaN,NaN,NaN,NaN,NaN,NaN,NaN,NaN,1.283e-5,165,213.825,80,0,2,15,1013.25,340.389,0.01,0.009
0.38,-4.668e-4,-0.093,-9.337,0.095,9.481,-8.232e-5,0,8.232e-5,180,0.016,1.646,22.175,120.893,9.788,92.714,0,0,0,2.8e4,1.35e4,19.962,0.106,NaN,2019.931,NaN,0.006,3.927e5,4.433,-1.021e-5,0.748,-1.944e-4,0.413,0.215,0.12,NaN,NaN,NaN,NaN,NaN,NaN,NaN,NaN,1.284e-5,165,213.825,80,0,2,15,1013.25,340.389,0.01,0.009
0.39,-4.664e-4,-0.093,-9.328,0.095,9.472,-8.224e-5,0,8.224e-5,180,0.016,1.645,22.175,120.893,9.788,92.712,0,0,0,2.8e4,1.35e4,19.962,0.106,NaN,2019.93,NaN,0.006,3.927e5,4.673,-1.018e-5,0.748,-1.938e-4,0.413,0.215,0.12,NaN,NaN,NaN,NaN,NaN,NaN,NaN,NaN,1.282e-5,165,213.825,80,0,2,15,1013.25,340.389,0.01,0.01
0.4,-4.662e-4,-0.093,-9.323,0.095,9.467,-8.22e-5,0,8.22e-5,180,0.016,1.644,22.175,120.893,9.788,92.71,0,0,0,2.8e4,1.35e4,19.962,0.106,NaN,2019.928,NaN,0.006,3.927e5,4.812,-1.016e-5,0.748,-1.935e-4,0.413,0.215,0.12,NaN,NaN,NaN,NaN,NaN,NaN,NaN,NaN,1.282e-5,165,213.825,80,0,2,15,1013.25,340.389,0.01,0.01
0.41,-4.665e-4,-0.093,-9.331,0.095,9.475,-8.226e-5,0,8.226e-5,180,0.016,1.645,22.175,120.893,9.788,92.712,0,0,0,2.8e4,1.35e4,19.962,0.106,NaN,2019.926,NaN,0.006,3.927e5,4.595,-1.019e-5,0.748,-1.94e-4,0.413,0.215,0.12,NaN,NaN,NaN,NaN,NaN,NaN,NaN,NaN,1.283e-5,165,213.825,80,0,2,15,1013.25,340.389,0.01,0.01
0.42,-4.665e-4,-0.093,-9.329,0.095,9.473,-8.225e-5,0,8.225e-5,180,0.016,1.645,22.175,120.893,9.788,92.712,0,0,0,2.8e4,1.35e4,19.962,0.106,NaN,2019.924,NaN,0.006,3.927e5,4.638,-1.018e-5,0.748,-1.939e-4,0.413,0.215,0.12,NaN,NaN,NaN,NaN,NaN,NaN,NaN,NaN,1.283e-5,165,213.825,80,0,2,15,1013.25,340.389,0.01,0.01
0.43,-4.662e-4,-0.093,-9.323,0.095,9.467,-8.22e-5,0,8.22e-5,180,0.016,1.644,22.175,120.893,9.788,92.71,0,0,0,2.8e4,1.35e4,19.962,0.106,NaN,2019.922,NaN,0.006,3.927e5,4.811,-1.016e-5,0.748,-1.935e-4,0.413,0.215,0.12,NaN,NaN,NaN,NaN,NaN,NaN,NaN,NaN,1.282e-5,165,213.825,80,0,2,15,1013.25,340.389,0.01,0.01
0.44,-4.66e-4,-0.093,-9.32,0.095,9.463,-8.216e-5,0,8.216e-5,180,0.016,1.643,22.175,120.893,9.788,92.709,0,0,0,2.8e4,1.35e4,19.962,0.106,NaN,2019.921,NaN,0.006,3.927e5,4.919,-1.015e-5,0.748,-1.933e-4,0.413,0.215,0.12,NaN,NaN,NaN,NaN,NaN,NaN,NaN,NaN,1.281e-5,165,213.825,80,0,2,15,1013.25,340.389,0.01,0.011
0.45,-4.666e-4,-0.093,-9.331,0.095,9.475,-8.227e-5,0,8.227e-5,180,0.016,1.645,22.175,120.893,9.788,92.712,0,0,0,2.8e4,1.35e4,19.961,0.106,NaN,2019.919,NaN,0.006,3.927e5,4.583,-1.019e-5,0.748,-1.94e-4,0.413,0.215,0.12,NaN,NaN,NaN,NaN,NaN,NaN,NaN,NaN,1.283e-5,165,213.825,80,0,2,15,1013.25,340.389,0.01,0.011
0.46,-4.668e-4,-0.093,-9.337,0.095,9.481,-8.232e-5,0,8.232e-5,180,0.016,1.646,22.175,120.893,9.788,92.714,0,0,0,2.8e4,1.35e4,19.961,0.106,NaN,2019.917,NaN,0.006,3.927e5,4.429,-1.021e-5,0.748,-1.944e-4,0.413,0.215,0.12,NaN,NaN,NaN,NaN,NaN,NaN,NaN,NaN,1.284e-5,165,213.825,80,0,2,15,1013.25,340.389,0.01,0.011
0.47,-4.668e-4,-0.093,-9.336,0.095,9.48,-8.231e-5,0,8.231e-5,180,0.016,1.646,22.175,120.893,9.788,92.714,0,0,0,2.8e4,1.35e4,19.961,0.106,NaN,2019.915,NaN,0.006,3.927e5,4.45,-1.02e-5,0.748,-1.943e-4,0.413,0.215,0.12,NaN,NaN,NaN,NaN,NaN,NaN,NaN,NaN,1.284e-5,165,213.825,80,0,2,15,1013.25,340.389,0.01,0.011
0.48,-4.66e-4,-0.093,-9.32,0.095,9.464,-8.217e-5,0,8.217e-5,180,0.016,1.643,22.175,120.893,9.788,92.709,0,0,0,2.8e4,1.35e4,19.961,0.106,NaN,2019.914,NaN,0.006,3.927e5,4.905,-1.015e-5,0.748,-1.933e-4,0.413,0.215,0.12,NaN,NaN,NaN,NaN,NaN,NaN,NaN,NaN,1.281e-5,165,213.825,80,0,2,15,1013.25,340.389,0.01,0.011
0.49,-4.663e-4,-0.093,-9.326,0.095,9.469,-8.222e-5,0,8.222e-5,180,0.016,1.644,22.175,120.893,9.788,92.711,0,0,0,2.8e4,1.35e4,19.961,0.106,NaN,2019.912,NaN,0.006,3.927e5,4.746,-1.017e-5,0.748,-1.937e-4,0.413,0.215,0.12,NaN,NaN,NaN,NaN,NaN,NaN,NaN,NaN,1.282e-5,165,213.825,80,0,2,15,1013.25,340.389,0.01,0.011
0.5,-4.668e-4,-0.093,-9.335,0.095,9.479,-8.23e-5,0,8.23e-5,180,0.016,1.646,22.175,120.893,9.788,92.714,0,0,0,2.8e4,1.35e4,19.961,0.106,NaN,2019.91,NaN,0.006,3.927e5,4.47,-1.02e-5,0.748,-1.943e-4,0.413,0.215,0.12,NaN,NaN,NaN,NaN,NaN,NaN,NaN,NaN,1.283e-5,165,213.825,80,0,2,15,1013.25,340.389,0.01,0.012
0.51,-4.664e-4,-0.093,-9.329,0.095,9.473,-8.225e-5,0,8.225e-5,180,0.016,1.645,22.175,120.893,9.788,92.712,0,0,0,2.8e4,1.35e4,19.961,0.106,NaN,2019.908,NaN,0.006,3.927e5,4.657,-1.018e-5,0.748,-1.939e-4,0.413,0.215,0.12,NaN,NaN,NaN,NaN,NaN,NaN,NaN,NaN,1.283e-5,165,213.825,80,0,2,15,1013.25,340.389,0.01,0.012
0.52,-4.656e-4,-0.093,-9.313,0.095,9.456,-8.21e-5,0,8.21e-5,180,0.016,1.642,22.175,120.893,9.788,92.707,0,0,0,2.8e4,1.35e4,19.961,0.106,NaN,2019.906,NaN,0.006,3.927e5,5.115,-1.013e-5,0.748,-1.929e-4,0.413,0.215,0.12,NaN,NaN,NaN,NaN,NaN,NaN,NaN,NaN,1.28e-5,165,213.825,80,0,2,15,1013.25,340.389,0.01,0.012
0.53,-4.652e-4,-0.093,-9.305,0.094,9.448,-8.203e-5,0,8.203e-5,180,0.016,1.641,22.175,120.893,9.788,92.705,0,0,0,2.8e4,1.35e4,19.961,0.106,NaN,2019.904,NaN,0.006,3.927e5,5.339,-1.01e-5,0.748,-1.924e-4,0.413,0.215,0.12,NaN,NaN,NaN,NaN,NaN,NaN,NaN,NaN,1.279e-5,165,213.825,80,0,2,15,1013.25,340.389,0.01,0.012
0.54,-4.665e-4,-0.093,-9.329,0.095,9.473,-8.225e-5,0,8.225e-5,180,0.016,1.645,22.175,120.893,9.788,92.712,0,0,0,2.8e4,1.35e4,19.961,0.106,NaN,2019.903,NaN,0.006,3.927e5,4.638,-1.018e-5,0.748,-1.939e-4,0.413,0.215,0.12,NaN,NaN,NaN,NaN,NaN,NaN,NaN,NaN,1.283e-5,165,213.825,80,0,2,15,1013.25,340.389,0.01,0.012
0.55,-4.661e-4,-0.093,-9.323,0.095,9.467,-8.219e-5,0,8.219e-5,180,0.016,1.644,22.175,120.893,9.788,92.71,0,0,0,2.8e4,1.35e4,19.961,0.106,NaN,2019.901,NaN,0.006,3.927e5,4.82,-1.016e-5,0.748,-1.935e-4,0.413,0.215,0.12,NaN,NaN,NaN,NaN,NaN,NaN,NaN,NaN,1.282e-5,165,213.825,80,0,2,15,1013.25,340.389,0.01,0.013
0.56,-4.656e-4,-0.093,-9.312,0.095,9.455,-8.21e-5,0,8.21e-5,180,0.016,1.642,22.175,120.893,9.788,92.707,0,0,0,2.8e4,1.35e4,19.961,0.106,NaN,2019.899,NaN,0.006,3.927e5,5.14,-1.012e-5,0.748,-1.928e-4,0.413,0.215,0.12,NaN,NaN,NaN,NaN,NaN,NaN,NaN,NaN,1.28e-5,165,213.825,80,0,2,15,1013.25,340.389,0.01,0.013
0.57,-4.655e-4,-0.093,-9.311,0.095,9.455,-8.209e-5,0,8.209e-5,180,0.016,1.642,22.175,120.893,9.788,92.707,0,0,0,2.8e4,1.35e4,19.961,0.106,NaN,2019.897,NaN,0.006,3.927e5,5.164,-1.012e-5,0.748,-1.928e-4,0.413,0.215,0.12,NaN,NaN,NaN,NaN,NaN,NaN,NaN,NaN,1.28e-5,165,213.825,80,0,2,15,1013.25,340.389,0.01,0.013
0.58,-4.656e-4,-0.093,-9.312,0.095,9.456,-8.21e-5,0,8.21e-5,180,0.016,1.642,22.175,120.893,9.788,92.707,0,0,0,2.8e4,1.35e4,19.961,0.106,NaN,2019.895,NaN,0.006,3.927e5,5.125,-1.013e-5,0.748,-1.929e-4,0.413,0.215,0.12,NaN,NaN,NaN,NaN,NaN,NaN,NaN,NaN,1.28e-5,165,213.825,80,0,2,15,1013.25,340.389,0.01,0.013
0.59,-4.653e-4,-0.093,-9.306,0.094,9.45,-8.205e-5,0,8.205e-5,180,0.016,1.641,22.175,120.893,9.788,92.705,0,0,0,2.8e4,1.35e4,19.961,0.106,NaN,2019.893,NaN,0.006,3.927e5,5.296,-1.011e-5,0.748,-1.925e-4,0.413,0.215,0.12,NaN,NaN,NaN,NaN,NaN,NaN,NaN,NaN,1.279e-5,165,213.825,80,0,2,15,1013.25,340.389,0.01,0.013
0.6,-4.648e-4,-0.093,-9.297,0.094,9.44,-8.196e-5,0,8.196e-5,180,0.016,1.639,22.175,120.893,9.788,92.702,0,0,0,2.8e4,1.349e4,19.961,0.106,NaN,2019.891,NaN,0.006,3.927e5,5.567,-1.008e-5,0.748,-1.919e-4,0.413,0.215,0.12,NaN,NaN,NaN,NaN,NaN,NaN,NaN,NaN,1.278e-5,165,213.825,80,0,2,15,1013.25,340.389,0.01,0.013
0.61,-4.646e-4,-0.093,-9.291,0.094,9.435,-8.192e-5,0,8.192e-5,180,0.016,1.638,22.175,120.893,9.788,92.701,0,0,0,2.8e4,1.349e4,19.961,0.106,NaN,2019.889,NaN,0.006,3.927e5,5.717,-1.006e-5,0.748,-1.916e-4,0.413,0.215,0.12,NaN,NaN,NaN,NaN,NaN,NaN,NaN,NaN,1.277e-5,165,213.825,80,0,2,15,1013.25,340.389,0.01,0.014
0.62,-4.652e-4,-0.093,-9.304,0.094,9.447,-8.203e-5,0,8.203e-5,180,0.016,1.641,22.175,120.893,9.788,92.704,0,0,0,2.8e4,1.349e4,19.961,0.106,NaN,2019.887,NaN,0.006,3.927e5,5.366,-1.01e-5,0.748,-1.923e-4,0.413,0.215,0.12,NaN,NaN,NaN,NaN,NaN,NaN,NaN,NaN,1.279e-5,165,213.825,80,0,2,15,1013.25,340.389,0.01,0.014
0.63,-4.643e-4,-0.093,-9.287,0.094,9.43,-8.188e-5,0,8.188e-5,180,0.016,1.638,22.175,120.893,9.788,92.7,0,0,0,2.799e4,1.349e4,19.961,0.106,NaN,2019.884,NaN,0.006,3.927e5,5.844,-1.004e-5,0.748,-1.913e-4,0.413,0.215,0.12,NaN,NaN,NaN,NaN,NaN,NaN,NaN,NaN,1.277e-5,165,213.825,80,0,2,15,1013.25,340.389,0.01,0.014
0.64,-4.645e-4,-0.093,-9.289,0.094,9.432,-8.19e-5,0,8.19e-5,180,0.016,1.638,22.175,120.893,9.788,92.7,0,0,0,2.799e4,1.349e4,19.961,0.106,NaN,2019.882,NaN,0.006,3.927e5,5.786,-1.005e-5,0.748,-1.914e-4,0.413,0.215,0.12,NaN,NaN,NaN,NaN,NaN,NaN,NaN,NaN,1.277e-5,165,213.825,80,0,2,15,1013.25,340.389,0.01,0.014
0.65,-4.641e-4,-0.093,-9.283,0.094,9.426,-8.184e-5,0,8.184e-5,180,0.016,1.637,22.175,120.893,9.788,92.698,0,0,0,2.799e4,1.349e4,19.961,0.106,NaN,2019.88,NaN,0.006,3.927e5,5.968,-1.003e-5,0.748,-1.911e-4,0.413,0.215,0.12,NaN,NaN,NaN,NaN,NaN,NaN,NaN,NaN,1.276e-5,165,213.825,80,0,2,15,1013.25,340.389,0.01,0.014
0.66,-4.631e-4,-0.093,-9.262,0.094,9.405,-8.166e-5,0,8.166e-5,180,0.016,1.633,22.175,120.893,9.788,92.692,0,0,0,2.799e4,1.349e4,19.961,0.106,NaN,2019.877,NaN,0.006,3.927e5,6.551,-9.965e-6,0.748,-1.898e-4,0.413,0.215,0.12,NaN,NaN,NaN,NaN,NaN,NaN,NaN,NaN,1.273e-5,165,213.825,80,0,2,15,1013.25,340.389,0.01,0.015
0.67,-4.628e-4,-0.093,-9.256,0.094,9.399,-8.161e-5,0,8.161e-5,180,0.016,1.632,22.175,120.893,9.788,92.691,0,0,0,2.799e4,1.349e4,19.961,0.106,NaN,2019.875,NaN,0.006,3.927e5,6.72,-9.946e-6,0.748,-1.894e-4,0.413,0.215,0.12,NaN,NaN,NaN,NaN,NaN,NaN,NaN,NaN,1.273e-5,165,213.825,80,0,2,15,1013.25,340.389,0.01,0.015
0.68,-4.618e-4,-0.092,-9.236,0.094,9.378,-8.143e-5,0,8.143e-5,180,0.016,1.629,22.175,120.893,9.788,92.685,0,0,0,2.799e4,1.349e4,19.961,0.106,NaN,2019.872,NaN,0.006,3.927e5,7.299,-9.881e-6,0.748,-1.882e-4,0.413,0.215,0.12,NaN,NaN,NaN,NaN,NaN,NaN,NaN,NaN,1.27e-5,165,213.825,80,0,2,15,1013.25,340.389,0.01,0.015
0.69,-4.615e-4,-0.092,-9.23,0.094,9.372,-8.137e-5,0,8.137e-5,180,0.016,1.627,22.175,120.893,9.788,92.683,0,0,0,2.799e4,1.349e4,19.961,0.106,NaN,2019.869,NaN,0.006,3.927e5,7.467,-9.863e-6,0.748,-1.878e-4,0.413,0.215,0.12,NaN,NaN,NaN,NaN,NaN,NaN,NaN,NaN,1.269e-5,165,213.825,80,0,2,15,1013.25,340.389,0.01,0.015
0.7,-4.606e-4,-0.092,-9.213,0.094,9.355,-8.122e-5,0,8.122e-5,180,0.016,1.624,22.175,120.893,9.788,92.678,0,0,0,2.799e4,1.349e4,19.961,0.106,NaN,2019.866,NaN,0.006,3.927e5,7.951,-9.809e-6,0.748,-1.868e-4,0.413,0.215,0.12,NaN,NaN,NaN,NaN,NaN,NaN,NaN,NaN,1.267e-5,165,213.825,80,0,2,15,1013.25,340.389,0.01,0.015
0.71,-4.589e-4,-0.092,-9.178,0.093,9.32,-8.092e-5,0,8.092e-5,180,0.016,1.618,22.175,120.893,9.788,92.668,0,0,0,2.799e4,1.349e4,19.96,0.106,NaN,2019.863,NaN,0.006,3.927e5,8.938,-9.699e-6,0.748,-1.847e-4,0.413,0.215,0.12,NaN,NaN,NaN,NaN,NaN,NaN,NaN,NaN,1.262e-5,165,213.825,80,0,2,15,1013.25,340.389,0.01,0.015
0.72,-4.583e-4,-0.092,-9.167,0.093,9.308,-8.082e-5,0,8.082e-5,180,0.016,1.616,22.175,120.893,9.788,92.665,0,0,0,2.799e4,1.349e4,19.96,0.106,NaN,2019.859,NaN,0.006,3.927e5,9.255,-9.664e-6,0.748,-1.841e-4,0.413,0.215,0.12,NaN,NaN,NaN,NaN,NaN,NaN,NaN,NaN,1.26e-5,165,213.825,80,0,2,15,1013.25,340.389,0.01,0.016
0.73,-4.567e-4,-0.091,-9.134,0.093,9.275,-8.053e-5,0,8.053e-5,180,0.016,1.611,22.175,120.893,9.788,92.655,0,0,0,2.799e4,1.349e4,19.96,0.106,NaN,2019.855,NaN,0.006,3.927e5,10.185,-9.562e-6,0.748,-1.821e-4,0.413,0.215,0.12,NaN,NaN,NaN,NaN,NaN,NaN,NaN,NaN,1.256e-5,165,213.825,80,0,2,15,1013.25,340.389,0.01,0.016
0.74,-4.548e-4,-0.091,-9.096,0.092,9.236,-8.019e-5,0,8.019e-5,180,0.016,1.604,22.175,120.893,9.788,92.644,0,0,0,2.799e4,1.349e4,19.96,0.106,NaN,2019.851,NaN,0.006,3.927e5,11.275,-9.443e-6,0.748,-1.799e-4,0.413,0.215,0.12,NaN,NaN,NaN,NaN,NaN,NaN,NaN,NaN,1.251e-5,165,213.825,80,0,2,15,1013.25,340.389,0.01,0.016
0.75,-4.53e-4,-0.091,-9.059,0.092,9.199,-7.987e-5,0,7.987e-5,180,0.016,1.597,22.175,120.893,9.788,92.633,0,0,0,2.799e4,1.349e4,19.96,0.106,NaN,2019.846,NaN,0.006,3.926e5,12.322,-9.33e-6,0.748,-1.777e-4,0.413,0.215,0.12,NaN,NaN,NaN,NaN,NaN,NaN,NaN,NaN,1.245e-5,165,213.825,80,0,2,15,1013.25,340.389,0.01,0.016
0.76,-4.506e-4,-0.09,-9.012,0.092,9.151,-7.945e-5,0,7.945e-5,180,0.016,1.589,22.175,120.893,9.788,92.62,0,0,0,2.799e4,1.349e4,19.96,0.106,NaN,2019.841,NaN,0.006,3.926e5,13.663,-9.186e-6,0.748,-1.75e-4,0.413,0.215,0.12,NaN,NaN,NaN,NaN,NaN,NaN,NaN,NaN,1.239e-5,165,213.825,80,0,2,15,1013.25,340.389,0.01,0.016
0.77,-4.495e-4,-0.09,-8.989,0.091,9.128,-7.925e-5,0,7.925e-5,180,0.016,1.585,22.175,120.893,9.788,92.613,0,0,0,2.799e4,1.349e4,19.96,0.106,NaN,2019.836,NaN,0.006,3.926e5,14.302,-9.118e-6,0.748,-1.737e-4,0.413,0.215,0.12,NaN,NaN,NaN,NaN,NaN,NaN,NaN,NaN,1.236e-5,165,213.825,80,0,2,15,1013.25,340.389,0.01,0.017
0.78,-4.469e-4,-0.089,-8.938,0.091,9.076,-7.88e-5,0,7.88e-5,180,0.016,1.576,22.175,120.893,9.788,92.598,0,0,0,2.799e4,1.349e4,19.96,0.106,NaN,2019.83,NaN,0.006,3.926e5,15.77,-8.964e-6,0.748,-1.708e-4,0.413,0.215,0.12,NaN,NaN,NaN,NaN,NaN,NaN,NaN,NaN,1.229e-5,165,213.825,80,0,2,15,1013.25,340.389,0.01,0.017
0.79,-4.449e-4,-0.089,-8.897,0.09,9.034,-7.844e-5,0,7.844e-5,180,0.016,1.569,22.175,120.893,9.788,92.586,0,0,0,2.799e4,1.349e4,19.96,0.106,NaN,2019.823,NaN,0.006,3.926e5,16.927,-8.843e-6,0.748,-1.685e-4,0.413,0.215,0.12,NaN,NaN,NaN,NaN,NaN,NaN,NaN,NaN,1.223e-5,165,213.825,80,0,2,15,1013.25,340.389,0.01,0.017
0.8,-4.428e-4,-0.089,-8.855,0.09,8.992,-7.807e-5,0,7.807e-5,180,0.016,1.561,22.175,120.893,9.788,92.574,0,0,0,2.799e4,1.349e4,19.96,0.106,NaN,2019.816,NaN,0.006,3.926e5,18.121,-8.719e-6,0.748,-1.661e-4,0.413,0.215,0.12,NaN,NaN,NaN,NaN,NaN,NaN,NaN,NaN,1.217e-5,165,213.825,80,0,2,15,1013.25,340.389,0.01,0.017
0.81,-4.404e-4,-0.088,-8.809,0.089,8.945,-7.766e-5,0,7.766e-5,180,0.016,1.553,22.175,120.893,9.788,92.561,0,0,0,2.799e4,1.349e4,19.96,0.106,NaN,2019.809,NaN,0.006,3.926e5,19.438,-8.584e-6,0.748,-1.635e-4,0.413,0.215,0.12,NaN,NaN,NaN,NaN,NaN,NaN,NaN,NaN,1.211e-5,165,213.825,80,0,2,15,1013.25,340.389,0.01,0.017
0.82,-4.392e-4,-0.088,-8.783,0.089,8.919,-7.744e-5,0,7.744e-5,180,0.015,1.549,22.175,120.893,9.788,92.553,0,0,0,2.799e4,1.349e4,19.959,0.106,NaN,2019.801,NaN,0.006,3.926e5,20.155,-8.511e-6,0.748,-1.621e-4,0.413,0.215,0.12,NaN,NaN,NaN,NaN,NaN,NaN,NaN,NaN,1.208e-5,165,213.825,80,0,2,15,1013.25,340.389,0.01,0.018
0.83,-4.343e-4,-0.087,-8.687,0.088,8.821,-7.659e-5,0,7.659e-5,180,0.015,1.532,22.175,120.893,9.788,92.525,0,0,0,2.799e4,1.349e4,19.959,0.106,NaN,2019.793,NaN,0.006,3.926e5,22.899,-8.236e-6,0.748,-1.569e-4,0.413,0.215,0.12,NaN,NaN,NaN,NaN,NaN,NaN,NaN,NaN,1.194e-5,165,213.825,80,0,2,15,1013.25,340.389,0.01,0.018
0.84,-4.256e-4,-0.085,-8.511,0.086,8.643,-7.504e-5,0,7.504e-5,180,0.015,1.501,22.175,120.893,9.788,92.474,0,0,0,2.799e4,1.349e4,19.959,0.106,NaN,2019.782,NaN,0.006,3.926e5,27.886,-7.751e-6,0.748,-1.477e-4,0.413,0.215,0.12,NaN,NaN,NaN,NaN,NaN,NaN,NaN,NaN,1.17e-5,165,213.825,80,0,2,15,1013.25,340.389,0.01,0.018
0.85,-4.183e-4,-0.084,-8.365,0.085,8.494,-7.375e-5,0,7.375e-5,180,0.015,1.475,22.175,120.893,9.788,92.432,0,0,0,2.799e4,1.349e4,19.959,0.106,NaN,2019.77,NaN,0.006,3.926e5,32.036,-7.362e-6,0.748,-1.403e-4,0.413,0.215,0.12,NaN,NaN,NaN,NaN,NaN,NaN,NaN,NaN,1.15e-5,165,213.825,80,0,2,15,1013.25,340.389,0.01,0.018
0.86,-4.106e-4,-0.082,-8.212,0.083,8.339,-7.24e-5,0,7.24e-5,180,0.014,1.448,22.175,120.893,9.788,92.387,0,0,0,2.799e4,1.349e4,19.959,0.106,NaN,2019.756,NaN,0.006,3.926e5,36.392,-6.968e-6,0.748,-1.328e-4,0.413,0.215,0.12,NaN,NaN,NaN,NaN,NaN,NaN,NaN,NaN,1.129e-5,165,213.825,80,0,2,15,1013.25,340.389,0.01,0.018
0.87,-4.032e-4,-0.081,-8.065,0.082,8.189,-7.11e-5,0,7.11e-5,180,0.014,1.422,22.175,120.893,9.788,92.345,0,0,0,2.799e4,1.349e4,19.958,0.106,NaN,2019.74,NaN,0.006,3.926e5,40.581,-6.603e-6,0.748,-1.258e-4,0.413,0.215,0.12,NaN,NaN,NaN,NaN,NaN,NaN,NaN,NaN,1.109e-5,165,213.825,80,0,2,15,1013.25,340.389,0.01,0.018
0.88,-3.96e-4,-0.079,-7.92,0.08,8.042,-6.983e-5,0,6.983e-5,180,0.014,1.397,22.175,120.893,9.788,92.303,0,0,0,2.799e4,1.349e4,19.958,0.106,NaN,2019.723,NaN,0.006,3.926e5,44.682,-6.257e-6,0.748,-1.193e-4,0.413,0.215,0.12,NaN,NaN,NaN,NaN,NaN,NaN,NaN,NaN,1.089e-5,165,213.825,80,0,2,15,1013.25,340.389,0.01,0.019
0.89,-3.897e-4,-0.078,-7.793,0.079,7.913,-6.871e-5,0,6.871e-5,180,0.014,1.374,22.175,120.893,9.788,92.266,0,0,0,2.799e4,1.349e4,19.958,0.106,NaN,2019.705,NaN,0.006,3.925e5,48.294,-5.963e-6,0.748,-1.136e-4,0.413,0.215,0.12,NaN,NaN,NaN,NaN,NaN,NaN,NaN,NaN,1.071e-5,165,213.825,80,0,2,15,1013.25,340.389,0.01,0.019
0.9,-3.836e-4,-0.077,-7.671,0.078,7.79,-6.763e-5,0,6.763e-5,180,0.014,1.353,22.175,120.893,9.788,92.23,0,0,0,2.799e4,1.349e4,19.957,0.106,NaN,2019.685,NaN,0.006,3.925e5,51.752,-5.69e-6,0.748,-1.085e-4,0.413,0.215,0.12,NaN,NaN,NaN,NaN,NaN,NaN,NaN,NaN,1.055e-5,165,213.825,80,0,2,15,1013.25,340.389,0.01,0.019
0.91,-3.755e-4,-0.075,-7.511,0.076,7.626,-6.622e-5,0,6.622e-5,180,0.013,1.324,22.175,120.893,9.788,92.184,0,0,0,2.798e4,1.348e4,19.957,0.106,NaN,2019.664,NaN,0.006,3.925e5,56.319,-5.342e-6,0.748,-1.018e-4,0.413,0.215,0.12,NaN,NaN,NaN,NaN,NaN,NaN,NaN,NaN,1.033e-5,165,213.825,80,0,2,15,1013.25,340.389,0.01,0.019
0.92,-3.677e-4,-0.074,-7.355,0.075,7.468,-6.484e-5,0,6.484e-5,180,0.013,1.297,22.175,120.893,9.788,92.138,0,0,0,2.798e4,1.348e4,19.957,0.106,NaN,2019.641,NaN,0.006,3.925e5,60.748,-5.019e-6,0.748,-9.567e-5,0.413,0.215,0.12,NaN,NaN,NaN,NaN,NaN,NaN,NaN,NaN,1.011e-5,165,213.825,80,0,2,15,1013.25,340.389,0.01,0.019
0.93,-3.56e-4,-0.071,-7.121,0.072,7.231,-6.278e-5,0,6.278e-5,180,0.013,1.256,22.175,120.893,9.788,92.071,0,0,0,2.798e4,1.348e4,19.956,0.106,NaN,2019.615,NaN,0.006,3.925e5,67.387,-4.559e-6,0.748,-8.691e-5,0.413,0.215,0.12,NaN,NaN,NaN,NaN,NaN,NaN,NaN,NaN,9.79e-6,165,213.825,80,0,2,15,1013.25,340.389,0.01,0.02
0.94,-3.418e-4,-0.068,-6.837,0.069,6.942,-6.028e-5,0,6.028e-5,180,0.012,1.206,22.175,120.893,9.788,91.988,0,0,0,2.798e4,1.348e4,19.956,0.106,NaN,2019.586,NaN,0.006,3.925e5,75.455,-4.038e-6,0.748,-7.699e-5,0.413,0.215,0.12,NaN,NaN,NaN,NaN,NaN,NaN,NaN,NaN,9.4e-6,165,213.825,80,0,2,15,1013.25,340.389,0.01,0.02
0.95,-3.257e-4,-0.065,-6.515,0.066,6.615,-5.744e-5,0,5.744e-5,180,0.011,1.149,22.175,120.893,9.788,91.894,0,0,0,2.798e4,1.348e4,19.955,0.106,NaN,2019.554,NaN,0.006,3.924e5,84.603,-3.497e-6,0.748,-6.669e-5,0.413,0.215,0.12,NaN,NaN,NaN,NaN,NaN,NaN,NaN,NaN,8.957e-6,165,213.825,80,0,2,15,1013.25,340.389,0.01,0.02
0.96,-3.058e-4,-0.061,-6.116,0.062,6.21,-5.392e-5,0,5.392e-5,180,0.011,1.078,22.175,120.893,9.788,91.779,0,0,0,2.798e4,1.348e4,19.954,0.106,NaN,2019.517,NaN,0.006,3.924e5,95.934,-2.897e-6,0.748,-5.524e-5,0.413,0.215,0.12,NaN,NaN,NaN,NaN,NaN,NaN,NaN,NaN,8.408e-6,165,213.825,80,0,2,15,1013.25,340.389,0.01,0.02
0.97,-2.857e-4,-0.057,-5.714,0.058,5.803,-5.038e-5,0,5.038e-5,180,0.01,1.008,22.175,120.893,9.788,91.662,0,0,0,2.798e4,1.348e4,19.954,0.106,NaN,2019.476,NaN,0.006,3.924e5,107.326,-2.366e-6,0.748,-4.513e-5,0.413,0.215,0.12,NaN,NaN,NaN,NaN,NaN,NaN,NaN,NaN,7.856e-6,165,213.825,80,0,2,15,1013.25,340.389,0.01,0.02
0.98,-2.598e-4,-0.052,-5.196,0.053,5.276,-4.581e-5,0,4.581e-5,180,0.009,0.916,22.175,120.893,9.788,91.511,0,0,0,2.797e4,1.347e4,19.953,0.106,NaN,2019.43,NaN,0.006,3.924e5,122.033,-1.782e-6,0.748,-3.399e-5,0.413,0.215,0.12,NaN,NaN,NaN,NaN,NaN,NaN,NaN,NaN,7.144e-6,165,213.825,80,0,2,15,1013.25,340.389,0.01,0.02
0.99,-2.264e-4,-0.045,-4.527,0.046,4.597,-3.992e-5,0,3.992e-5,180,0.008,0.798,22.175,120.893,9.788,91.317,0,0,0,2.797e4,1.347e4,19.952,0.106,NaN,2019.376,NaN,0.006,3.923e5,141.022,-1.181e-6,0.748,-2.253e-5,0.413,0.215,0.12,NaN,NaN,NaN,NaN,NaN,NaN,NaN,NaN,6.225e-6,165,213.825,80,0,2,15,1013.25,340.389,0.01,0.021
1,-1.775e-4,-0.035,-3.549,0.036,3.604,-3.129e-5,0,3.129e-5,180,0.006,0.626,22.175,120.893,9.788,91.032,0,0,0,2.797e4,1.347e4,19.951,0.106,NaN,2019.312,NaN,0.006,3.923e5,168.795,-5.706e-7,0.748,-1.089e-5,0.413,0.215,0.12,NaN,NaN,NaN,NaN,NaN,NaN,NaN,NaN,4.88e-6,165,213.825,80,0,2,15,1013.25,340.389,0.01,0.021
1.01,-1.08e-4,-0.022,-2.16,0.022,2.193,-1.905e-5,0,1.905e-5,180,0.004,0.381,22.175,120.893,9.788,90.628,0,0,0,2.796e4,1.346e4,19.949,0.106,NaN,2019.232,NaN,0.006,3.923e5,208.221,-1.292e-7,0.748,-2.466e-6,0.413,0.215,0.12,NaN,NaN,NaN,NaN,NaN,NaN,NaN,NaN,2.97e-6,165,213.825,80,0,2,15,1013.25,340.389,0.01,0.021
1.02,-4.34e-5,-0.009,-0.867,0.009,0.88,-7.652e-6,0,7.652e-6,180,0.002,0.153,22.175,120.893,9.788,90.252,0,0,0,2.796e4,1.346e4,19.948,0.106,NaN,2019.139,NaN,0.006,3.922e5,244.886,-8.405e-9,0.748,-1.604e-7,0.413,0.215,0.12,NaN,NaN,NaN,NaN,NaN,NaN,NaN,NaN,1.193e-6,165,213.825,80,0,2,15,1013.25,340.389,0.01,0.021
1.03,2.651e-5,0.005,0.532,0.005,0.54,4.675e-6,0,4.675e-6,0,9.356e-4,0.094,22.175,120.893,9.788,89.846,0,0,0,2.795e4,1.345e4,19.946,0.106,NaN,2019.03,NaN,0.006,3.922e5,284.538,0,0.748,3.672e-8,0.413,0.215,0.12,NaN,NaN,NaN,NaN,NaN,NaN,NaN,NaN,7.294e-7,165,213.825,80,0,2,15,1013.25,340.389,0.01,0.021
1.04,1.812e-4,0.026,2.035,0.026,2.066,3.196e-5,0,3.196e-5,0,0.005,0.359,22.175,120.893,9.788,89.254,0,0,0,2.795e4,1.345e4,19.943,0.106,NaN,2018.905,NaN,0.006,3.923e5,327.142,2.158e-7,0.748,4.119e-6,0.413,0.215,0.12,NaN,NaN,NaN,NaN,NaN,NaN,NaN,NaN,3.525e-6,165,213.825,80,0,2,15,1013.25,340.389,0.01,0.022
1.05,6.197e-4,0.062,3.643,0.063,3.699,1.093e-4,0,1.093e-4,0,0.011,0.642,22.175,120.893,9.788,88.195,0,0,0,2.794e4,1.344e4,19.941,0.106,NaN,2018.763,NaN,0.006,3.924e5,372.693,3.026e-6,0.748,5.77e-5,0.413,0.215,0.12,NaN,NaN,NaN,NaN,NaN,NaN,NaN,NaN,8.532e-6,165,213.825,80,0,2,15,1013.25,340.389,0.01,0.022
1.06,0.002,0.118,5.603,0.12,5.689,2.681e-4,0,2.681e-4,0,0.021,0.988,22.175,120.893,9.788,86.57,0,0,0,2.793e4,1.343e4,19.938,0.106,NaN,2018.599,NaN,0.006,3.929e5,428.171,2.048e-5,0.748,3.895e-4,0.413,0.215,0.12,NaN,NaN,NaN,NaN,NaN,NaN,NaN,NaN,1.623e-5,165,213.825,80,0,2,15,1013.25,340.389,0.01,0.022
1.07,0.003,0.193,7.537,0.196,7.653,5.427e-4,0,5.427e-4,0,0.034,1.329,22.175,120.893,9.788,84.392,0,0,0,2.792e4,1.342e4,19.935,0.106,NaN,2018.415,NaN,0.006,3.941e5,482.882,8.79e-5,0.748,0.002,0.413,0.215,0.12,NaN,NaN,NaN,NaN,NaN,NaN,NaN,NaN,2.659e-5,165,213.825,80,0,2,15,1013.25,340.389,0.01,0.022
1.08,0.005,0.291,9.756,0.295,9.907,9.697e-4,0,9.697e-4,0,0.051,1.72,22.175,120.893,9.788,81.598,0,0,0,2.791e4,1.341e4,19.931,0.106,NaN,2018.206,NaN,0.006,3.965e5,545.617,2.899e-4,0.747,0.005,0.412,0.215,0.12,NaN,NaN,NaN,NaN,NaN,NaN,NaN,NaN,4e-5,165,213.825,80,0,2,15,1013.249,340.389,0.01,0.022
1.09,0.009,0.414,12.278,0.42,12.468,0.002,0,0.002,0,0.073,2.165,22.175,120.893,9.788,78.139,0,0,0,2.79e4,1.34e4,19.927,0.106,NaN,2017.969,NaN,0.006,4.008e5,616.859,7.997e-4,0.746,0.015,0.411,0.215,0.12,NaN,NaN,NaN,NaN,NaN,NaN,NaN,NaN,5.687e-5,165,213.825,80,0,2,15,1013.249,340.389,0.01,0.023
1.1,0.014,0.565,15.164,0.574,15.398,0.002,0,0.002,0,0.1,2.674,22.175,120.893,9.788,73.987,0,0,0,2.789e4,1.339e4,19.922,0.106,NaN,2017.702,NaN,0.006,4.081e5,698.307,0.002,0.745,0.034,0.41,0.215,0.12,NaN,NaN,NaN,NaN,NaN,NaN,NaN,NaN,7.771e-5,165,213.825,80,0,2,15,1013.248,340.389,0.01,0.023
1.11,0.02,0.747,18.205,0.759,18.485,0.004,0,0.004,0,0.132,3.21,22.175,120.893,9.788,69.224,0,0,0,2.788e4,1.338e4,19.917,0.106,NaN,2017.401,NaN,0.006,4.195e5,784.022,0.004,0.742,0.07,0.407,0.215,0.12,NaN,NaN,NaN,NaN,NaN,NaN,NaN,NaN,1.027e-4,165,213.825,80,0,2,15,1013.248,340.389,0.01,0.023
1.12,0.029,0.96,21.325,0.975,21.654,0.005,0,0.005,0,0.169,3.76,22.175,120.893,9.788,64.006,0,0,0,2.786e4,1.336e4,19.911,0.106,NaN,2017.066,NaN,0.007,4.364e5,871.849,0.008,0.739,0.127,0.404,0.215,0.12,NaN,NaN,NaN,NaN,NaN,NaN,NaN,NaN,1.32e-4,165,213.825,80,0,2,15,1013.247,340.389,0.01,0.023
1.13,0.04,1.205,24.499,1.224,24.877,0.007,0,0.007,0,0.213,4.32,22.175,120.893,9.788,58.536,0,0,0,2.784e4,1.334e4,19.904,0.106,NaN,2016.696,NaN,0.007,4.598e5,961.049,0.015,0.734,0.207,0.399,0.215,0.12,NaN,NaN,NaN,NaN,NaN,NaN,NaN,NaN,1.657e-4,165,213.825,80,0,2,15,1013.245,340.389,0.01,0.023
1.14,0.053,1.479,27.389,1.502,27.812,0.009,0,0.009,0,0.261,4.829,22.175,120.893,9.788,53.096,0,0,0,2.782e4,1.332e4,19.897,0.106,NaN,2016.295,NaN,0.007,4.905e5,1042.073,0.025,0.729,0.304,0.394,0.215,0.12,NaN,NaN,NaN,NaN,NaN,NaN,NaN,NaN,2.033e-4,165,213.825,80,0,2,15,1013.244,340.389,0.01,0.024
1.15,0.07,1.778,29.893,1.805,30.354,0.012,0,0.012,0,0.313,5.271,22.175,120.893,9.788,47.93,0,0,0,2.78e4,1.33e4,19.889,0.106,NaN,2015.866,NaN,0.008,5.284e5,1112.029,0.039,0.723,0.408,0.388,0.215,0.12,NaN,NaN,NaN,NaN,NaN,NaN,NaN,NaN,2.444e-4,165,213.825,80,0,2,15,1013.242,340.389,0.01,0.024
1.16,0.089,2.098,32.068,2.131,32.563,0.016,0,0.016,0,0.37,5.654,22.175,120.893,9.788,43.188,0,0,0,2.778e4,1.328e4,19.881,0.106,NaN,2015.413,NaN,0.009,5.731e5,1172.553,0.057,0.716,0.51,0.381,0.215,0.12,NaN,NaN,NaN,NaN,NaN,NaN,NaN,NaN,2.885e-4,165,213.825,80,0,2,14.999,1013.24,340.389,0.01,0.024
1.17,0.112,2.436,33.79,2.474,34.312,0.02,0,0.02,0,0.43,5.958,22.175,120.893,9.788,38.956,0,0,0,2.776e4,1.326e4,19.873,0.105,NaN,2014.941,NaN,0.009,6.238e5,1220.187,0.079,0.709,0.6,0.374,0.215,0.12,NaN,NaN,NaN,NaN,NaN,NaN,NaN,NaN,3.349e-4,165,213.825,80,0,2,14.999,1013.237,340.388,0.01,0.024
1.18,0.138,2.786,35.055,2.829,35.595,0.024,0,0.024,0,0.491,6.181,22.175,120.893,9.788,35.255,0,0,0,2.774e4,1.324e4,19.864,0.105,NaN,2014.455,NaN,0.01,6.795e5,1254.818,0.106,0.703,0.674,0.368,0.215,0.12,NaN,NaN,NaN,NaN,NaN,NaN,NaN,NaN,3.831e-4,165,213.825,80,0,2,14.999,1013.234,340.388,0.01,0.024
1.19,0.167,3.145,35.848,3.193,36.401,0.03,0,0.03,0,0.555,6.321,22.175,120.893,9.788,32.06,0,0,0,2.771e4,1.321e4,19.855,0.105,NaN,2013.959,NaN,0.011,7.389e5,1276.135,0.136,0.697,0.733,0.361,0.215,0.12,NaN,NaN,NaN,NaN,NaN,NaN,NaN,NaN,4.323e-4,165,213.825,80,0,2,14.999,1013.23,340.388,0.01,0.024
1.2,0.201,3.509,36.396,3.563,36.957,0.035,0,0.035,0,0.619,6.418,22.175,120.893,9.788,29.309,0,0,0,2.769e4,1.319e4,19.846,0.105,NaN,2013.458,NaN,0.012,8.012e5,1290.479,0.17,0.691,0.777,0.356,0.215,0.12,NaN,NaN,NaN,NaN,NaN,NaN,NaN,NaN,4.824e-4,165,213.825,80,0,2,14.999,1013.226,340.388,0.01,0.025
1.21,0.238,3.875,36.699,3.935,37.265,0.042,0,0.042,0,0.683,6.471,22.175,120.893,9.788,26.942,0,0,0,2.767e4,1.317e4,19.837,0.105,NaN,2012.952,NaN,0.013,8.657e5,1297.933,0.206,0.685,0.809,0.35,0.215,0.12,NaN,NaN,NaN,NaN,NaN,NaN,NaN,NaN,5.328e-4,165,213.825,80,0,2,14.998,1013.222,340.388,0.01,0.025
1.22,0.278,4.243,36.757,4.308,37.324,0.049,0,0.049,0,0.748,6.481,22.175,120.893,9.788,24.903,0,0,0,2.764e4,1.314e4,19.828,0.105,NaN,2012.446,NaN,0.014,9.315e5,1298.512,0.245,0.68,0.831,0.345,0.215,0.12,NaN,NaN,NaN,NaN,NaN,NaN,NaN,NaN,5.833e-4,165,213.825,80,0,2,14.998,1013.217,340.388,0.01,0.025
1.23,0.322,4.61,36.8,4.682,37.367,0.057,0,0.057,0,0.813,6.489,22.175,120.893,9.788,23.132,0,0,0,2.762e4,1.312e4,19.819,0.105,NaN,2011.938,NaN,0.015,9.984e5,1298.633,0.287,0.675,0.845,0.34,0.215,0.12,NaN,NaN,NaN,NaN,NaN,NaN,NaN,NaN,6.339e-4,165,213.825,80,0,2,14.998,1013.212,340.388,0.01,0.025
1.24,0.37,4.977,36.707,5.054,37.273,0.065,0,0.065,0,0.878,6.472,22.175,120.893,9.788,21.589,0,0,0,2.76e4,1.31e4,19.81,0.105,NaN,2011.431,NaN,0.016,1.066e6,1294.965,0.33,0.671,0.853,0.336,0.215,0.12,NaN,NaN,NaN,NaN,NaN,NaN,NaN,NaN,6.843e-4,165,213.825,80,0,2,14.998,1013.207,340.387,0.01,0.025
1.25,0.422,5.343,36.622,5.426,37.187,0.074,0,0.074,0,0.942,6.457,22.175,120.893,9.788,20.234,0,0,0,2.757e4,1.307e4,19.801,0.105,NaN,2010.925,NaN,0.017,1.134e6,1291.53,0.375,0.667,0.857,0.332,0.215,0.12,NaN,NaN,NaN,NaN,NaN,NaN,NaN,NaN,7.346e-4,165,213.825,80,0,2,14.997,1013.201,340.387,0.01,0.026
1.26,0.477,5.709,36.535,5.797,37.099,0.084,0,0.084,0,1.007,6.442,22.175,120.893,9.788,19.036,0,0,0,2.755e4,1.305e4,19.792,0.105,NaN,2010.419,NaN,0.018,1.203e6,1288.052,0.423,0.663,0.858,0.328,0.215,0.12,NaN,NaN,NaN,NaN,NaN,NaN,NaN,NaN,7.848e-4,165,213.825,80,0,2,14.997,1013.194,340.387,0.01,0.026
1.27,0.536,6.073,36.424,6.166,36.986,0.095,0,0.095,0,1.071,6.423,22.175,120.893,9.788,17.97,0,0,0,2.753e4,1.303e4,19.783,0.105,NaN,2009.914,NaN,0.019,1.271e6,1283.912,0.471,0.66,0.857,0.324,0.215,0.12,NaN,NaN,NaN,NaN,NaN,NaN,NaN,NaN,8.349e-4,165,213.825,80,0,2,14.997,1013.187,340.387,0.01,0.026
1.28,0.599,6.436,36.392,6.536,36.953,0.106,0,0.106,0,1.135,6.417,22.175,120.893,9.788,17.015,0,0,0,2.75e4,1.3e4,19.774,0.105,NaN,2009.409,NaN,0.02,1.34e6,1281.967,0.522,0.656,0.853,0.321,0.215,0.12,NaN,NaN,NaN,NaN,NaN,NaN,NaN,NaN,8.849e-4,165,213.825,80,0,2,14.996,1013.18,340.387,0.01,0.026
1.29,0.665,6.799,36.31,6.904,36.87,0.117,0,0.117,0,1.199,6.402,22.175,120.893,9.788,16.155,0,0,0,2.748e4,1.298e4,19.765,0.105,NaN,2008.904,NaN,0.021,1.41e6,1278.651,0.574,0.653,0.848,0.318,0.215,0.12,NaN,NaN,NaN,NaN,NaN,NaN,NaN,NaN,9.348e-4,165,213.825,80,0,2,14.996,1013.172,340.386,0.01,0.026
1.3,0.735,7.162,36.269,7.272,36.828,0.13,0,0.13,0,1.263,6.395,22.175,120.893,9.788,15.377,0,0,0,2.746e4,1.296e4,19.756,0.105,NaN,2008.399,NaN,0.022,1.479e6,1276.485,0.626,0.65,0.84,0.315,0.215,0.12,NaN,NaN,NaN,NaN,NaN,NaN,NaN,NaN,9.846e-4,165,213.825,80,0,2,14.995,1013.164,340.386,0.01,0.027
1.31,0.808,7.524,36.264,7.64,36.823,0.142,0,0.142,0,1.327,6.394,22.175,120.893,9.788,14.669,0,0,0,2.743e4,1.293e4,19.747,0.105,NaN,2007.894,NaN,0.023,1.549e6,1275.318,0.68,0.648,0.832,0.312,0.215,0.12,NaN,NaN,NaN,NaN,NaN,NaN,NaN,NaN,0.001,165,213.825,80,0,2,14.995,1013.155,340.386,0.01,0.027
1.32,0.885,7.886,36.236,8.008,36.795,0.156,0,0.156,0,1.391,6.389,22.175,120.893,9.788,14.023,0,0,0,2.741e4,1.291e4,19.738,0.105,NaN,2007.388,NaN,0.024,1.619e6,1273.528,0.734,0.645,0.823,0.31,0.215,0.12,NaN,NaN,NaN,NaN,NaN,NaN,NaN,NaN,0.001,165,213.825,80,0,2,14.994,1013.146,340.385,0.01,0.027
1.33,0.966,8.249,36.286,8.376,36.846,0.17,0,0.17,0,1.455,6.398,22.175,120.893,9.788,13.429,0,0,0,2.739e4,1.289e4,19.729,0.105,NaN,2006.882,NaN,0.025,1.689e6,1273.891,0.79,0.643,0.813,0.307,0.215,0.12,NaN,NaN,NaN,NaN,NaN,NaN,NaN,NaN,0.001,165,213.825,80,0,2,14.994,1013.137,340.385,0.01,0.027
1.34,1.05,8.612,36.263,8.744,36.823,0.185,0,0.185,0,1.518,6.394,22.175,120.893,9.788,12.883,0,0,0,2.736e4,1.286e4,19.72,0.105,NaN,2006.376,NaN,0.026,1.759e6,1272.247,0.847,0.64,0.804,0.305,0.215,0.12,NaN,NaN,NaN,NaN,NaN,NaN,NaN,NaN,0.001,165,213.825,80,0,2,14.993,1013.127,340.385,0.01,0.027
1.35,1.138,8.974,36.274,9.113,36.833,0.201,0,0.201,0,1.582,6.396,22.175,120.893,9.788,12.379,0,0,0,2.734e4,1.284e4,19.711,0.105,NaN,2005.868,NaN,0.027,1.829e6,1271.517,0.906,0.638,0.795,0.303,0.215,0.12,NaN,NaN,NaN,NaN,NaN,NaN,NaN,NaN,0.001,165,213.825,80,0,2,14.993,1013.117,340.384,0.01,0.028
1.36,1.23,9.337,36.311,9.481,36.871,0.217,0,0.217,0,1.646,6.403,22.175,120.893,9.788,11.912,0,0,0,2.732e4,1.282e4,19.702,0.105,NaN,2005.361,NaN,0.028,1.9e6,1271.539,0.966,0.636,0.786,0.301,0.215,0.12,NaN,NaN,NaN,NaN,NaN,NaN,NaN,NaN,0.001,165,213.825,80,0,2,14.992,1013.106,340.384,0.01,0.028
1.37,1.325,9.7,36.327,9.85,36.888,0.234,0,0.234,0,1.71,6.405,22.175,120.893,9.788,11.478,0,0,0,2.729e4,1.279e4,19.693,0.105,NaN,2004.852,NaN,0.03,1.971e6,1270.983,1.028,0.634,0.777,0.299,0.215,0.12,NaN,NaN,NaN,NaN,NaN,NaN,NaN,NaN,0.001,165,213.825,80,0,2,14.991,1013.095,340.384,0.01,0.028
1.38,1.424,10.064,36.443,10.22,37.005,0.251,0,0.251,0,1.775,6.426,22.175,120.893,9.788,11.073,0,0,0,2.727e4,1.277e4,19.684,0.105,NaN,2004.342,NaN,0.031,2.042e6,1273.167,1.091,0.632,0.768,0.297,0.215,0.12,NaN,NaN,NaN,NaN,NaN,NaN,NaN,NaN,0.001,165,213.825,80,0,2,14.991,1013.083,340.383,0.01,0.028
1.39,1.526,10.429,36.484,10.59,37.046,0.269,0,0.269,0,1.839,6.433,22.175,120.893,9.788,10.695,0,0,0,2.725e4,1.275e4,19.675,0.105,NaN,2003.83,NaN,0.032,2.113e6,1273.278,1.156,0.63,0.76,0.295,0.215,0.12,NaN,NaN,NaN,NaN,NaN,NaN,NaN,NaN,0.001,165,213.825,80,0,2,14.99,1013.071,340.383,0.01,0.028
1.4,1.632,10.795,36.57,10.961,37.134,0.288,0,0.288,0,1.903,6.448,22.175,120.893,9.788,10.341,0,0,0,2.723e4,1.273e4,19.666,0.105,NaN,2003.318,NaN,0.033,2.185e6,1274.663,1.223,0.628,0.753,0.293,0.215,0.12,NaN,NaN,NaN,NaN,NaN,NaN,NaN,NaN,0.001,165,213.825,80,0,2,14.989,1013.059,340.382,0.01,0.029
1.41,1.742,11.161,36.677,11.333,37.243,0.307,0,0.307,0,1.968,6.467,22.175,120.893,9.788,10.008,0,0,0,2.72e4,1.27e4,19.657,0.105,NaN,2002.803,NaN,0.034,2.257e6,1276.588,1.292,0.627,0.745,0.291,0.215,0.12,NaN,NaN,NaN,NaN,NaN,NaN,NaN,NaN,0.002,165,213.825,80,0,2,14.989,1013.046,340.382,0.01,0.029
1.42,1.855,11.528,36.745,11.706,37.312,0.327,0,0.327,0,2.033,6.479,22.175,120.893,9.788,9.695,0,0,0,2.718e4,1.268e4,19.648,0.105,NaN,2002.288,NaN,0.035,2.329e6,1277.444,1.363,0.625,0.738,0.289,0.215,0.12,NaN,NaN,NaN,NaN,NaN,NaN,NaN,NaN,0.002,165,213.825,80,0,2,14.988,1013.032,340.382,0.01,0.029
1.43,1.973,11.897,36.879,12.08,37.448,0.348,0,0.348,0,2.098,6.503,22.175,120.893,9.788,9.4,0,0,0,2.716e4,1.266e4,19.639,0.105,NaN,2001.77,NaN,0.036,2.401e6,1280.14,1.436,0.623,0.732,0.288,0.215,0.12,NaN,NaN,NaN,NaN,NaN,NaN,NaN,NaN,0.002,165,213.825,80,0,2,14.987,1013.019,340.381,0.01,0.029
1.44,2.093,12.266,36.936,12.455,37.506,0.369,0,0.369,0,2.163,6.513,22.175,120.893,9.788,9.122,0,0,0,2.713e4,1.263e4,19.629,0.105,NaN,2001.252,NaN,0.037,2.474e6,1280.681,1.515,0.623,0.727,0.288,0.215,0.12,NaN,NaN,NaN,NaN,NaN,NaN,NaN,NaN,0.002,165,213.825,80,0,2,14.986,1013.004,340.381,0.01,0.029
1.45,2.218,12.636,37.045,12.831,37.616,0.391,0,0.391,0,2.228,6.532,22.175,120.893,9.788,8.859,0,0,0,2.711e4,1.261e4,19.62,0.105,NaN,2000.731,NaN,0.038,2.546e6,1282.653,1.596,0.623,0.723,0.288,0.215,0.12,NaN,NaN,NaN,NaN,NaN,NaN,NaN,NaN,0.002,165,213.825,80,0,2,14.986,1012.99,340.38,0.01,0.029
1.46,2.346,13.008,37.162,13.209,37.735,0.414,0,0.414,0,2.294,6.553,22.175,120.893,9.788,8.61,0,0,0,2.709e4,1.259e4,19.611,0.104,NaN,2000.209,NaN,0.039,2.619e6,1284.861,1.679,0.623,0.719,0.288,0.215,0.12,NaN,NaN,NaN,NaN,NaN,NaN,NaN,NaN,0.002,165,213.825,80,0,2,14.985,1012.975,340.38,0.01,0.03
1.47,2.478,13.38,37.215,13.586,37.789,0.437,0,0.437,0,2.359,6.562,22.175,120.893,9.788,8.374,0,0,0,2.706e4,1.256e4,19.602,0.104,NaN,1999.686,NaN,0.04,2.693e6,1285.292,1.765,0.623,0.715,0.288,0.215,0.12,NaN,NaN,NaN,NaN,NaN,NaN,NaN,NaN,0.002,165,213.825,80,0,2,14.984,1012.959,340.379,0.01,0.03
1.48,2.614,13.753,37.336,13.965,37.912,0.461,0,0.461,0,2.425,6.583,22.175,120.893,9.788,8.15,0,0,0,2.704e4,1.254e4,19.592,0.104,NaN,1999.161,NaN,0.041,2.766e6,1287.587,1.853,0.623,0.711,0.288,0.215,0.12,NaN,NaN,NaN,NaN,NaN,NaN,NaN,NaN,0.002,165,213.825,80,0,2,14.983,1012.943,340.379,0.01,0.03
1.49,2.753,14.127,37.382,14.345,37.959,0.485,0,0.485,0,2.491,6.591,22.175,120.893,9.788,7.937,0,0,0,2.702e4,1.252e4,19.583,0.104,NaN,1998.635,NaN,0.043,2.84e6,1287.832,1.943,0.623,0.708,0.288,0.215,0.12,NaN,NaN,NaN,NaN,NaN,NaN,NaN,NaN,0.002,165,213.825,80,0,2,14.982,1012.927,340.378,0.01,0.03
1.5,2.896,14.501,37.452,14.725,38.03,0.511,0,0.511,0,2.557,6.604,22.175,120.893,9.788,7.735,0,0,0,2.699e4,1.249e4,19.574,0.104,NaN,1998.108,NaN,0.044,2.914e6,1288.735,2.036,0.623,0.704,0.288,0.215,0.12,NaN,NaN,NaN,NaN,NaN,NaN,NaN,NaN,0.002,165,213.825,80,0,2,14.981,1012.91,340.377,0.01,0.03
1.51,3.043,14.876,37.534,15.106,38.113,0.537,0,0.537,0,2.623,6.618,22.175,120.893,9.788,7.542,0,0,0,2.697e4,1.247e4,19.564,0.104,NaN,1997.579,NaN,0.045,2.988e6,1289.948,2.131,0.623,0.701,0.288,0.215,0.12,NaN,NaN,NaN,NaN,NaN,NaN,NaN,NaN,0.002,165,213.825,80,0,2,14.98,1012.893,340.377,0.01,0.031
1.52,3.194,15.251,37.55,15.487,38.129,0.563,0,0.563,0,2.689,6.621,22.175,120.893,9.788,7.359,0,0,0,2.695e4,1.244e4,19.555,0.104,NaN,1997.049,NaN,0.046,3.062e6,1289.376,2.229,0.623,0.698,0.288,0.215,0.12,NaN,NaN,NaN,NaN,NaN,NaN,NaN,NaN,0.002,165,213.825,80,0,2,14.979,1012.875,340.376,0.01,0.031
1.53,3.348,15.628,37.69,15.869,38.271,0.59,0,0.59,0,2.756,6.646,22.175,120.893,9.788,7.183,0,0,0,2.692e4,1.242e4,19.546,0.104,NaN,1996.518,NaN,0.047,3.136e6,1292.164,2.329,0.623,0.695,0.288,0.215,0.12,NaN,NaN,NaN,NaN,NaN,NaN,NaN,NaN,0.002,165,213.825,80,0,2,14.978,1012.857,340.376,0.01,0.031
1.54,3.506,16.006,37.759,16.252,38.342,0.618,0,0.618,0,2.822,6.658,22.175,120.893,9.788,7.015,0,0,0,2.69e4,1.24e4,19.536,0.104,NaN,1995.985,NaN,0.048,3.211e6,1293.051,2.432,0.623,0.693,0.288,0.215,0.12,NaN,NaN,NaN,NaN,NaN,NaN,NaN,NaN,0.002,165,213.825,80,0,2,14.977,1012.839,340.375,0.01,0.031
1.55,3.668,16.384,37.864,16.637,38.449,0.647,0,0.647,0,2.889,6.677,22.175,120.893,9.788,6.855,0,0,0,2.687e4,1.237e4,19.527,0.104,NaN,1995.451,NaN,0.049,3.285e6,1294.89,2.537,0.623,0.69,0.288,0.215,0.12,NaN,NaN,NaN,NaN,NaN,NaN,NaN,NaN,0.002,165,213.825,80,0,2,14.976,1012.82,340.374,0.01,0.031
1.56,3.834,16.764,37.989,17.022,38.575,0.676,0,0.676,0,2.956,6.698,22.175,120.893,9.788,6.701,0,0,0,2.685e4,1.235e4,19.517,0.104,NaN,1994.914,NaN,0.05,3.36e6,1297.251,2.645,0.623,0.688,0.288,0.215,0.12,NaN,NaN,NaN,NaN,NaN,NaN,NaN,NaN,0.002,165,213.825,80,0,2,14.975,1012.8,340.374,0.01,0.032
1.57,4.004,17.144,38.009,17.408,38.595,0.706,0,0.706,0,3.023,6.702,22.175,120.893,9.788,6.554,0,0,0,2.683e4,1.233e4,19.508,0.104,NaN,1994.377,NaN,0.051,3.435e6,1296.778,2.755,0.623,0.685,0.288,0.215,0.12,NaN,NaN,NaN,NaN,NaN,NaN,NaN,NaN,0.002,165,213.825,80,0,2,14.974,1012.78,340.373,0.01,0.032
1.585,4.265,17.711,37.84,17.988,38.76,0.752,-2.551e-5,0.752,-0.002,3.149,8.396,22.175,120.893,9.788,6.334,0,0.038,-2.392e-4,2.679e4,1.229e4,19.493,0.104,2137.024,1993.568,0.869,0.053,3.548e6,1298.654,2.925,0.624,0.682,0.288,0.215,0.12,1.442,1.254,4.488e-4,0,0,0,0,5.065e-6,0.002,165,213.825,80,0.002,2,14.972,1012.75,340.372,0.015,0.032
1.608,4.673,18.566,38.042,18.863,38.964,0.825,-1.613e-4,0.825,-0.011,3.338,8.427,22.175,120.893,9.788,6.027,0,0.099,-0.002,2.674e4,1.224e4,19.472,0.104,2142.526,1992.348,0.91,0.056,3.719e6,1301.804,3.191,0.624,0.677,0.288,0.215,0.12,1.36,1.238,-1.92e-4,0,0,0,0,3.139e-5,0.003,165,213.825,80,0.01,2,14.97,1012.702,340.37,0.023,0.032
1.641,5.321,19.858,38.378,20.186,39.304,0.943,-5.915e-4,0.943,-0.036,3.624,8.479,22.175,120.893,9.788,5.614,0,0.2,-0.006,2.666e4,1.216e4,19.439,0.104,2150.129,1990.501,0.967,0.06,3.976e6,1307.398,3.616,0.624,0.671,0.288,0.215,0.12,1.251,1.21,1.697e-5,0,0,0,0,1.12e-4,0.003,165,213.825,80,0.039,2,14.965,1012.626,340.368,0.034,0.032
1.691,6.363,21.793,38.799,22.166,39.728,1.135,-0.002,1.135,-0.088,4.05,8.54,22.175,120.893,9.788,5.087,0,0.371,-0.018,2.654e4,1.204e4,19.39,0.104,2160.159,1987.731,1.045,0.065,4.362e6,1313.533,4.304,0.624,0.664,0.288,0.215,0.121,1.115,1.164,-8.913e-5,0,0,0,0,3.191e-4,0.003,165,213.825,79.999,0.121,2,14.959,1012.504,340.364,0.05,0.033
1.741,7.501,23.757,39.376,24.176,40.31,1.348,-0.004,1.348,-0.15,4.481,8.628,22.175,120.893,9.788,4.636,0,0.567,-0.038,2.642e4,1.192e4,19.34,0.104,2169.024,1984.915,1.116,0.071,4.754e6,1323.765,5.067,0.624,0.658,0.288,0.216,0.121,1.001,1.117,3.789e-4,0,0,0,0,6.272e-4,0.003,165,213.825,79.998,0.255,2,14.951,1012.37,340.359,0.05,0.033
1.791,8.739,25.752,40.001,26.217,40.942,1.583,-0.006,1.583,-0.215,4.917,8.724,22.175,120.893,9.788,4.243,0,0.788,-0.067,2.63e4,1.18e4,19.29,0.103,2176.983,1982.048,1.181,0.077,5.152e6,1335.184,5.908,0.624,0.653,0.288,0.216,0.121,0.905,1.068,1.667e-4,0,0,0,0,0.001,0.004,165,213.825,79.994,0.449,2,14.943,1012.225,340.354,0.05,0.033
1.841,10.077,27.781,40.672,28.293,41.619,1.84,-0.009,1.84,-0.278,5.357,8.829,22.175,120.893,9.788,3.894,-3.123e-7,1.034,-0.107,2.617e4,1.167e4,19.238,0.103,2184.241,1979.127,1.243,0.083,5.557e6,1347.677,6.832,0.624,0.649,0.288,0.216,0.121,0.821,1.019,2.049e-5,0,0,0,0,0.002,0.004,165,213.825,79.988,0.71,2,14.934,1012.068,340.349,0.05,0.033
1.891,11.518,29.849,41.473,30.408,42.43,2.119,-0.012,2.119,-0.337,5.805,8.957,22.175,120.893,9.788,3.579,-3.467e-7,1.306,-0.159,2.605e4,1.155e4,19.185,0.103,2190.977,1976.143,1.302,0.09,5.97e6,1363.475,7.844,0.624,0.646,0.288,0.216,0.121,0.747,0.971,2.246e-4,0,0,0,0,0.002,0.004,165,213.825,79.979,1.044,2,14.925,1011.899,340.344,0.05,0.033
1.941,13.063,31.951,42.132,32.557,43.096,2.42,-0.016,2.42,-0.388,6.257,9.063,22.175,120.893,9.788,3.289,-5.393e-7,1.601,-0.226,2.593e4,1.143e4,19.132,0.103,2197.301,1973.105,1.359,0.096,6.39e6,1375.364,8.946,0.625,0.643,0.288,0.216,0.121,0.68,0.921,-1.68e-4,0,0,0,0,0.003,0.004,165,213.825,79.965,1.456,2,14.915,1011.718,340.337,0.05,0.034
1.991,14.714,34.089,42.878,34.744,43.851,2.744,-0.021,2.744,-0.43,6.716,9.189,22.175,120.893,9.788,3.018,-4.53e-7,1.917,-0.308,2.58e4,1.13e4,19.077,0.103,2203.338,1970.006,1.414,0.102,6.817e6,1389.417,10.143,0.625,0.641,0.288,0.216,0.121,0.618,0.871,1.401e-4,0,0,0,0,0.003,0.005,165,213.825,79.945,1.952,2,14.904,1011.524,340.331,0.05,0.034
2.041,16.473,36.277,43.869,36.981,44.857,3.092,-0.025,3.092,-0.461,7.183,9.365,22.175,120.893,9.788,2.76,-7.611e-7,2.254,-0.41,2.567e4,1.117e4,19.021,0.102,2209.199,1966.831,1.469,0.109,7.253e6,1409.711,11.447,0.625,0.638,0.288,0.216,0.122,0.561,0.82,2.107e-4,0,0,0,0,0.004,0.005,165,213.825,79.917,2.536,2,14.893,1011.318,340.324,0.05,0.034
2.091,18.343,38.509,44.742,39.263,45.746,3.463,-0.029,3.463,-0.48,7.658,9.529,22.175,120.893,9.788,2.513,-7.099e-7,2.605,-0.536,2.554e4,1.104e4,18.964,0.102,2214.943,1963.584,1.523,0.116,7.699e6,1426.753,12.86,0.625,0.637,0.287,0.216,0.122,0.506,0.766,4.872e-4,0,0,0,0,0.005,0.005,165,213.825,79.88,3.209,2,14.881,1011.099,340.317,0.05,0.034
2.141,20.325,40.77,45.34,41.575,46.357,3.858,-0.033,3.858,-0.484,8.139,9.657,22.175,120.893,9.788,2.273,-9.767e-7,2.965,-0.692,2.541e4,1.091e4,18.906,0.102,2220.607,1960.282,1.578,0.122,8.15e6,1436.554,14.376,0.626,0.635,0.287,0.216,0.122,0.454,0.71,-1.925e-4,0,0,0,0,0.006,0.006,165,213.825,79.832,3.971,2,14.868,1010.866,340.309,0.05,0.034
2.191,22.42,43.066,46.018,43.921,47.053,4.277,-0.035,4.277,-0.474,8.627,9.815,22.175,120.893,9.788,2.039,-1.133e-6,3.325,-0.886,2.528e4,1.078e4,18.847,0.102,2226.243,1956.918,1.632,0.129,8.608e6,1448.404,16.003,0.626,0.633,0.287,0.216,0.122,0.404,0.654,3.652e-4,0,0,0,0,0.007,0.006,165,213.825,79.771,4.818,2,14.854,1010.62,340.301,0.05,0.034
2.241,24.632,45.397,46.735,46.305,47.793,4.721,-0.037,4.721,-0.448,9.124,9.999,22.175,120.893,9.788,1.809,-1.451e-6,3.672,-1.129,2.515e4,1.065e4,18.787,0.102,2231.874,1953.489,1.687,0.136,9.073e6,1461.178,17.747,0.626,0.632,0.287,0.217,0.122,0.356,0.593,4.188e-4,0,0,0,0,0.007,0.006,165,213.825,79.694,5.744,2,14.84,1010.361,340.292,0.05,0.035
2.291,26.961,47.753,47.229,48.714,48.311,5.189,-0.037,5.189,-0.404,9.627,10.167,22.175,120.893,9.788,1.584,-2.396e-6,3.986,-1.44,2.501e4,1.051e4,18.726,0.101,2237.488,1950.006,1.742,0.143,9.542e6,1468.288,19.605,0.627,0.631,0.287,0.217,0.123,0.309,0.531,-1.999e-4,0,0,0,0,0.008,0.007,165,213.825,79.6,6.739,2,14.825,1010.088,340.283,0.05,0.035
2.341,29.407,50.113,47.297,51.127,48.402,5.683,-0.034,5.683,-0.342,10.135,10.284,22.175,120.893,9.788,1.366,-2.453e-6,4.237,-1.842,2.488e4,1.038e4,18.664,0.101,2243.033,1946.495,1.797,0.15,1.001e7,1464.702,21.563,0.627,0.631,0.287,0.217,0.123,0.264,0.468,-4.776e-4,0,0,0,0,0.008,0.007,165,213.825,79.487,7.789,2,14.809,1009.801,340.273,0.05,0.035
2.391,31.972,52.474,47.333,53.544,48.468,6.203,-0.028,6.203,-0.261,10.649,10.425,22.175,120.893,9.788,1.157,-2.916e-6,4.374,-2.374,2.475e4,1.025e4,18.602,0.101,2248.429,1942.956,1.851,0.157,1.048e7,1460.577,23.622,0.627,0.63,0.287,0.217,0.123,0.222,0.404,3.992e-5,0,0,0,0,0.008,0.007,165,213.825,79.354,8.877,2,14.792,1009.5,340.263,0.05,0.035
2.441,34.655,54.84,47.411,55.966,48.583,6.748,-0.019,6.748,-0.161,11.169,10.606,22.175,120.893,9.788,0.963,-5.327e-6,4.307,-3.076,2.461e4,1.011e4,18.539,0.101,2253.515,1939.385,1.904,0.165,1.096e7,1457.734,25.786,0.628,0.63,0.287,0.217,0.124,0.184,0.344,-4.208e-5,0,0,0,0,0.007,0.008,165,213.825,79.199,9.981,2,14.775,1009.186,340.252,0.05,0.035
2.491,37.455,57.189,47.068,58.372,48.278,7.32,-0.005,7.32,-0.041,11.693,10.74,22.175,120.893,9.788,0.796,-4.057e-6,3.88,-3.976,2.448e4,9982.7,18.477,0.101,2257.99,1935.809,1.953,0.172,1.142e7,1444.705,28.038,0.628,0.63,0.287,0.217,0.124,0.151,0.29,2.457e-4,0,0,0,0,0.005,0.008,165,213.825,79.024,11.078,2,14.757,1008.857,340.241,0.05,0.036
2.541,40.373,59.534,46.979,60.777,48.24,7.917,0.014,7.917,0.098,12.226,10.956,22.175,120.893,9.788,0.671,-7.275e-6,2.872,-4.981,2.435e4,9851.919,18.414,0.1,2261.395,1932.21,1.995,0.179,1.189e7,1438.362,30.392,0.629,0.63,0.287,0.218,0.124,0.127,0.251,2.522e-4,0,0,0,0,0.003,0.008,165,213.825,78.829,12.142,2,14.738,1008.515,340.23,0.05,0.036
2.591,43.408,61.868,46.76,63.172,48.078,8.541,0.038,8.542,0.257,12.768,11.18,22.175,120.893,9.788,0.61,-7.953e-6,1.211,-5.734,2.422e4,9721.977,18.351,0.1,2263.165,1928.595,2.028,0.186,1.236e7,1429.136,32.842,0.629,0.63,0.287,0.218,0.124,0.115,0.232,7.579e-5,0,0,0,0,4.212e-4,0.009,165,213.825,78.615,13.147,2,14.718,1008.159,340.218,0.05,0.036
2.641,46.561,64.214,46.989,65.582,48.382,9.193,0.07,9.193,0.434,13.323,11.524,22.175,120.893,9.788,0.619,-1.251e-5,-0.648,-5.838,2.409e4,9591.843,18.287,0.1,2263.066,1924.936,2.049,0.193,1.283e7,1431.244,35.415,0.63,0.63,0.287,0.218,0.125,0.117,0.239,8.857e-5,0,0,0,0,-1.118e-4,0.009,165,213.825,78.385,14.067,2,14.697,1007.789,340.205,0.05,0.036
2.691,49.83,66.566,47.106,68.001,48.579,9.872,0.109,9.873,0.631,13.894,11.873,22.175,120.893,9.788,0.682,-1.263e-5,-2.047,-5.407,2.396e4,9461.748,18.222,0.1,2261.536,1921.238,2.062,0.2,1.33e7,1430.823,38.105,0.63,0.631,0.287,0.218,0.125,0.129,0.267,-3.343e-4,0,0,0,0,-0.001,0.009,165,213.825,78.145,14.877,2,14.676,1007.406,340.193,0.05,0.036
2.741,53.217,68.931,47.362,70.436,48.926,10.58,0.156,10.581,0.846,14.483,12.272,22.175,120.893,9.788,0.771,-1.299e-5,-2.804,-4.822,2.383e4,9331.363,18.157,0.1,2259.351,1917.492,2.072,0.207,1.377e7,1433.995,40.921,0.631,0.632,0.287,0.219,0.126,0.146,0.305,4.215e-4,0,0,0,0,-0.002,0.009,165,213.825,77.898,15.558,2,14.654,1007.008,340.179,0.05,0.037
2.791,56.724,71.318,47.789,72.897,49.453,11.317,0.213,11.319,1.077,15.092,12.721,22.175,120.893,9.788,0.861,-1.807e-5,-3.054,-4.291,2.37e4,9200.305,18.091,0.099,2257.155,1913.685,2.082,0.214,1.425e7,1441.415,43.874,0.631,0.633,0.287,0.219,0.126,0.164,0.344,-4.982e-4,0,0,0,0,-0.002,0.01,165,213.825,77.651,16.092,2,14.631,1006.597,340.165,0.05,0.037
2.841,60.35,73.722,48.152,75.38,49.918,12.084,0.279,12.088,1.324,15.722,13.157,22.175,120.893,9.788,0.937,-1.699e-5,-2.947,-3.867,2.357e4,9068.707,18.023,0.099,2255.361,1909.819,2.094,0.222,1.473e7,1447.346,46.962,0.632,0.634,0.286,0.219,0.126,0.179,0.377,-2.652e-4,0,0,0,0,-0.002,0.01,165,213.825,77.411,16.467,2,14.608,1006.172,340.151,0.05,0.037
2.891,64.096,76.124,48.094,77.864,49.949,12.883,0.357,12.888,1.585,16.369,13.486,22.175,120.893,9.788,0.987,-2.165e-5,-2.595,-3.54,2.344e4,8937.495,17.955,0.099,2254.222,1905.922,2.111,0.229,1.521e7,1443.113,50.153,0.632,0.634,0.286,0.219,0.127,0.189,0.401,-3.103e-4,0,0,0,0,-0.001,0.01,165,213.825,77.185,16.675,2,14.583,1005.733,340.136,0.05,0.037
2.941,67.962,78.515,47.882,80.341,49.817,13.713,0.445,13.72,1.857,17.031,13.749,22.175,120.893,9.787,1.007,-2.235e-5,-2.071,-3.296,2.331e4,8806.998,17.887,0.099,2253.894,1902.002,2.133,0.236,1.569e7,1435.232,53.435,0.633,0.635,0.286,0.22,0.127,0.193,0.412,-5.484e-5,0,0,0,0,-7.615e-4,0.011,165,213.825,76.978,16.716,2,14.558,1005.279,340.121,0.05,0.037
2.991,71.947,80.917,48.109,82.833,50.124,14.576,0.544,14.586,2.137,17.711,14.072,22.175,120.893,9.787,0.992,-2.3e-5,-1.438,-3.123,2.318e4,8676.274,17.818,0.099,2254.477,1898.031,2.16,0.244,1.617e7,1437.734,56.833,0.634,0.636,0.286,0.22,0.128,0.19,0.411,1.175e-4,0,0,0,0,-3.453e-4,0.011,165,213.825,76.798,16.591,2,14.532,1004.812,340.105,0.05,0.038
3.041,76.054,83.343,48.574,85.352,50.663,15.472,0.655,15.486,2.423,18.41,14.398,22.175,120.893,9.787,0.94,-2.806e-5,-0.757,-3.012,2.305e4,8544.831,17.748,0.098,2256.005,1893.993,2.194,0.251,1.666e7,1445.651,60.365,0.634,0.636,0.286,0.22,0.128,0.18,0.395,4.498e-4,0,0,0,0,-9.014e-5,0.011,165,213.825,76.649,16.31,2,14.506,1004.33,340.089,0.05,0.038
3.091,80.282,85.785,48.915,87.891,51.056,16.403,0.777,16.421,2.712,19.125,14.631,22.175,120.893,9.787,0.854,-2.669e-5,-0.094,-2.967,2.291e4,8412.968,17.677,0.098,2258.435,1889.896,2.234,0.259,1.715e7,1450.255,64.025,0.635,0.636,0.286,0.22,0.129,0.163,0.364,1.304e-5,0,0,0,0,-1.323e-6,0.012,165,213.825,76.536,15.886,2,14.478,1003.834,340.073,0.05,0.038
