# Time (s),Altitude (m),Vertical velocity (m/s),Vertical acceleration (m/s²),Total velocity (m/s),Total acceleration (m/s²),Position East of launch (m),Position North of launch (m),Lateral distance (m),Lateral direction (°),Lateral velocity (m/s),Lateral acceleration (m/s²),Latitude (°),Longitude (°),Gravitational acceleration (m/s²),Angle of attack (°),Roll rate (°/s),Pitch rate (°/s),Yaw rate (°/s),Mass (g),Motor mass (g),Longitudinal moment of inertia (kg·m²),Rotational moment of inertia (kg·m²),CP location (mm),CG location (mm),Stability margin calibers (​),Mach number (​),Reynolds number (​),Thrust (N),Drag force (N),Drag coefficient (​),Axial drag coefficient (​),Friction drag coefficient (​),Pressure drag coefficient (​),Base drag coefficient (​),Normal force coefficient (​),Pitch moment coefficient (​),Yaw moment coefficient (​),Side force coefficient (​),Roll moment coefficient (​),Roll forcing coefficient (​),Roll damping coefficient (​),Pitch damping coefficient (​),Coriolis acceleration (m/s²),Reference length (mm),Reference area (cm²),Vertical orientation (zenith) (°),Lateral orientation (azimuth) (°),Wind velocity (m/s),Air temperature (°C),Air pressure (mbar),Speed of sound (m/s),Simulation time step (s),Computation time (s)
0.01,-4.757e-4,-0.095,-9.511,0.096,9.563,-5e-5,0,5e-5,180,0.01,1,22.175,120.893,9.788,92.677,0,0,0,2.8e4,1.35e4,19.963,0.106,NaN,2019.994,NaN,0.006,4.016e5,4.784,-1.022e-5,0.746,-1.86e-4,0.411,0.215,0.12,NaN,NaN,NaN,NaN,NaN,NaN,NaN,NaN,1.293e-5,165,213.825,84,0,2.046,15,1013.25,340.389,0.01,0.002
0.02,-4.761e-4,-0.095,-9.522,0.096,9.575,-5.004e-5,0,5.004e-5,180,0.01,1.001,22.175,120.893,9.788,92.679,0,0,0,2.8e4,1.35e4,19.963,0.106,NaN,2019.992,NaN,0.006,4.017e5,4.461,-1.025e-5,0.746,-1.866e-4,0.411,0.215,0.12,NaN,NaN,NaN,NaN,NaN,NaN,NaN,NaN,1.294e-5,165,213.825,84,0,2.046,15,1013.25,340.389,0.01,0.002
0.03,-4.763e-4,-0.095,-9.526,0.096,9.579,-5.006e-5,0,5.006e-5,180,0.01,1.001,22.175,120.893,9.788,92.68,0,0,0,2.8e4,1.35e4,19.963,0.106,NaN,2019.991,NaN,0.006,4.018e5,4.343,-1.026e-5,0.746,-1.866e-4,0.411,0.215,0.12,NaN,NaN,NaN,NaN,NaN,NaN,NaN,NaN,1.295e-5,165,213.825,84,0,2.047,15,1013.25,340.389,0.01,0.003
0.04,-4.765e-4,-0.095,-9.53,0.096,9.582,-5.008e-5,0,5.008e-5,180,0.01,1.002,22.175,120.893,9.788,92.68,0,0,0,2.8e4,1.35e4,19.963,0.106,NaN,2019.989,NaN,0.006,4.019e5,4.249,-1.027e-5,0.746,-1.867e-4,0.411,0.215,0.12,NaN,NaN,NaN,NaN,NaN,NaN,NaN,NaN,1.295e-5,165,213.825,84,0,2.047,15,1013.25,340.389,0.01,0.003
0.05,-4.761e-4,-0.095,-9.523,0.096,9.575,-5.005e-5,0,5.005e-5,180,0.01,1.001,22.175,120.893,9.788,92.677,0,0,0,2.8e4,1.35e4,19.963,0.106,NaN,2019.988,NaN,0.006,4.02e5,4.443,-1.024e-5,0.746,-1.861e-4,0.411,0.215,0.12,NaN,NaN,NaN,NaN,NaN,NaN,NaN,NaN,1.294e-5,165,213.825,84,0,2.048,15,1013.25,340.389,0.01,0.004
0.06,-4.757e-4,-0.095,-9.514,0.096,9.567,-5e-5,0,5e-5,180,0.01,1,22.175,120.893,9.788,92.675,0,0,0,2.8e4,1.35e4,19.963,0.106,NaN,2019.986,NaN,0.006,4.02e5,4.681,-1.022e-5,0.746,-1.857e-4,0.411,0.215,0.12,NaN,NaN,NaN,NaN,NaN,NaN,NaN,NaN,1.293e-5,165,213.825,84,0,2.047,15,1013.25,340.389,0.01,0.004
0.07,-4.762e-4,-0.095,-9.523,0.096,9.576,-5.005e-5,0,5.005e-5,180,0.01,1.001,22.175,120.893,9.788,92.678,0,0,0,2.8e4,1.35e4,19.963,0.106,NaN,2019.984,NaN,0.006,4.019e5,4.438,-1.025e-5,0.746,-1.863e-4,0.411,0.215,0.12,NaN,NaN,NaN,NaN,NaN,NaN,NaN,NaN,1.294e-5,165,213.825,84,0,2.047,15,1013.25,340.389,0.01,0.005
0.08,-4.761e-4,-0.095,-9.522,0.096,9.574,-5.004e-5,0,5.004e-5,180,0.01,1.001,22.175,120.893,9.788,92.678,0,0,0,2.8e4,1.35e4,19.963,0.106,NaN,2019.982,NaN,0.006,4.018e5,4.479,-1.025e-5,0.746,-1.863e-4,0.411,0.215,0.12,NaN,NaN,NaN,NaN,NaN,NaN,NaN,NaN,1.294e-5,165,213.825,84,0,2.047,15,1013.25,340.389,0.01,0.005
0.09,-4.759e-4,-0.095,-9.517,0.096,9.57,-5.002e-5,0,5.002e-5,180,0.01,1,22.175,120.893,9.788,92.677,0,0,0,2.8e4,1.35e4,19.963,0.106,NaN,2019.981,NaN,0.006,4.018e5,4.603,-1.023e-5,0.746,-1.862e-4,0.411,0.215,0.12,NaN,NaN,NaN,NaN,NaN,NaN,NaN,NaN,1.294e-5,165,213.825,84,0,2.046,15,1013.25,340.389,0.01,0.006
0.1,-4.764e-4,-0.095,-9.527,0.096,9.58,-5.007e-5,0,5.007e-5,180,0.01,1.001,22.175,120.893,9.788,92.681,0,0,0,2.8e4,1.35e4,19.963,0.106,NaN,2019.979,NaN,0.006,4.017e5,4.315,-1.027e-5,0.746,-1.869e-4,0.411,0.215,0.12,NaN,NaN,NaN,NaN,NaN,NaN,NaN,NaN,1.295e-5,165,213.825,84,0,2.046,15,1013.25,340.389,0.01,0.006
0.11,-4.762e-4,-0.095,-9.523,0.096,9.576,-5.005e-5,0,5.005e-5,180,0.01,1.001,22.175,120.893,9.788,92.681,0,0,0,2.8e4,1.35e4,19.963,0.106,NaN,2019.977,NaN,0.006,4.015e5,4.431,-1.026e-5,0.746,-1.87e-4,0.411,0.215,0.12,NaN,NaN,NaN,NaN,NaN,NaN,NaN,NaN,1.294e-5,165,213.825,84,0,2.045,15,1013.25,340.389,0.01,0.006
0.12,-4.762e-4,-0.095,-9.523,0.096,9.576,-5.005e-5,0,5.005e-5,180,0.01,1.001,22.175,120.893,9.788,92.683,0,0,0,2.8e4,1.35e4,19.962,0.106,NaN,2019.976,NaN,0.006,4.012e5,4.436,-1.027e-5,0.746,-1.873e-4,0.411,0.215,0.12,NaN,NaN,NaN,NaN,NaN,NaN,NaN,NaN,1.294e-5,165,213.825,84,0,2.044,15,1013.25,340.389,0.01,0.007
0.13,-4.758e-4,-0.095,-9.517,0.096,9.569,-5.001e-5,0,5.001e-5,180,0.01,1,22.175,120.893,9.788,92.682,0,0,0,2.8e4,1.35e4,19.962,0.106,NaN,2019.974,NaN,0.006,4.01e5,4.62,-1.025e-5,0.746,-1.873e-4,0.411,0.215,0.12,NaN,NaN,NaN,NaN,NaN,NaN,NaN,NaN,1.294e-5,165,213.825,84,0,2.042,15,1013.25,340.389,0.01,0.007
0.14,-4.762e-4,-0.095,-9.524,0.096,9.577,-5.005e-5,0,5.005e-5,180,0.01,1.001,22.175,120.893,9.788,92.686,0,0,0,2.8e4,1.35e4,19.962,0.106,NaN,2019.972,NaN,0.006,4.008e5,4.404,-1.028e-5,0.746,-1.88e-4,0.411,0.215,0.12,NaN,NaN,NaN,NaN,NaN,NaN,NaN,NaN,1.295e-5,165,213.825,84,0,2.041,15,1013.25,340.389,0.01,0.008
0.15,-4.761e-4,-0.095,-9.523,0.096,9.575,-5.004e-5,0,5.004e-5,180,0.01,1.001,22.175,120.893,9.788,92.687,0,0,0,2.8e4,1.35e4,19.962,0.106,NaN,2019.97,NaN,0.006,4.005e5,4.444,-1.029e-5,0.746,-1.883e-4,0.411,0.215,0.12,NaN,NaN,NaN,NaN,NaN,NaN,NaN,NaN,1.294e-5,165,213.825,84,0,2.04,15,1013.25,340.389,0.01,0.008
0.16,-4.758e-4,-0.095,-9.516,0.096,9.568,-5.001e-5,0,5.001e-5,180,0.01,1,22.175,120.893,9.788,92.65,0,0,0,2.8e4,1.35e4,19.962,0.106,NaN,2019.969,NaN,0.006,4.058e5,4.651,-1.012e-5,0.745,-1.805e-4,0.41,0.215,0.12,NaN,NaN,NaN,NaN,NaN,NaN,NaN,NaN,1.293e-5,165,213.825,84,0,2.067,15,1013.25,340.389,0.01,0.008
0.17,-4.765e-4,-0.095,-9.531,0.096,9.583,-5.009e-5,0,5.009e-5,180,0.01,1.002,22.175,120.893,9.788,92.621,0,0,0,2.8e4,1.35e4,19.962,0.106,NaN,2019.967,NaN,0.006,4.11e5,4.218,-1.002e-5,0.744,-1.742e-4,0.409,0.215,0.12,NaN,NaN,NaN,NaN,NaN,NaN,NaN,NaN,1.295e-5,165,213.825,84,0,2.094,15,1013.25,340.389,0.01,0.009
0.18,-4.765e-4,-0.095,-9.531,0.096,9.583,-5.009e-5,0,5.009e-5,180,0.01,1.002,22.175,120.893,9.788,92.588,0,0,0,2.8e4,1.35e4,19.962,0.106,NaN,2019.965,NaN,0.006,4.163e5,4.225,-9.885e-6,0.743,-1.675e-4,0.408,0.215,0.12,NaN,NaN,NaN,NaN,NaN,NaN,NaN,NaN,1.295e-5,165,213.825,84,0,2.12,15,1013.25,340.389,0.01,0.009
0.19,-4.764e-4,-0.095,-9.527,0.096,9.58,-5.007e-5,0,5.007e-5,180,0.01,1.001,22.175,120.893,9.788,92.555,0,0,0,2.8e4,1.35e4,19.962,0.106,NaN,2019.964,NaN,0.006,4.215e5,4.321,-9.74e-6,0.742,-1.61e-4,0.407,0.215,0.12,NaN,NaN,NaN,NaN,NaN,NaN,NaN,NaN,1.295e-5,165,213.825,84,0,2.147,15,1013.25,340.389,0.01,0.01
0.2,-4.766e-4,-0.095,-9.532,0.096,9.585,-5.01e-5,0,5.01e-5,180,0.01,1.002,22.175,120.893,9.788,92.524,0,0,0,2.8e4,1.35e4,19.962,0.106,NaN,2019.962,NaN,0.006,4.268e5,4.174,-9.625e-6,0.741,-1.552e-4,0.406,0.215,0.12,NaN,NaN,NaN,NaN,NaN,NaN,NaN,NaN,1.296e-5,165,213.825,84,0,2.174,15,1013.25,340.389,0.01,0.01
0.21,-4.763e-4,-0.095,-9.525,0.096,9.578,-5.006e-5,0,5.006e-5,180,0.01,1.001,22.175,120.893,9.788,92.554,0,0,0,2.8e4,1.35e4,19.962,0.106,NaN,2019.961,NaN,0.006,4.215e5,4.381,-9.736e-6,0.742,-1.61e-4,0.407,0.215,0.12,NaN,NaN,NaN,NaN,NaN,NaN,NaN,NaN,1.295e-5,165,213.825,84,0,2.147,15,1013.25,340.389,0.01,0.01
0.22,-4.758e-4,-0.095,-9.515,0.096,9.568,-5.001e-5,0,5.001e-5,180,0.01,1,22.175,120.893,9.788,92.584,0,0,0,2.8e4,1.35e4,19.962,0.106,NaN,2019.959,NaN,0.006,4.161e5,4.657,-9.842e-6,0.743,-1.669e-4,0.408,0.215,0.12,NaN,NaN,NaN,NaN,NaN,NaN,NaN,NaN,1.293e-5,165,213.825,84,0,2.12,15,1013.25,340.389,0.01,0.019
0.23,-4.762e-4,-0.095,-9.525,0.096,9.577,-5.005e-5,0,5.005e-5,180,0.01,1.001,22.175,120.893,9.788,92.621,0,0,0,2.8e4,1.35e4,19.962,0.106,NaN,2019.957,NaN,0.006,4.108e5,4.392,-1.001e-5,0.744,-1.742e-4,0.409,0.215,0.12,NaN,NaN,NaN,NaN,NaN,NaN,NaN,NaN,1.295e-5,165,213.825,84,0,2.093,15,1013.25,340.389,0.01,0.019
0.24,-4.76e-4,-0.095,-9.52,0.096,9.573,-5.003e-5,0,5.003e-5,180,0.01,1.001,22.175,120.893,9.788,92.654,0,0,0,2.8e4,1.35e4,19.962,0.106,NaN,2019.955,NaN,0.006,4.055e5,4.513,-1.014e-5,0.745,-1.811e-4,0.41,0.215,0.12,NaN,NaN,NaN,NaN,NaN,NaN,NaN,NaN,1.294e-5,165,213.825,84,0,2.065,15,1013.25,340.389,0.01,0.019
0.25,-4.759e-4,-0.095,-9.518,0.096,9.57,-5.002e-5,0,5.002e-5,180,0.01,1,22.175,120.893,9.788,92.688,0,0,0,2.8e4,1.35e4,19.962,0.106,NaN,2019.954,NaN,0.006,4.002e5,4.587,-1.028e-5,0.747,-1.885e-4,0.411,0.215,0.12,NaN,NaN,NaN,NaN,NaN,NaN,NaN,NaN,1.294e-5,165,213.825,84,0,2.038,15,1013.25,340.389,0.01,0.019
0.26,-4.762e-4,-0.095,-9.523,0.096,9.576,-5.005e-5,0,5.005e-5,180,0.01,1.001,22.175,120.893,9.788,92.659,0,0,0,2.8e4,1.35e4,19.962,0.106,NaN,2019.952,NaN,0.006,4.048e5,4.429,-1.017e-5,0.746,-1.822e-4,0.41,0.215,0.12,NaN,NaN,NaN,NaN,NaN,NaN,NaN,NaN,1.294e-5,165,213.825,84,0,2.062,15,1013.25,340.389,0.01,0.02
0.27,-4.76e-4,-0.095,-9.52,0.096,9.572,-5.003e-5,0,5.003e-5,180,0.01,1.001,22.175,120.893,9.788,92.628,0,0,0,2.8e4,1.35e4,19.962,0.106,NaN,2019.95,NaN,0.006,4.094e5,4.527,-1.003e-5,0.745,-1.757e-4,0.409,0.215,0.12,NaN,NaN,NaN,NaN,NaN,NaN,NaN,NaN,1.294e-5,165,213.825,84,0,2.086,15,1013.25,340.389,0.01,0.02
0.28,-4.761e-4,-0.095,-9.521,0.096,9.574,-5.004e-5,0,5.004e-5,180,0.01,1.001,22.175,120.893,9.788,92.599,0,0,0,2.8e4,1.35e4,19.962,0.106,NaN,2019.949,NaN,0.006,4.141e5,4.488,-9.913e-6,0.744,-1.698e-4,0.408,0.215,0.12,NaN,NaN,NaN,NaN,NaN,NaN,NaN,NaN,1.294e-5,165,213.825,84,0,2.109,15,1013.25,340.389,0.01,0.02
0.29,-4.758e-4,-0.095,-9.517,0.096,9.569,-5.001e-5,0,5.001e-5,180,0.01,1,22.175,120.893,9.788,92.569,0,0,0,2.8e4,1.35e4,19.962,0.106,NaN,2019.947,NaN,0.006,4.187e5,4.616,-9.779e-6,0.743,-1.638e-4,0.407,0.215,0.12,NaN,NaN,NaN,NaN,NaN,NaN,NaN,NaN,1.294e-5,165,213.825,84,0,2.133,15,1013.25,340.389,0.01,0.02
0.3,-4.76e-4,-0.095,-9.519,0.096,9.572,-5.003e-5,0,5.003e-5,180,0.01,1.001,22.175,120.893,9.788,92.541,0,0,0,2.8e4,1.35e4,19.962,0.106,NaN,2019.945,NaN,0.006,4.234e5,4.548,-9.669e-6,0.742,-1.584e-4,0.406,0.215,0.12,NaN,NaN,NaN,NaN,NaN,NaN,NaN,NaN,1.294e-5,165,213.825,84,0,2.157,15,1013.25,340.389,0.01,0.02
0.31,-4.757e-4,-0.095,-9.514,0.096,9.566,-5e-5,0,5e-5,180,0.01,1,22.175,120.893,9.788,92.594,0,0,0,2.8e4,1.35e4,19.962,0.106,NaN,2019.943,NaN,0.006,4.145e5,4.706,-9.879e-6,0.743,-1.689e-4,0.408,0.215,0.12,NaN,NaN,NaN,NaN,NaN,NaN,NaN,NaN,1.293e-5,165,213.825,84,0,2.111,15,1013.25,340.389,0.01,0.021
0.32,-4.763e-4,-0.095,-9.527,0.096,9.579,-5.007e-5,0,5.007e-5,180,0.01,1.001,22.175,120.893,9.788,92.655,0,0,0,2.8e4,1.35e4,19.962,0.106,NaN,2019.942,NaN,0.006,4.056e5,4.332,-1.016e-5,0.745,-1.813e-4,0.41,0.215,0.12,NaN,NaN,NaN,NaN,NaN,NaN,NaN,NaN,1.295e-5,165,213.825,84,0,2.066,15,1013.25,340.389,0.01,0.021
0.33,-4.761e-4,-0.095,-9.521,0.096,9.574,-5.004e-5,0,5.004e-5,180,0.01,1.001,22.175,120.893,9.788,92.712,0,0,0,2.8e4,1.35e4,19.962,0.106,NaN,2019.94,NaN,0.006,3.968e5,4.483,-1.039e-5,0.747,-1.938e-4,0.412,0.215,0.12,NaN,NaN,NaN,NaN,NaN,NaN,NaN,NaN,1.294e-5,165,213.825,84,0,2.021,15,1013.25,340.389,0.01,0.021
0.34,-4.759e-4,-0.095,-9.518,0.096,9.571,-5.002e-5,0,5.002e-5,180,0.01,1,22.175,120.893,9.788,92.773,0,0,0,2.8e4,1.35e4,19.962,0.106,NaN,2019.938,NaN,0.006,3.879e5,4.57,-1.064e-5,0.749,-2.076e-4,0.414,0.215,0.12,NaN,NaN,NaN,NaN,NaN,NaN,NaN,NaN,1.294e-5,165,213.825,84,0,1.976,15,1013.25,340.389,0.01,0.021
0.35,-4.762e-4,-0.095,-9.524,0.096,9.576,-5.005e-5,0,5.005e-5,180,0.01,1.001,22.175,120.893,9.788,92.84,0,0,0,2.8e4,1.35e4,19.962,0.106,NaN,2019.936,NaN,0.006,3.791e5,4.419,-1.093e-5,0.751,-2.234e-4,0.416,0.215,0.12,NaN,NaN,NaN,NaN,NaN,NaN,NaN,NaN,1.294e-5,165,213.825,84,0,1.93,15,1013.25,340.389,0.01,0.021
0.36,-4.764e-4,-0.095,-9.527,0.096,9.58,-5.007e-5,0,5.007e-5,180,0.01,1.001,22.175,120.893,9.788,92.815,0,0,0,2.8e4,1.35e4,19.962,0.106,NaN,2019.935,NaN,0.006,3.825e5,4.317,-1.083e-5,0.751,-2.174e-4,0.416,0.215,0.12,NaN,NaN,NaN,NaN,NaN,NaN,NaN,NaN,1.295e-5,165,213.825,84,0,1.948,15,1013.25,340.389,0.01,0.021
0.37,-4.76e-4,-0.095,-9.52,0.096,9.573,-5.003e-5,0,5.003e-5,180,0.01,1.001,22.175,120.893,9.788,92.788,0,0,0,2.8e4,1.35e4,19.962,0.106,NaN,2019.933,NaN,0.006,3.859e5,4.522,-1.07e-5,0.75,-2.11e-4,0.415,0.215,0.12,NaN,NaN,NaN,NaN,NaN,NaN,NaN,NaN,1.294e-5,165,213.825,84,0,1.966,15,1013.25,340.389,0.01,0.022
0.38,-4.762e-4,-0.095,-9.523,0.096,9.576,-5.005e-5,0,5.005e-5,180,0.01,1.001,22.175,120.893,9.788,92.764,0,0,0,2.8e4,1.35e4,19.962,0.106,NaN,2019.931,NaN,0.006,3.894e5,4.433,-1.061e-5,0.749,-2.055e-4,0.414,0.215,0.12,NaN,NaN,NaN,NaN,NaN,NaN,NaN,NaN,1.294e-5,165,213.825,84,0,1.983,15,1013.25,340.389,0.01,0.022
0.39,-4.757e-4,-0.095,-9.515,0.096,9.567,-5e-5,0,5e-5,180,0.01,1,22.175,120.893,9.788,92.738,0,0,0,2.8e4,1.35e4,19.962,0.106,NaN,2019.93,NaN,0.006,3.928e5,4.673,-1.048e-5,0.748,-1.994e-4,0.413,0.215,0.12,NaN,NaN,NaN,NaN,NaN,NaN,NaN,NaN,1.293e-5,165,213.825,84,0,2.001,15,1013.25,340.389,0.01,0.022
0.4,-4.755e-4,-0.095,-9.51,0.096,9.562,-4.998e-5,0,4.998e-5,180,0.01,1,22.175,120.893,9.788,92.712,0,0,0,2.8e4,1.35e4,19.962,0.106,NaN,2019.928,NaN,0.006,3.963e5,4.812,-1.036e-5,0.747,-1.938e-4,0.412,0.215,0.12,NaN,NaN,NaN,NaN,NaN,NaN,NaN,NaN,1.293e-5,165,213.825,84,0,2.018,15,1013.25,340.389,0.01,0.022
0.41,-4.759e-4,-0.095,-9.518,0.096,9.57,-5.002e-5,0,5.002e-5,180,0.01,1,22.175,120.893,9.788,92.754,0,0,0,2.8e4,1.35e4,19.962,0.106,NaN,2019.926,NaN,0.006,3.907e5,4.595,-1.055e-5,0.749,-2.03e-4,0.414,0.215,0.12,NaN,NaN,NaN,NaN,NaN,NaN,NaN,NaN,1.294e-5,165,213.825,84,0,1.99,15,1013.25,340.389,0.01,0.022
0.42,-4.758e-4,-0.095,-9.516,0.096,9.568,-5.001e-5,0,5.001e-5,180,0.01,1,22.175,120.893,9.788,92.793,0,0,0,2.8e4,1.35e4,19.962,0.106,NaN,2019.924,NaN,0.006,3.851e5,4.638,-1.072e-5,0.75,-2.122e-4,0.415,0.215,0.12,NaN,NaN,NaN,NaN,NaN,NaN,NaN,NaN,1.293e-5,165,213.825,84,0,1.961,15,1013.25,340.389,0.01,0.022
0.43,-4.755e-4,-0.095,-9.51,0.096,9.562,-4.998e-5,0,4.998e-5,180,0.01,1,22.175,120.893,9.788,92.833,0,0,0,2.8e4,1.35e4,19.962,0.106,NaN,2019.922,NaN,0.006,3.795e5,4.811,-1.087e-5,0.751,-2.216e-4,0.416,0.215,0.12,NaN,NaN,NaN,NaN,NaN,NaN,NaN,NaN,1.293e-5,165,213.825,84,0,1.933,15,1013.25,340.389,0.01,0.023
0.44,-4.753e-4,-0.095,-9.506,0.096,9.558,-4.996e-5,0,4.996e-5,180,0.01,0.999,22.175,120.893,9.788,92.874,0,0,0,2.8e4,1.35e4,19.962,0.106,NaN,2019.921,NaN,0.006,3.739e5,4.919,-1.103e-5,0.753,-2.318e-4,0.418,0.215,0.12,NaN,NaN,NaN,NaN,NaN,NaN,NaN,NaN,1.292e-5,165,213.825,84,0,1.904,15,1013.25,340.389,0.01,0.023
0.45,-4.759e-4,-0.095,-9.518,0.096,9.57,-5.002e-5,0,5.002e-5,180,0.01,1,22.175,120.893,9.788,92.921,0,0,0,2.8e4,1.35e4,19.961,0.106,NaN,2019.919,NaN,0.006,3.683e5,4.583,-1.126e-5,0.754,-2.438e-4,0.419,0.215,0.12,NaN,NaN,NaN,NaN,NaN,NaN,NaN,NaN,1.294e-5,165,213.825,84,0,1.875,15,1013.25,340.389,0.01,0.023
0.46,-4.762e-4,-0.095,-9.523,0.096,9.576,-5.005e-5,0,5.005e-5,180,0.01,1.001,22.175,120.893,9.788,92.905,0,0,0,2.8e4,1.35e4,19.961,0.106,NaN,2019.917,NaN,0.006,3.705e5,4.429,-1.12e-5,0.754,-2.397e-4,0.418,0.215,0.12,NaN,NaN,NaN,NaN,NaN,NaN,NaN,NaN,1.294e-5,165,213.825,84,0,1.887,15,1013.25,340.389,0.01,0.023
0.47,-4.761e-4,-0.095,-9.523,0.096,9.575,-5.004e-5,0,5.004e-5,180,0.01,1.001,22.175,120.893,9.788,92.888,0,0,0,2.8e4,1.35e4,19.961,0.106,NaN,2019.915,NaN,0.006,3.728e5,4.45,-1.113e-5,0.753,-2.352e-4,0.418,0.215,0.12,NaN,NaN,NaN,NaN,NaN,NaN,NaN,NaN,1.294e-5,165,213.825,84,0,1.898,15,1013.25,340.389,0.01,0.023
0.48,-4.753e-4,-0.095,-9.507,0.096,9.559,-4.996e-5,0,4.996e-5,180,0.01,0.999,22.175,120.893,9.788,92.866,0,0,0,2.8e4,1.35e4,19.961,0.106,NaN,2019.914,NaN,0.006,3.75e5,4.905,-1.1e-5,0.752,-2.297e-4,0.417,0.215,0.12,NaN,NaN,NaN,NaN,NaN,NaN,NaN,NaN,1.292e-5,165,213.825,84,0,1.91,15,1013.25,340.389,0.01,0.024
0.49,-4.756e-4,-0.095,-9.512,0.096,9.565,-4.999e-5,0,4.999e-5,180,0.01,1,22.175,120.893,9.788,92.85,0,0,0,2.8e4,1.35e4,19.961,0.106,NaN,2019.912,NaN,0.006,3.772e5,4.746,-1.095e-5,0.752,-2.259e-4,0.417,0.215,0.12,NaN,NaN,NaN,NaN,NaN,NaN,NaN,NaN,1.293e-5,165,213.825,84,0,1.921,15,1013.25,340.389,0.01,0.024
0.5,-4.761e-4,-0.095,-9.522,0.096,9.574,-5.004e-5,0,5.004e-5,180,0.01,1.001,22.175,120.893,9.788,92.836,0,0,0,2.8e4,1.35e4,19.961,0.106,NaN,2019.91,NaN,0.006,3.795e5,4.47,-1.091e-5,0.751,-2.225e-4,0.416,0.215,0.12,NaN,NaN,NaN,NaN,NaN,NaN,NaN,NaN,1.294e-5,165,213.825,84,0,1.933,15,1013.25,340.389,0.01,0.024
0.51,-4.758e-4,-0.095,-9.515,0.096,9.568,-5.001e-5,0,5.001e-5,180,0.01,1,22.175,120.893,9.788,92.89,0,0,0,2.8e4,1.35e4,19.961,0.106,NaN,2019.908,NaN,0.006,3.722e5,4.657,-1.112e-5,0.753,-2.358e-4,0.418,0.215,0.12,NaN,NaN,NaN,NaN,NaN,NaN,NaN,NaN,1.293e-5,165,213.825,84,0,1.895,15,1013.25,340.389,0.01,0.024
0.52,-4.75e-4,-0.095,-9.499,0.096,9.551,-4.992e-5,0,4.992e-5,180,0.01,0.998,22.175,120.893,9.788,92.943,0,0,0,2.8e4,1.35e4,19.961,0.106,NaN,2019.906,NaN,0.005,3.649e5,5.115,-1.131e-5,0.755,-2.494e-4,0.42,0.215,0.12,NaN,NaN,NaN,NaN,NaN,NaN,NaN,NaN,1.291e-5,165,213.825,84,0,1.858,15,1013.25,340.389,0.01,0.024
0.53,-4.746e-4,-0.095,-9.491,0.095,9.543,-4.988e-5,0,4.988e-5,180,0.01,0.998,22.175,120.893,9.788,93,0,0,0,2.8e4,1.35e4,19.961,0.106,NaN,2019.904,NaN,0.005,3.576e5,5.339,-1.153e-5,0.757,-2.648e-4,0.422,0.215,0.12,NaN,NaN,NaN,NaN,NaN,NaN,NaN,NaN,1.29e-5,165,213.825,84,0,1.821,15,1013.25,340.389,0.01,0.024
0.54,-4.758e-4,-0.095,-9.516,0.096,9.568,-5.001e-5,0,5.001e-5,180,0.01,1,22.175,120.893,9.788,93.071,0,0,0,2.8e4,1.35e4,19.961,0.106,NaN,2019.903,NaN,0.005,3.503e5,4.638,-1.189e-5,0.759,-2.845e-4,0.424,0.215,0.12,NaN,NaN,NaN,NaN,NaN,NaN,NaN,NaN,1.293e-5,165,213.825,84,0,1.784,15,1013.25,340.389,0.01,0.025
0.55,-4.755e-4,-0.095,-9.509,0.096,9.562,-4.997e-5,0,4.997e-5,180,0.01,0.999,22.175,120.893,9.788,93.134,0,0,0,2.8e4,1.35e4,19.961,0.106,NaN,2019.901,NaN,0.005,3.43e5,4.82,-1.214e-5,0.761,-3.03e-4,0.426,0.215,0.12,NaN,NaN,NaN,NaN,NaN,NaN,NaN,NaN,1.293e-5,165,213.825,84,0,1.746,15,1013.25,340.389,0.01,0.025
0.56,-4.749e-4,-0.095,-9.498,0.096,9.55,-4.991e-5,0,4.991e-5,180,0.01,0.998,22.175,120.893,9.788,93.132,0,0,0,2.8e4,1.35e4,19.961,0.106,NaN,2019.899,NaN,0.005,3.428e5,5.14,-1.21e-5,0.761,-3.025e-4,0.426,0.215,0.12,NaN,NaN,NaN,NaN,NaN,NaN,NaN,NaN,1.291e-5,165,213.825,84,0,1.745,15,1013.25,340.389,0.01,0.025
0.57,-4.749e-4,-0.095,-9.497,0.095,9.55,-4.991e-5,0,4.991e-5,180,0.01,0.998,22.175,120.893,9.788,93.134,0,0,0,2.8e4,1.35e4,19.961,0.106,NaN,2019.897,NaN,0.005,3.426e5,5.164,-1.211e-5,0.761,-3.029e-4,0.426,0.215,0.12,NaN,NaN,NaN,NaN,NaN,NaN,NaN,NaN,1.291e-5,165,213.825,84,0,1.744,15,1013.25,340.389,0.01,0.025
0.58,-4.749e-4,-0.095,-9.499,0.096,9.551,-4.992e-5,0,4.992e-5,180,0.01,0.998,22.175,120.893,9.788,93.136,0,0,0,2.8e4,1.35e4,19.961,0.106,NaN,2019.895,NaN,0.005,3.424e5,5.125,-1.212e-5,0.761,-3.036e-4,0.426,0.215,0.12,NaN,NaN,NaN,NaN,NaN,NaN,NaN,NaN,1.291e-5,165,213.825,84,0,1.743,15,1013.25,340.389,0.01,0.025
0.59,-4.746e-4,-0.095,-9.493,0.095,9.545,-4.989e-5,0,4.989e-5,180,0.01,0.998,22.175,120.893,9.788,93.136,0,0,0,2.8e4,1.35e4,19.961,0.106,NaN,2019.893,NaN,0.005,3.422e5,5.296,-1.21e-5,0.761,-3.035e-4,0.426,0.215,0.12,NaN,NaN,NaN,NaN,NaN,NaN,NaN,NaN,1.29e-5,165,213.825,84,0,1.742,15,1013.25,340.389,0.01,0.025
0.6,-4.741e-4,-0.095,-9.483,0.095,9.535,-4.984e-5,0,4.984e-5,180,0.01,0.997,22.175,120.893,9.788,93.134,0,0,0,2.8e4,1.349e4,19.961,0.106,NaN,2019.891,NaN,0.005,3.42e5,5.567,-1.207e-5,0.761,-3.032e-4,0.426,0.215,0.12,NaN,NaN,NaN,NaN,NaN,NaN,NaN,NaN,1.289e-5,165,213.825,84,0,1.741,15,1013.25,340.389,0.01,0.026
0.61,-4.739e-4,-0.095,-9.478,0.095,9.53,-4.981e-5,0,4.981e-5,180,0.01,0.996,22.175,120.893,9.788,93.164,0,0,0,2.8e4,1.349e4,19.961,0.106,NaN,2019.889,NaN,0.005,3.386e5,5.717,-1.219e-5,0.762,-3.122e-4,0.427,0.215,0.12,NaN,NaN,NaN,NaN,NaN,NaN,NaN,NaN,1.288e-5,165,213.825,84,0,1.724,15,1013.25,340.389,0.01,0.026
0.62,-4.745e-4,-0.095,-9.49,0.095,9.542,-4.987e-5,0,4.987e-5,180,0.01,0.997,22.175,120.893,9.788,93.2,0,0,0,2.8e4,1.349e4,19.961,0.106,NaN,2019.887,NaN,0.005,3.352e5,5.366,-1.237e-5,0.763,-3.233e-4,0.428,0.215,0.12,NaN,NaN,NaN,NaN,NaN,NaN,NaN,NaN,1.29e-5,165,213.825,84,0,1.707,15,1013.25,340.389,0.01,0.026
0.63,-4.737e-4,-0.095,-9.473,0.095,9.525,-4.978e-5,0,4.978e-5,180,0.01,0.996,22.175,120.893,9.788,93.228,0,0,0,2.799e4,1.349e4,19.961,0.106,NaN,2019.884,NaN,0.005,3.318e5,5.844,-1.244e-5,0.764,-3.319e-4,0.429,0.215,0.12,NaN,NaN,NaN,NaN,NaN,NaN,NaN,NaN,1.288e-5,165,213.825,84,0,1.689,15,1013.25,340.389,0.01,0.026
0.64,-4.738e-4,-0.095,-9.475,0.095,9.527,-4.979e-5,0,4.979e-5,180,0.01,0.996,22.175,120.893,9.788,93.262,0,0,0,2.799e4,1.349e4,19.961,0.106,NaN,2019.882,NaN,0.005,3.284e5,5.786,-1.259e-5,0.765,-3.429e-4,0.43,0.215,0.12,NaN,NaN,NaN,NaN,NaN,NaN,NaN,NaN,1.288e-5,165,213.825,84,0,1.672,15,1013.25,340.389,0.01,0.026
0.65,-4.734e-4,-0.095,-9.469,0.095,9.521,-4.976e-5,0,4.976e-5,180,0.01,0.995,22.175,120.893,9.788,93.294,0,0,0,2.799e4,1.349e4,19.961,0.106,NaN,2019.88,NaN,0.005,3.25e5,5.968,-1.271e-5,0.766,-3.534e-4,0.431,0.215,0.12,NaN,NaN,NaN,NaN,NaN,NaN,NaN,NaN,1.287e-5,165,213.825,84,0,1.654,15,1013.25,340.389,0.01,0.026
0.66,-4.724e-4,-0.094,-9.448,0.095,9.5,-4.965e-5,0,4.965e-5,180,0.01,0.993,22.175,120.893,9.788,93.263,0,0,0,2.799e4,1.349e4,19.961,0.106,NaN,2019.877,NaN,0.005,3.273e5,6.551,-1.253e-5,0.765,-3.435e-4,0.43,0.215,0.12,NaN,NaN,NaN,NaN,NaN,NaN,NaN,NaN,1.284e-5,165,213.825,84,0,1.666,15,1013.25,340.389,0.01,0.027
0.67,-4.721e-4,-0.094,-9.442,0.095,9.494,-4.962e-5,0,4.962e-5,180,0.01,0.992,22.175,120.893,9.788,93.238,0,0,0,2.799e4,1.349e4,19.961,0.106,NaN,2019.875,NaN,0.005,3.297e5,6.72,-1.241e-5,0.765,-3.353e-4,0.429,0.215,0.12,NaN,NaN,NaN,NaN,NaN,NaN,NaN,NaN,1.283e-5,165,213.825,84,0,1.678,15,1013.25,340.389,0.01,0.027
0.68,-4.711e-4,-0.094,-9.421,0.095,9.473,-4.951e-5,0,4.951e-5,180,0.01,0.99,22.175,120.893,9.788,93.208,0,0,0,2.799e4,1.349e4,19.961,0.106,NaN,2019.872,NaN,0.005,3.32e5,7.299,-1.223e-5,0.764,-3.26e-4,0.429,0.215,0.12,NaN,NaN,NaN,NaN,NaN,NaN,NaN,NaN,1.281e-5,165,213.825,84,0,1.69,15,1013.25,340.389,0.01,0.027
0.69,-4.708e-4,-0.094,-9.415,0.095,9.467,-4.948e-5,0,4.948e-5,180,0.01,0.99,22.175,120.893,9.788,93.183,0,0,0,2.799e4,1.349e4,19.961,0.106,NaN,2019.869,NaN,0.005,3.343e5,7.467,-1.212e-5,0.763,-3.184e-4,0.428,0.215,0.12,NaN,NaN,NaN,NaN,NaN,NaN,NaN,NaN,1.28e-5,165,213.825,84,0,1.702,15,1013.25,340.389,0.01,0.027
0.7,-4.699e-4,-0.094,-9.398,0.095,9.45,-4.939e-5,0,4.939e-5,180,0.01,0.988,22.175,120.893,9.788,93.156,0,0,0,2.799e4,1.349e4,19.961,0.106,NaN,2019.866,NaN,0.005,3.367e5,7.951,-1.196e-5,0.763,-3.099e-4,0.427,0.215,0.12,NaN,NaN,NaN,NaN,NaN,NaN,NaN,NaN,1.277e-5,165,213.825,84,0,1.714,15,1013.25,340.389,0.01,0.027
0.71,-4.682e-4,-0.094,-9.363,0.094,9.415,-4.921e-5,0,4.921e-5,180,0.01,0.984,22.175,120.893,9.788,93.167,0,0,0,2.799e4,1.349e4,19.96,0.106,NaN,2019.863,NaN,0.005,3.342e5,8.938,-1.193e-5,0.763,-3.137e-4,0.428,0.215,0.12,NaN,NaN,NaN,NaN,NaN,NaN,NaN,NaN,1.273e-5,165,213.825,84,0,1.701,15,1013.25,340.389,0.01,0.028
0.72,-4.676e-4,-0.094,-9.352,0.094,9.403,-4.915e-5,0,4.915e-5,180,0.01,0.983,22.175,120.893,9.788,93.188,0,0,0,2.799e4,1.349e4,19.96,0.106,NaN,2019.859,NaN,0.005,3.316e5,9.255,-1.198e-5,0.764,-3.199e-4,0.429,0.215,0.12,NaN,NaN,NaN,NaN,NaN,NaN,NaN,NaN,1.271e-5,165,213.825,84,0,1.688,15,1013.25,340.389,0.01,0.028
0.73,-4.659e-4,-0.093,-9.319,0.094,9.37,-4.897e-5,0,4.897e-5,180,0.01,0.979,22.175,120.893,9.788,93.201,0,0,0,2.799e4,1.349e4,19.96,0.106,NaN,2019.855,NaN,0.005,3.291e5,10.185,-1.196e-5,0.765,-3.241e-4,0.43,0.215,0.12,NaN,NaN,NaN,NaN,NaN,NaN,NaN,NaN,1.267e-5,165,213.825,84,0,1.676,15,1013.25,340.389,0.01,0.028
0.74,-4.64e-4,-0.093,-9.28,0.093,9.331,-4.877e-5,0,4.877e-5,180,0.01,0.975,22.175,120.893,9.788,93.212,0,0,0,2.799e4,1.349e4,19.96,0.106,NaN,2019.851,NaN,0.005,3.266e5,11.275,-1.191e-5,0.765,-3.279e-4,0.43,0.215,0.12,NaN,NaN,NaN,NaN,NaN,NaN,NaN,NaN,1.261e-5,165,213.825,84,0,1.663,15,1013.25,340.389,0.01,0.028
0.75,-4.621e-4,-0.092,-9.243,0.093,9.294,-4.857e-5,0,4.857e-5,180,0.01,0.971,22.175,120.893,9.788,93.224,0,0,0,2.799e4,1.349e4,19.96,0.106,NaN,2019.846,NaN,0.005,3.241e5,12.322,-1.187e-5,0.766,-3.318e-4,0.431,0.215,0.12,NaN,NaN,NaN,NaN,NaN,NaN,NaN,NaN,1.256e-5,165,213.825,84,0,1.65,15,1013.25,340.389,0.01,0.028
0.76,-4.598e-4,-0.092,-9.195,0.092,9.246,-4.832e-5,0,4.832e-5,180,0.01,0.966,22.175,120.893,9.788,93.204,0,0,0,2.799e4,1.349e4,19.96,0.106,NaN,2019.841,NaN,0.005,3.245e5,13.663,-1.167e-5,0.766,-3.256e-4,0.431,0.215,0.12,NaN,NaN,NaN,NaN,NaN,NaN,NaN,NaN,1.25e-5,165,213.825,84,0,1.652,15,1013.25,340.389,0.01,0.028
0.77,-4.586e-4,-0.092,-9.173,0.092,9.223,-4.82e-5,0,4.82e-5,180,0.01,0.964,22.175,120.893,9.788,93.192,0,0,0,2.799e4,1.349e4,19.96,0.106,NaN,2019.836,NaN,0.005,3.248e5,14.302,-1.157e-5,0.766,-3.221e-4,0.431,0.215,0.12,NaN,NaN,NaN,NaN,NaN,NaN,NaN,NaN,1.247e-5,165,213.825,84,0,1.654,15,1013.25,340.389,0.01,0.029
0.78,-4.56e-4,-0.091,-9.12,0.092,9.171,-4.793e-5,0,4.793e-5,180,0.01,0.959,22.175,120.893,9.788,93.171,0,0,0,2.799e4,1.349e4,19.96,0.106,NaN,2019.83,NaN,0.005,3.252e5,15.77,-1.137e-5,0.766,-3.156e-4,0.431,0.215,0.12,NaN,NaN,NaN,NaN,NaN,NaN,NaN,NaN,1.24e-5,165,213.825,84,0,1.656,15,1013.25,340.389,0.01,0.029
0.79,-4.54e-4,-0.091,-9.079,0.091,9.129,-4.771e-5,0,4.771e-5,180,0.01,0.954,22.175,120.893,9.788,93.153,0,0,0,2.799e4,1.349e4,19.96,0.106,NaN,2019.823,NaN,0.005,3.255e5,16.927,-1.12e-5,0.766,-3.104e-4,0.431,0.215,0.12,NaN,NaN,NaN,NaN,NaN,NaN,NaN,NaN,1.234e-5,165,213.825,84,0,1.657,15,1013.25,340.389,0.01,0.029
0.8,-4.518e-4,-0.09,-9.037,0.091,9.087,-4.749e-5,0,4.749e-5,180,0.009,0.95,22.175,120.893,9.788,93.134,0,0,0,2.799e4,1.349e4,19.96,0.106,NaN,2019.816,NaN,0.005,3.259e5,18.121,-1.103e-5,0.766,-3.05e-4,0.431,0.215,0.12,NaN,NaN,NaN,NaN,NaN,NaN,NaN,NaN,1.228e-5,165,213.825,84,0,1.659,15,1013.25,340.389,0.01,0.029
0.81,-4.495e-4,-0.09,-8.99,0.09,9.04,-4.725e-5,0,4.725e-5,180,0.009,0.945,22.175,120.893,9.788,93.1,0,0,0,2.799e4,1.349e4,19.96,0.106,NaN,2019.809,NaN,0.005,3.278e5,19.438,-1.08e-5,0.765,-2.951e-4,0.43,0.215,0.12,NaN,NaN,NaN,NaN,NaN,NaN,NaN,NaN,1.222e-5,165,213.825,84,0,1.669,15,1013.25,340.389,0.01,0.029
0.82,-4.482e-4,-0.09,-8.965,0.09,9.014,-4.711e-5,0,4.711e-5,180,0.009,0.942,22.175,120.893,9.788,93.074,0,0,0,2.799e4,1.349e4,19.959,0.106,NaN,2019.801,NaN,0.005,3.297e5,20.155,-1.064e-5,0.765,-2.874e-4,0.429,0.215,0.12,NaN,NaN,NaN,NaN,NaN,NaN,NaN,NaN,1.218e-5,165,213.825,84,0,1.679,15,1013.25,340.389,0.01,0.029
0.83,-4.434e-4,-0.089,-8.867,0.089,8.916,-4.66e-5,0,4.66e-5,180,0.009,0.932,22.175,120.893,9.788,93.023,0,0,0,2.799e4,1.349e4,19.959,0.106,NaN,2019.793,NaN,0.005,3.315e5,22.899,-1.023e-5,0.764,-2.734e-4,0.429,0.215,0.12,NaN,NaN,NaN,NaN,NaN,NaN,NaN,NaN,1.205e-5,165,213.825,84,0,1.688,15,1013.25,340.389,0.01,0.03
0.84,-4.345e-4,-0.087,-8.69,0.087,8.738,-4.567e-5,0,4.567e-5,180,0.009,0.913,22.175,120.893,9.788,92.946,0,0,0,2.799e4,1.349e4,19.959,0.106,NaN,2019.782,NaN,0.005,3.334e5,27.886,-9.579e-6,0.763,-2.531e-4,0.428,0.215,0.12,NaN,NaN,NaN,NaN,NaN,NaN,NaN,NaN,1.181e-5,165,213.825,84,0,1.698,15,1013.25,340.389,0.01,0.03
0.85,-4.271e-4,-0.085,-8.542,0.086,8.589,-4.489e-5,0,4.489e-5,180,0.009,0.898,22.175,120.893,9.788,92.88,0,0,0,2.799e4,1.349e4,19.959,0.106,NaN,2019.77,NaN,0.005,3.353e5,32.036,-9.048e-6,0.763,-2.364e-4,0.428,0.215,0.12,NaN,NaN,NaN,NaN,NaN,NaN,NaN,NaN,1.161e-5,165,213.825,84,0,1.707,15,1013.25,340.389,0.01,0.03
0.86,-4.194e-4,-0.084,-8.388,0.084,8.434,-4.408e-5,0,4.408e-5,180,0.009,0.882,22.175,120.893,9.788,92.805,0,0,0,2.799e4,1.349e4,19.959,0.106,NaN,2019.756,NaN,0.005,3.38e5,36.392,-8.494e-6,0.762,-2.184e-4,0.427,0.215,0.12,NaN,NaN,NaN,NaN,NaN,NaN,NaN,NaN,1.14e-5,165,213.825,84,0,1.721,15,1013.25,340.389,0.01,0.03
0.87,-4.119e-4,-0.082,-8.239,0.083,8.284,-4.33e-5,0,4.33e-5,180,0.009,0.866,22.175,120.893,9.788,92.733,0,0,0,2.799e4,1.349e4,19.958,0.106,NaN,2019.74,NaN,0.005,3.407e5,40.581,-7.983e-6,0.761,-2.02e-4,0.426,0.215,0.12,NaN,NaN,NaN,NaN,NaN,NaN,NaN,NaN,1.12e-5,165,213.825,84,0,1.735,15,1013.25,340.389,0.01,0.03
0.88,-4.047e-4,-0.081,-8.093,0.081,8.138,-4.253e-5,0,4.253e-5,180,0.009,0.851,22.175,120.893,9.788,92.664,0,0,0,2.799e4,1.349e4,19.958,0.106,NaN,2019.723,NaN,0.005,3.434e5,44.682,-7.505e-6,0.761,-1.869e-4,0.426,0.215,0.12,NaN,NaN,NaN,NaN,NaN,NaN,NaN,NaN,1.1e-5,165,213.825,84,0,1.749,15,1013.25,340.389,0.01,0.031
0.89,-3.982e-4,-0.08,-7.965,0.08,8.008,-4.186e-5,0,4.186e-5,180,0.008,0.837,22.175,120.893,9.788,92.601,0,0,0,2.799e4,1.349e4,19.958,0.106,NaN,2019.705,NaN,0.005,3.461e5,48.294,-7.095e-6,0.76,-1.739e-4,0.425,0.215,0.12,NaN,NaN,NaN,NaN,NaN,NaN,NaN,NaN,1.083e-5,165,213.825,84,0,1.763,15,1013.25,340.389,0.01,0.031
0.9,-3.921e-4,-0.078,-7.842,0.079,7.885,-4.121e-5,0,4.121e-5,180,0.008,0.824,22.175,120.893,9.788,92.541,0,0,0,2.799e4,1.349e4,19.957,0.106,NaN,2019.685,NaN,0.005,3.488e5,51.752,-6.716e-6,0.759,-1.621e-4,0.424,0.215,0.12,NaN,NaN,NaN,NaN,NaN,NaN,NaN,NaN,1.066e-5,165,213.825,84,0,1.777,15,1013.25,340.389,0.01,0.031
0.91,-3.84e-4,-0.077,-7.679,0.077,7.722,-4.036e-5,0,4.036e-5,180,0.008,0.807,22.175,120.893,9.788,92.478,0,0,0,2.798e4,1.348e4,19.957,0.106,NaN,2019.664,NaN,0.005,3.502e5,56.319,-6.284e-6,0.759,-1.505e-4,0.424,0.215,0.12,NaN,NaN,NaN,NaN,NaN,NaN,NaN,NaN,1.044e-5,165,213.825,84,0,1.784,15,1013.25,340.389,0.01,0.031
0.92,-3.761e-4,-0.075,-7.522,0.076,7.563,-3.953e-5,0,3.953e-5,180,0.008,0.791,22.175,120.893,9.788,92.418,0,0,0,2.798e4,1.348e4,19.957,0.106,NaN,2019.641,NaN,0.005,3.516e5,60.748,-5.883e-6,0.758,-1.398e-4,0.423,0.215,0.12,NaN,NaN,NaN,NaN,NaN,NaN,NaN,NaN,1.022e-5,165,213.825,84,0,1.791,15,1013.25,340.389,0.01,0.031
0.93,-3.643e-4,-0.073,-7.286,0.073,7.326,-3.829e-5,0,3.829e-5,180,0.008,0.766,22.175,120.893,9.788,92.333,0,0,0,2.798e4,1.348e4,19.956,0.106,NaN,2019.615,NaN,0.005,3.529e5,67.387,-5.327e-6,0.758,-1.256e-4,0.423,0.215,0.12,NaN,NaN,NaN,NaN,NaN,NaN,NaN,NaN,9.903e-6,165,213.825,84,0,1.798,15,1013.25,340.389,0.01,0.031
0.94,-3.499e-4,-0.07,-6.999,0.07,7.037,-3.678e-5,0,3.678e-5,180,0.007,0.736,22.175,120.893,9.788,92.233,0,0,0,2.798e4,1.348e4,19.956,0.106,NaN,2019.586,NaN,0.005,3.543e5,75.455,-4.707e-6,0.758,-1.101e-4,0.423,0.215,0.12,NaN,NaN,NaN,NaN,NaN,NaN,NaN,NaN,9.513e-6,165,213.825,84,0,1.805,15,1013.25,340.389,0.01,0.032
0.95,-3.337e-4,-0.067,-6.674,0.067,6.71,-3.507e-5,0,3.507e-5,180,0.007,0.701,22.175,120.893,9.788,92.121,0,0,0,2.798e4,1.348e4,19.955,0.106,NaN,2019.554,NaN,0.005,3.556e5,84.603,-4.068e-6,0.757,-9.445e-5,0.422,0.215,0.12,NaN,NaN,NaN,NaN,NaN,NaN,NaN,NaN,9.071e-6,165,213.825,84,0,1.812,15,1013.25,340.389,0.01,0.032
0.96,-3.135e-4,-0.063,-6.271,0.063,6.305,-3.295e-5,0,3.295e-5,180,0.007,0.659,22.175,120.893,9.788,91.998,0,0,0,2.798e4,1.348e4,19.954,0.106,NaN,2019.517,NaN,0.005,3.547e5,95.934,-3.389e-6,0.758,-7.911e-5,0.423,0.215,0.12,NaN,NaN,NaN,NaN,NaN,NaN,NaN,NaN,8.523e-6,165,213.825,84,0,1.807,15,1013.25,340.389,0.01,0.032
0.97,-2.933e-4,-0.059,-5.865,0.059,5.898,-3.082e-5,0,3.082e-5,180,0.006,0.616,22.175,120.893,9.788,91.874,0,0,0,2.798e4,1.348e4,19.954,0.106,NaN,2019.476,NaN,0.005,3.537e5,107.326,-2.785e-6,0.758,-6.536e-5,0.423,0.215,0.12,NaN,NaN,NaN,NaN,NaN,NaN,NaN,NaN,7.972e-6,165,213.825,84,0,1.803,15,1013.25,340.389,0.01,0.032
0.98,-2.671e-4,-0.053,-5.342,0.054,5.372,-2.808e-5,0,2.808e-5,180,0.006,0.561,22.175,120.893,9.788,91.711,0,0,0,2.797e4,1.347e4,19.953,0.106,NaN,2019.43,NaN,0.005,3.528e5,122.033,-2.114e-6,0.758,-4.988e-5,0.423,0.215,0.12,NaN,NaN,NaN,NaN,NaN,NaN,NaN,NaN,7.261e-6,165,213.825,84,0,1.798,15,1013.25,340.389,0.01,0.032
0.99,-2.333e-4,-0.047,-4.667,0.047,4.692,-2.453e-5,0,2.453e-5,180,0.005,0.49,22.175,120.893,9.788,91.499,0,0,0,2.797e4,1.347e4,19.952,0.106,NaN,2019.376,NaN,0.005,3.519e5,141.022,-1.417e-6,0.758,-3.36e-5,0.423,0.215,0.12,NaN,NaN,NaN,NaN,NaN,NaN,NaN,NaN,6.343e-6,165,213.825,84,0,1.793,15,1013.25,340.389,0.01,0.032
1,-1.839e-4,-0.037,-3.678,0.037,3.699,-1.933e-5,0,1.933e-5,180,0.004,0.387,22.175,120.893,9.788,91.185,0,0,0,2.797e4,1.347e4,19.951,0.106,NaN,2019.312,NaN,0.005,3.509e5,168.795,-6.982e-7,0.759,-1.665e-5,0.424,0.215,0.12,NaN,NaN,NaN,NaN,NaN,NaN,NaN,NaN,5e-6,165,213.825,84,0,1.789,15,1013.25,340.389,0.01,0.033
1.01,-1.138e-4,-0.023,-2.275,0.023,2.288,-1.196e-5,0,1.196e-5,180,0.002,0.239,22.175,120.893,9.788,90.728,0,0,0,2.796e4,1.346e4,19.949,0.106,NaN,2019.232,NaN,0.005,3.531e5,208.221,-1.649e-7,0.758,-3.884e-6,0.423,0.215,0.12,NaN,NaN,NaN,NaN,NaN,NaN,NaN,NaN,3.094e-6,165,213.825,84,0,1.8,15,1013.25,340.389,0.01,0.033
1.02,-4.855e-5,-0.01,-0.97,0.01,0.975,-5.103e-6,0,5.103e-6,180,0.001,0.102,22.175,120.893,9.788,90.309,0,0,0,2.796e4,1.346e4,19.948,0.106,NaN,2019.139,NaN,0.005,3.554e5,244.886,-1.276e-8,0.757,-2.968e-7,0.422,0.215,0.12,NaN,NaN,NaN,NaN,NaN,NaN,NaN,NaN,1.32e-6,165,213.825,84,0,1.812,15,1013.25,340.389,0.01,0.033
1.03,2.205e-5,0.004,0.442,0.004,0.445,2.317e-6,0,2.317e-6,0,4.638e-4,0.046,22.175,120.893,9.788,89.861,0,0,0,2.795e4,1.345e4,19.946,0.106,NaN,2019.03,NaN,0.005,3.576e5,284.538,0,0.757,2.737e-8,0.422,0.215,0.12,NaN,NaN,NaN,NaN,NaN,NaN,NaN,NaN,5.998e-7,165,213.825,84,0,1.823,15,1013.25,340.389,0.01,0.033
1.04,1.641e-4,0.024,1.96,0.024,1.971,1.725e-5,0,1.725e-5,0,0.003,0.206,22.175,120.893,9.788,89.246,0,0,0,2.795e4,1.345e4,19.943,0.106,NaN,2018.905,NaN,0.005,3.599e5,327.142,1.893e-7,0.756,4.292e-6,0.421,0.215,0.12,NaN,NaN,NaN,NaN,NaN,NaN,NaN,NaN,3.263e-6,165,213.825,84,0,1.835,15,1013.25,340.389,0.01,0.033
1.05,5.833e-4,0.06,3.585,0.06,3.604,6.13e-5,0,6.13e-5,0,0.006,0.377,22.175,120.893,9.788,88.134,0,0,0,2.794e4,1.344e4,19.941,0.106,NaN,2018.763,NaN,0.005,3.623e5,372.693,2.878e-6,0.756,6.438e-5,0.421,0.215,0.12,NaN,NaN,NaN,NaN,NaN,NaN,NaN,NaN,8.133e-6,165,213.825,84,0,1.847,15,1013.25,340.389,0.01,0.034
1.06,0.001,0.115,5.563,0.116,5.594,1.534e-4,0,1.534e-4,0,0.012,0.585,22.175,120.893,9.788,86.401,0,0,0,2.793e4,1.343e4,19.938,0.106,NaN,2018.599,NaN,0.005,3.627e5,428.171,2.031e-5,0.756,4.534e-4,0.42,0.215,0.12,NaN,NaN,NaN,NaN,NaN,NaN,NaN,NaN,1.569e-5,165,213.825,84,0,1.846,15,1013.25,340.389,0.01,0.034
1.07,0.003,0.191,7.517,0.192,7.558,3.142e-4,0,3.142e-4,0,0.02,0.79,22.175,120.893,9.788,84.068,0,0,0,2.792e4,1.342e4,19.935,0.106,NaN,2018.415,NaN,0.005,3.637e5,482.882,8.911e-5,0.755,0.002,0.42,0.215,0.12,NaN,NaN,NaN,NaN,NaN,NaN,NaN,NaN,2.59e-5,165,213.825,84,0,1.844,15,1013.25,340.389,0.01,0.034
1.08,0.005,0.288,9.758,0.29,9.812,5.658e-4,0,5.658e-4,0,0.03,1.026,22.175,120.893,9.788,81.068,0,0,0,2.791e4,1.341e4,19.931,0.106,NaN,2018.206,NaN,0.005,3.66e5,545.617,2.977e-4,0.755,0.007,0.42,0.215,0.12,NaN,NaN,NaN,NaN,NaN,NaN,NaN,NaN,3.916e-5,165,213.825,84,0,1.843,15,1013.249,340.389,0.01,0.034
1.09,0.009,0.411,12.305,0.413,12.373,9.333e-4,0,9.333e-4,0,0.043,1.293,22.175,120.893,9.788,77.353,0,0,0,2.79e4,1.34e4,19.927,0.106,NaN,2017.969,NaN,0.006,3.703e5,616.859,8.278e-4,0.754,0.018,0.419,0.215,0.12,NaN,NaN,NaN,NaN,NaN,NaN,NaN,NaN,5.588e-5,165,213.825,84,0,1.842,15,1013.249,340.389,0.01,0.034
1.1,0.014,0.563,15.219,0.566,15.303,0.001,0,0.001,0,0.059,1.6,22.175,120.893,9.788,72.902,0,0,0,2.789e4,1.339e4,19.922,0.106,NaN,2017.702,NaN,0.006,3.778e5,698.307,0.002,0.752,0.041,0.417,0.215,0.12,NaN,NaN,NaN,NaN,NaN,NaN,NaN,NaN,7.656e-5,165,213.825,84,0,1.841,15,1013.248,340.389,0.01,0.034
1.11,0.02,0.746,18.29,0.75,18.39,0.002,0,0.002,0,0.078,1.922,22.175,120.893,9.788,68.063,0,0,0,2.788e4,1.338e4,19.917,0.106,NaN,2017.401,NaN,0.006,3.938e5,784.022,0.004,0.748,0.082,0.413,0.215,0.12,NaN,NaN,NaN,NaN,NaN,NaN,NaN,NaN,1.014e-4,165,213.825,84,0,1.863,15,1013.248,340.389,0.01,0.035
1.12,0.029,0.96,21.44,0.966,21.558,0.003,0,0.003,0,0.101,2.253,22.175,120.893,9.788,62.864,0,0,0,2.786e4,1.336e4,19.911,0.106,NaN,2017.066,NaN,0.006,4.152e5,871.849,0.008,0.743,0.143,0.408,0.215,0.12,NaN,NaN,NaN,NaN,NaN,NaN,NaN,NaN,1.305e-4,165,213.825,84,0,1.884,15,1013.247,340.389,0.01,0.035
1.13,0.04,1.207,24.646,1.213,24.781,0.004,0,0.004,0,0.127,2.59,22.175,120.893,9.788,57.513,0,0,0,2.784e4,1.334e4,19.904,0.106,NaN,2016.696,NaN,0.007,4.431e5,961.049,0.015,0.738,0.225,0.402,0.215,0.12,NaN,NaN,NaN,NaN,NaN,NaN,NaN,NaN,1.64e-4,165,213.825,84,0,1.906,15,1013.245,340.389,0.01,0.035
1.14,0.053,1.482,27.565,1.49,27.717,0.006,0,0.006,0,0.156,2.897,22.175,120.893,9.788,52.281,0,0,0,2.782e4,1.332e4,19.897,0.106,NaN,2016.295,NaN,0.007,4.778e5,1042.073,0.025,0.731,0.321,0.396,0.215,0.12,NaN,NaN,NaN,NaN,NaN,NaN,NaN,NaN,2.015e-4,165,213.825,84,0,1.927,15,1013.244,340.389,0.01,0.035
1.15,0.069,1.783,30.094,1.793,30.259,0.007,0,0.007,0,0.187,3.163,22.175,120.893,9.788,47.382,0,0,0,2.78e4,1.33e4,19.889,0.106,NaN,2015.866,NaN,0.008,5.193e5,1112.029,0.039,0.724,0.421,0.389,0.215,0.12,NaN,NaN,NaN,NaN,NaN,NaN,NaN,NaN,2.424e-4,165,213.825,84,0,1.949,15,1013.242,340.389,0.01,0.035
1.16,0.089,2.106,32.29,2.117,32.468,0.009,0,0.009,0,0.221,3.394,22.175,120.893,9.788,42.396,0,0,0,2.778e4,1.328e4,19.881,0.106,NaN,2015.413,NaN,0.008,5.623e5,1172.553,0.057,0.718,0.529,0.383,0.215,0.12,NaN,NaN,NaN,NaN,NaN,NaN,NaN,NaN,2.862e-4,165,213.825,84,0,1.933,14.999,1013.24,340.389,0.01,0.036
1.17,0.112,2.446,34.029,2.459,34.217,0.012,0,0.012,0,0.257,3.577,22.175,120.893,9.788,37.947,0,0,0,2.776e4,1.326e4,19.873,0.105,NaN,2014.941,NaN,0.009,6.116e5,1220.187,0.079,0.711,0.624,0.376,0.215,0.12,NaN,NaN,NaN,NaN,NaN,NaN,NaN,NaN,3.325e-4,165,213.825,84,0,1.918,14.999,1013.237,340.388,0.01,0.036
1.18,0.138,2.799,35.306,2.814,35.5,0.014,0,0.014,0,0.294,3.711,22.175,120.893,9.788,34.06,0,0,0,2.774e4,1.324e4,19.864,0.105,NaN,2014.455,NaN,0.01,6.662e5,1254.818,0.106,0.704,0.701,0.369,0.215,0.12,NaN,NaN,NaN,NaN,NaN,NaN,NaN,NaN,3.804e-4,165,213.825,84,0,1.903,14.999,1013.234,340.388,0.01,0.036
1.19,0.168,3.16,36.107,3.177,36.306,0.018,0,0.018,0,0.332,3.795,22.175,120.893,9.788,30.71,0,0,0,2.771e4,1.321e4,19.855,0.105,NaN,2013.959,NaN,0.011,7.247e5,1276.135,0.136,0.698,0.76,0.363,0.215,0.12,NaN,NaN,NaN,NaN,NaN,NaN,NaN,NaN,4.295e-4,165,213.825,84,0,1.887,14.999,1013.23,340.388,0.01,0.036
1.2,0.201,3.526,36.66,3.546,36.862,0.021,0,0.021,0,0.371,3.853,22.175,120.893,9.788,27.831,0,0,0,2.769e4,1.319e4,19.846,0.105,NaN,2013.458,NaN,0.012,7.863e5,1290.479,0.169,0.692,0.803,0.357,0.215,0.12,NaN,NaN,NaN,NaN,NaN,NaN,NaN,NaN,4.793e-4,165,213.825,84,0,1.872,14.999,1013.226,340.388,0.01,0.036
1.21,0.238,3.896,36.966,3.917,37.17,0.025,0,0.025,0,0.409,3.885,22.175,120.893,9.788,25.473,0,0,0,2.767e4,1.317e4,19.837,0.105,NaN,2012.952,NaN,0.013,8.509e5,1297.933,0.205,0.686,0.831,0.351,0.215,0.12,NaN,NaN,NaN,NaN,NaN,NaN,NaN,NaN,5.295e-4,165,213.825,84,0,1.866,14.998,1013.222,340.388,0.01,0.036
1.22,0.279,4.266,37.026,4.289,37.23,0.029,0,0.029,0,0.448,3.892,22.175,120.893,9.788,23.447,0,0,0,2.764e4,1.314e4,19.828,0.105,NaN,2012.446,NaN,0.014,9.169e5,1298.512,0.243,0.681,0.849,0.346,0.215,0.12,NaN,NaN,NaN,NaN,NaN,NaN,NaN,NaN,5.798e-4,165,213.825,84,0,1.86,14.998,1013.217,340.388,0.01,0.037
1.23,0.324,4.636,37.068,4.662,37.273,0.034,0,0.034,0,0.487,3.896,22.175,120.893,9.788,21.693,0,0,0,2.762e4,1.312e4,19.819,0.105,NaN,2011.938,NaN,0.015,9.839e5,1298.633,0.283,0.676,0.859,0.341,0.215,0.12,NaN,NaN,NaN,NaN,NaN,NaN,NaN,NaN,6.302e-4,165,213.825,84,0,1.854,14.998,1013.212,340.388,0.01,0.037
1.24,0.372,5.006,36.975,5.033,37.178,0.039,0,0.039,0,0.526,3.886,22.175,120.893,9.788,20.168,0,0,0,2.76e4,1.31e4,19.81,0.105,NaN,2011.431,NaN,0.016,1.052e6,1294.965,0.325,0.672,0.864,0.337,0.215,0.12,NaN,NaN,NaN,NaN,NaN,NaN,NaN,NaN,6.804e-4,165,213.825,84,0,1.849,14.998,1013.206,340.387,0.01,0.037
1.25,0.424,5.374,36.889,5.404,37.092,0.045,0,0.045,0,0.565,3.877,22.175,120.893,9.788,18.83,0,0,0,2.757e4,1.307e4,19.801,0.105,NaN,2010.925,NaN,0.017,1.12e6,1291.53,0.369,0.668,0.865,0.333,0.215,0.12,NaN,NaN,NaN,NaN,NaN,NaN,NaN,NaN,7.305e-4,165,213.825,84,0,1.843,14.997,1013.2,340.387,0.01,0.037
1.26,0.479,5.742,36.801,5.774,37.004,0.05,0,0.05,0,0.604,3.868,22.175,120.893,9.788,17.58,0,0,0,2.755e4,1.305e4,19.792,0.105,NaN,2010.419,NaN,0.018,1.188e6,1288.052,0.415,0.664,0.863,0.329,0.215,0.12,NaN,NaN,NaN,NaN,NaN,NaN,NaN,NaN,7.805e-4,165,213.825,84,0,1.829,14.997,1013.194,340.387,0.01,0.037
1.27,0.538,6.109,36.689,6.143,36.891,0.057,0,0.057,0,0.642,3.856,22.175,120.893,9.788,16.469,0,0,0,2.753e4,1.303e4,19.783,0.105,NaN,2009.914,NaN,0.019,1.256e6,1283.912,0.461,0.66,0.858,0.325,0.215,0.12,NaN,NaN,NaN,NaN,NaN,NaN,NaN,NaN,8.303e-4,165,213.825,84,0,1.816,14.997,1013.187,340.387,0.01,0.037
1.28,0.601,6.475,36.657,6.511,36.859,0.063,0,0.063,0,0.681,3.853,22.175,120.893,9.788,15.474,0,0,0,2.75e4,1.3e4,19.774,0.105,NaN,2009.409,NaN,0.02,1.325e6,1281.967,0.508,0.657,0.85,0.322,0.215,0.12,NaN,NaN,NaN,NaN,NaN,NaN,NaN,NaN,8.801e-4,165,213.825,84,0,1.802,14.996,1013.179,340.387,0.01,0.038
1.29,0.668,6.841,36.574,6.879,36.776,0.07,0,0.07,0,0.719,3.844,22.175,120.893,9.788,14.579,0,0,0,2.748e4,1.298e4,19.765,0.105,NaN,2008.904,NaN,0.021,1.394e6,1278.651,0.555,0.654,0.839,0.319,0.215,0.12,NaN,NaN,NaN,NaN,NaN,NaN,NaN,NaN,9.298e-4,165,213.825,84,0,1.789,14.996,1013.172,340.386,0.01,0.038
1.3,0.738,7.206,36.533,7.246,36.734,0.078,0,0.078,0,0.757,3.84,22.175,120.893,9.788,13.769,0,0,0,2.746e4,1.296e4,19.756,0.105,NaN,2008.399,NaN,0.022,1.463e6,1276.485,0.603,0.651,0.828,0.316,0.215,0.12,NaN,NaN,NaN,NaN,NaN,NaN,NaN,NaN,9.795e-4,165,213.825,84,0,1.776,14.995,1013.163,340.386,0.01,0.038
1.31,0.812,7.571,36.528,7.613,36.729,0.085,0,0.085,0,0.796,3.839,22.175,120.893,9.788,12.949,0,0,0,2.743e4,1.293e4,19.747,0.105,NaN,2007.894,NaN,0.023,1.532e6,1275.318,0.651,0.648,0.815,0.313,0.215,0.12,NaN,NaN,NaN,NaN,NaN,NaN,NaN,NaN,0.001,165,213.825,84,0,1.75,14.995,1013.155,340.386,0.01,0.038
1.32,0.89,7.936,36.5,7.98,36.701,0.094,0,0.094,0,0.834,3.836,22.175,120.893,9.788,12.201,0,0,0,2.741e4,1.291e4,19.738,0.105,NaN,2007.388,NaN,0.024,1.601e6,1273.528,0.7,0.646,0.802,0.31,0.215,0.12,NaN,NaN,NaN,NaN,NaN,NaN,NaN,NaN,0.001,165,213.825,84,0,1.725,14.994,1013.146,340.385,0.01,0.038
1.33,0.971,8.301,36.551,8.347,36.752,0.102,0,0.102,0,0.872,3.842,22.175,120.893,9.788,11.513,0,0,0,2.739e4,1.289e4,19.729,0.105,NaN,2006.882,NaN,0.025,1.67e6,1273.891,0.75,0.643,0.789,0.308,0.215,0.12,NaN,NaN,NaN,NaN,NaN,NaN,NaN,NaN,0.001,165,213.825,84,0,1.7,14.994,1013.136,340.385,0.01,0.039
1.34,1.056,8.666,36.528,8.714,36.729,0.111,0,0.111,0,0.911,3.839,22.175,120.893,9.788,10.882,0,0,0,2.736e4,1.286e4,19.72,0.105,NaN,2006.376,NaN,0.026,1.74e6,1272.247,0.8,0.641,0.776,0.306,0.215,0.12,NaN,NaN,NaN,NaN,NaN,NaN,NaN,NaN,0.001,165,213.825,84,0,1.675,14.993,1013.126,340.385,0.01,0.039
1.35,1.144,9.032,36.539,9.081,36.74,0.12,0,0.12,0,0.949,3.84,22.175,120.893,9.788,10.298,0,0,0,2.734e4,1.284e4,19.711,0.105,NaN,2005.868,NaN,0.027,1.81e6,1271.517,0.853,0.639,0.764,0.303,0.215,0.12,NaN,NaN,NaN,NaN,NaN,NaN,NaN,NaN,0.001,165,213.825,84,0,1.65,14.993,1013.116,340.384,0.01,0.039
1.36,1.236,9.397,36.577,9.449,36.778,0.13,0,0.13,0,0.988,3.844,22.175,120.893,9.788,10.027,0,0,0,2.732e4,1.282e4,19.702,0.105,NaN,2005.361,NaN,0.028,1.882e6,1271.539,0.913,0.636,0.757,0.301,0.215,0.12,NaN,NaN,NaN,NaN,NaN,NaN,NaN,NaN,0.001,165,213.825,84,0,1.671,14.992,1013.105,340.384,0.01,0.039
1.37,1.332,9.763,36.593,9.817,36.795,0.14,0,0.14,0,1.026,3.846,22.175,120.893,9.788,9.776,0,0,0,2.729e4,1.279e4,19.693,0.105,NaN,2004.852,NaN,0.029,1.953e6,1270.983,0.976,0.634,0.751,0.299,0.215,0.12,NaN,NaN,NaN,NaN,NaN,NaN,NaN,NaN,0.001,165,213.825,84,0,1.691,14.991,1013.094,340.384,0.01,0.039
1.38,1.432,10.13,36.71,10.186,36.912,0.15,0,0.15,0,1.065,3.858,22.175,120.893,9.788,9.541,0,0,0,2.727e4,1.277e4,19.684,0.105,NaN,2004.342,NaN,0.03,2.025e6,1273.167,1.04,0.632,0.745,0.297,0.215,0.12,NaN,NaN,NaN,NaN,NaN,NaN,NaN,NaN,0.001,165,213.825,84,0,1.712,14.991,1013.082,340.383,0.01,0.039
1.39,1.535,10.497,36.751,10.555,36.953,0.161,0,0.161,0,1.103,3.863,22.175,120.893,9.788,9.322,0,0,0,2.725e4,1.275e4,19.675,0.105,NaN,2003.83,NaN,0.031,2.097e6,1273.278,1.107,0.63,0.739,0.295,0.215,0.12,NaN,NaN,NaN,NaN,NaN,NaN,NaN,NaN,0.001,165,213.825,84,0,1.733,14.99,1013.07,340.383,0.01,0.04
1.4,1.641,10.865,36.838,10.925,37.041,0.173,0,0.173,0,1.142,3.872,22.175,120.893,9.788,9.117,0,0,0,2.723e4,1.273e4,19.666,0.105,NaN,2003.318,NaN,0.033,2.17e6,1274.663,1.175,0.629,0.733,0.293,0.215,0.12,NaN,NaN,NaN,NaN,NaN,NaN,NaN,NaN,0.001,165,213.825,84,0,1.753,14.989,1013.057,340.382,0.01,0.04
1.41,1.752,11.235,36.946,11.296,37.149,0.184,0,0.184,0,1.181,3.883,22.175,120.893,9.788,9.045,0,0,0,2.72e4,1.27e4,19.657,0.105,NaN,2002.803,NaN,0.034,2.243e6,1276.588,1.251,0.627,0.73,0.291,0.215,0.12,NaN,NaN,NaN,NaN,NaN,NaN,NaN,NaN,0.002,165,213.825,84,0,1.798,14.989,1013.045,340.382,0.01,0.04
1.42,1.866,11.605,37.014,11.668,37.218,0.196,0,0.196,0,1.22,3.89,22.175,120.893,9.788,8.977,0,0,0,2.718e4,1.268e4,19.648,0.105,NaN,2002.288,NaN,0.035,2.316e6,1277.444,1.328,0.625,0.727,0.29,0.215,0.12,NaN,NaN,NaN,NaN,NaN,NaN,NaN,NaN,0.002,165,213.825,84,0,1.843,14.988,1013.031,340.382,0.01,0.04
1.43,1.984,11.976,37.15,12.042,37.355,0.209,0,0.209,0,1.259,3.905,22.175,120.893,9.788,8.912,0,0,0,2.716e4,1.266e4,19.639,0.105,NaN,2001.77,NaN,0.036,2.39e6,1280.14,1.408,0.624,0.724,0.288,0.215,0.12,NaN,NaN,NaN,NaN,NaN,NaN,NaN,NaN,0.002,165,213.825,84,0,1.888,14.987,1013.017,340.381,0.01,0.04
1.44,2.106,12.348,37.207,12.416,37.412,0.221,0,0.221,0,1.298,3.911,22.175,120.893,9.788,8.85,0,0,0,2.713e4,1.263e4,19.629,0.105,NaN,2001.252,NaN,0.037,2.464e6,1280.681,1.494,0.623,0.722,0.288,0.215,0.12,NaN,NaN,NaN,NaN,NaN,NaN,NaN,NaN,0.002,165,213.825,84,0,1.933,14.986,1013.003,340.381,0.01,0.041
1.45,2.231,12.721,37.316,12.791,37.522,0.234,0,0.234,0,1.337,3.922,22.175,120.893,9.788,8.792,0,0,0,2.711e4,1.261e4,19.62,0.105,NaN,2000.731,NaN,0.038,2.538e6,1282.653,1.583,0.623,0.722,0.288,0.215,0.12,NaN,NaN,NaN,NaN,NaN,NaN,NaN,NaN,0.002,165,213.825,84,0,1.978,14.985,1012.988,340.38,0.01,0.041
1.46,2.36,13.095,37.435,13.167,37.641,0.248,0,0.248,0,1.376,3.935,22.175,120.893,9.788,8.55,0,0,0,2.709e4,1.259e4,19.611,0.104,NaN,2000.209,NaN,0.039,2.611e6,1284.861,1.666,0.623,0.718,0.288,0.215,0.12,NaN,NaN,NaN,NaN,NaN,NaN,NaN,NaN,0.002,165,213.825,84,0,1.98,14.985,1012.973,340.38,0.01,0.041
1.47,2.493,13.47,37.488,13.544,37.695,0.262,0,0.262,0,1.416,3.94,22.175,120.893,9.788,8.321,0,0,0,2.706e4,1.256e4,19.602,0.104,NaN,1999.686,NaN,0.04,2.684e6,1285.292,1.751,0.623,0.714,0.288,0.215,0.12,NaN,NaN,NaN,NaN,NaN,NaN,NaN,NaN,0.002,165,213.825,84,0,1.981,14.984,1012.958,340.379,0.01,0.041
1.48,2.629,13.845,37.61,13.922,37.817,0.276,0,0.276,0,1.455,3.953,22.175,120.893,9.788,8.103,0,0,0,2.704e4,1.254e4,19.592,0.104,NaN,1999.161,NaN,0.041,2.757e6,1287.587,1.839,0.623,0.71,0.288,0.215,0.12,NaN,NaN,NaN,NaN,NaN,NaN,NaN,NaN,0.002,165,213.825,84,0,1.982,14.983,1012.942,340.379,0.01,0.041
1.49,2.77,14.222,37.657,14.3,37.864,0.291,0,0.291,0,1.495,3.958,22.175,120.893,9.788,7.896,0,0,0,2.702e4,1.252e4,19.583,0.104,NaN,1998.635,NaN,0.042,2.831e6,1287.832,1.929,0.623,0.707,0.288,0.215,0.12,NaN,NaN,NaN,NaN,NaN,NaN,NaN,NaN,0.002,165,213.825,84,0,1.983,14.982,1012.925,340.378,0.01,0.042
1.5,2.914,14.599,37.728,14.679,37.936,0.306,0,0.306,0,1.534,3.965,22.175,120.893,9.788,7.7,0,0,0,2.699e4,1.249e4,19.574,0.104,NaN,1998.108,NaN,0.044,2.904e6,1288.735,2.022,0.623,0.704,0.288,0.215,0.12,NaN,NaN,NaN,NaN,NaN,NaN,NaN,NaN,0.002,165,213.825,84,0,1.985,14.981,1012.908,340.377,0.01,0.042
1.51,3.062,14.977,37.81,15.059,38.018,0.322,0,0.322,0,1.574,3.974,22.175,120.893,9.788,7.539,0,0,0,2.697e4,1.247e4,19.564,0.104,NaN,1997.579,NaN,0.045,2.978e6,1289.948,2.118,0.623,0.701,0.288,0.215,0.12,NaN,NaN,NaN,NaN,NaN,NaN,NaN,NaN,0.002,165,213.825,84,0,1.993,14.98,1012.891,340.377,0.01,0.042
1.52,3.213,15.355,37.827,15.439,38.035,0.338,0,0.338,0,1.614,3.976,22.175,120.893,9.788,7.386,0,0,0,2.695e4,1.244e4,19.555,0.104,NaN,1997.049,NaN,0.046,3.053e6,1289.376,2.217,0.623,0.699,0.288,0.215,0.12,NaN,NaN,NaN,NaN,NaN,NaN,NaN,NaN,0.002,165,213.825,84,0,2.001,14.979,1012.873,340.376,0.01,0.042
1.53,3.369,15.734,37.967,15.821,38.177,0.354,0,0.354,0,1.654,3.991,22.175,120.893,9.788,7.239,0,0,0,2.692e4,1.242e4,19.546,0.104,NaN,1996.518,NaN,0.047,3.127e6,1292.164,2.319,0.623,0.696,0.288,0.215,0.12,NaN,NaN,NaN,NaN,NaN,NaN,NaN,NaN,0.002,165,213.825,84,0,2.01,14.978,1012.855,340.376,0.01,0.043
1.54,3.528,16.115,38.038,16.203,38.248,0.371,0,0.371,0,1.694,3.998,22.175,120.893,9.788,7.1,0,0,0,2.69e4,1.24e4,19.536,0.104,NaN,1995.985,NaN,0.048,3.201e6,1293.051,2.423,0.623,0.694,0.288,0.215,0.12,NaN,NaN,NaN,NaN,NaN,NaN,NaN,NaN,0.002,165,213.825,84,0,2.018,14.977,1012.836,340.375,0.01,0.043
1.55,3.691,16.496,38.144,16.587,38.354,0.388,0,0.388,0,1.734,4.009,22.175,120.893,9.788,6.966,0,0,0,2.687e4,1.237e4,19.527,0.104,NaN,1995.451,NaN,0.049,3.276e6,1294.89,2.529,0.623,0.692,0.288,0.215,0.12,NaN,NaN,NaN,NaN,NaN,NaN,NaN,NaN,0.002,165,213.825,84,0,2.026,14.976,1012.817,340.374,0.01,0.043
1.56,3.858,16.878,38.269,16.971,38.48,0.406,0,0.406,0,1.774,4.022,22.175,120.893,9.788,6.885,0,0,0,2.685e4,1.235e4,19.517,0.104,NaN,1994.914,NaN,0.05,3.352e6,1297.251,2.642,0.623,0.691,0.288,0.215,0.12,NaN,NaN,NaN,NaN,NaN,NaN,NaN,NaN,0.002,165,213.825,84,0,2.049,14.975,1012.798,340.374,0.01,0.043
1.57,4.029,17.261,38.29,17.356,38.5,0.423,0,0.423,0,1.814,4.024,22.175,120.893,9.788,6.807,0,0,0,2.683e4,1.233e4,19.508,0.104,NaN,1994.377,NaN,0.051,3.427e6,1296.778,2.758,0.623,0.689,0.288,0.215,0.12,NaN,NaN,NaN,NaN,NaN,NaN,NaN,NaN,0.002,165,213.825,84,0,2.072,14.974,1012.777,340.373,0.01,0.043
1.585,4.292,17.835,38.309,17.935,38.642,0.451,-2.676e-5,0.451,-0.003,1.89,5.057,22.175,120.893,9.788,6.685,0,0.038,-1.248e-4,2.679e4,1.229e4,19.493,0.104,2130.86,1993.568,0.832,0.053,3.54e6,1298.654,2.935,0.624,0.688,0.288,0.215,0.12,1.538,1.281,1.512e-4,0,0,0,0,5.215e-6,0.002,165,213.825,84,0.003,2.106,14.972,1012.747,340.372,0.015,0.044
1.608,4.703,18.701,38.512,18.808,38.845,0.495,-1.709e-4,0.495,-0.02,2.004,5.076,22.175,120.893,9.788,6.522,0,0.101,-8.545e-4,2.674e4,1.224e4,19.472,0.104,2133.72,1992.348,0.857,0.056,3.711e6,1301.804,3.214,0.624,0.685,0.288,0.215,0.12,1.494,1.28,-1.084e-4,0,0,0,0,3.271e-5,0.003,165,213.825,84,0.018,2.16,14.969,1012.698,340.37,0.023,0.044
1.641,5.356,20.01,38.85,20.127,39.185,0.566,-6.366e-4,0.566,-0.064,2.176,5.108,22.175,120.893,9.788,6.32,0,0.207,-0.003,2.666e4,1.216e4,19.439,0.104,2137.298,1990.501,0.89,0.059,3.97e6,1307.398,3.661,0.624,0.682,0.288,0.215,0.12,1.439,1.28,5.904e-5,0,0,0,0,1.194e-4,0.003,165,213.825,84,0.067,2.249,14.965,1012.622,340.368,0.034,0.044
1.691,6.406,21.968,39.274,22.102,39.61,0.681,-0.002,0.681,-0.162,2.433,5.145,22.175,120.893,9.788,5.706,0,0.388,-0.01,2.654e4,1.204e4,19.39,0.104,2148.469,1987.731,0.974,0.065,4.354e6,1313.533,4.346,0.624,0.673,0.288,0.215,0.121,1.275,1.242,-2.277e-4,0,0,0,0,3.509e-4,0.003,165,213.825,84,0.208,2.246,14.958,1012.499,340.364,0.05,0.044
1.741,7.554,23.956,39.854,24.106,40.192,0.809,-0.004,0.809,-0.279,2.692,5.198,22.175,120.893,9.788,5.417,0,0.6,-0.02,2.642e4,1.192e4,19.34,0.104,2153.895,1984.915,1.024,0.071,4.746e6,1323.765,5.133,0.624,0.669,0.288,0.216,0.121,1.2,1.228,-2.133e-4,0,0,0,0,7.04e-4,0.003,165,213.825,83.998,0.443,2.347,14.951,1012.364,340.359,0.05,0.044
1.791,8.802,25.975,40.484,26.142,40.824,0.95,-0.007,0.95,-0.405,2.954,5.256,22.175,120.893,9.788,5.053,0,0.847,-0.034,2.63e4,1.18e4,19.29,0.103,2160.895,1982.048,1.084,0.077,5.144e6,1335.184,5.985,0.624,0.664,0.288,0.216,0.121,1.106,1.198,-2.149e-4,0,0,0,0,0.001,0.004,165,213.825,83.996,0.787,2.402,14.943,1012.218,340.354,0.05,0.045
1.841,10.152,28.028,41.16,28.212,41.502,1.104,-0.01,1.104,-0.531,3.22,5.317,22.175,120.893,9.788,4.601,0,1.126,-0.057,2.617e4,1.167e4,19.238,0.103,2169.816,1979.127,1.156,0.083,5.547e6,1347.677,6.899,0.624,0.658,0.288,0.216,0.121,0.993,1.146,-4.979e-4,0,0,0,0,0.002,0.004,165,213.825,83.992,1.256,2.397,14.934,1012.059,340.349,0.05,0.045
1.891,11.606,30.121,41.97,30.322,42.315,1.272,-0.014,1.272,-0.651,3.489,5.392,22.175,120.893,9.788,4.001,0,1.43,-0.095,2.605e4,1.155e4,19.185,0.103,2182.085,1976.143,1.248,0.089,5.957e6,1363.475,7.868,0.624,0.651,0.288,0.216,0.121,0.847,1.055,-4.73e-5,0,0,0,0,0.003,0.004,165,213.825,83.986,1.864,2.291,14.925,1011.889,340.343,0.05,0.045
1.941,13.165,32.248,42.635,32.466,42.982,1.453,-0.019,1.453,-0.757,3.761,5.453,22.175,120.893,9.788,3.601,-3.675e-7,1.752,-0.139,2.593e4,1.143e4,19.132,0.103,2190.572,1973.105,1.318,0.096,6.375e6,1375.364,8.951,0.625,0.646,0.288,0.216,0.121,0.752,0.988,2.83e-4,0,0,0,0,0.003,0.004,165,213.825,83.976,2.617,2.266,14.914,1011.706,340.337,0.05,0.045
1.991,14.831,34.412,43.39,34.648,43.74,1.648,-0.024,1.648,-0.844,4.037,5.528,22.175,120.893,9.788,3.024,-4.887e-7,2.087,-0.224,2.58e4,1.13e4,19.077,0.103,2203.208,1970.006,1.413,0.102,6.799e6,1389.417,10.091,0.625,0.641,0.288,0.216,0.121,0.62,0.871,1.35e-5,0,0,0,0,0.004,0.005,165,213.825,83.96,3.523,2.114,14.904,1011.511,340.33,0.05,0.045
2.041,16.607,36.626,44.391,36.879,44.747,1.857,-0.029,1.857,-0.908,4.318,5.634,22.175,120.893,9.788,2.704,-9.079e-7,2.423,-0.3,2.567e4,1.117e4,19.021,0.102,2210.478,1966.831,1.477,0.109,7.234e6,1409.711,11.378,0.625,0.638,0.288,0.216,0.122,0.548,0.804,-3.056e-4,0,0,0,0,0.005,0.005,165,213.825,83.939,4.579,2.099,14.892,1011.302,340.323,0.05,0.046
2.091,18.495,38.884,45.274,39.155,45.635,2.08,-0.034,2.08,-0.946,4.604,5.734,22.175,120.893,9.788,2.577,-6.358e-7,2.791,-0.344,2.554e4,1.104e4,18.964,0.102,2213.466,1963.584,1.514,0.115,7.68e6,1426.753,12.806,0.625,0.637,0.287,0.216,0.122,0.52,0.782,2.424e-4,0,0,0,0,0.006,0.005,165,213.825,83.909,5.786,2.212,14.88,1011.081,340.316,0.05,0.046
2.141,20.496,41.172,45.88,41.462,46.247,2.317,-0.039,2.317,-0.957,4.893,5.817,22.175,120.893,9.788,2.217,-6.803e-7,3.168,-0.483,2.541e4,1.091e4,18.906,0.102,2221.924,1960.282,1.586,0.122,8.129e6,1436.554,14.293,0.626,0.634,0.287,0.216,0.122,0.442,0.695,4.783e-4,0,0,0,0,0.007,0.006,165,213.825,83.869,7.148,2.157,14.867,1010.846,340.308,0.05,0.047
2.191,22.613,43.495,46.569,43.803,46.944,2.569,-0.042,2.569,-0.94,5.186,5.92,22.175,120.893,9.788,2.008,-8.815e-7,3.546,-0.585,2.528e4,1.078e4,18.847,0.102,2226.979,1956.918,1.637,0.129,8.586e6,1448.404,15.918,0.626,0.633,0.287,0.216,0.122,0.398,0.644,-3.648e-4,0,0,0,0,0.008,0.006,165,213.825,83.817,8.655,2.211,14.853,1010.598,340.3,0.05,0.047
2.241,24.846,45.854,47.298,46.181,47.683,2.836,-0.044,2.836,-0.894,5.484,6.049,22.175,120.893,9.788,1.709,-1.113e-6,3.913,-0.79,2.515e4,1.065e4,18.787,0.102,2234.314,1953.489,1.702,0.136,9.05e6,1461.178,17.641,0.626,0.632,0.287,0.217,0.122,0.335,0.562,-1.43e-4,0,0,0,0,0.008,0.006,165,213.825,83.75,10.296,2.191,14.838,1010.336,340.291,0.05,0.047
2.291,27.199,48.239,47.804,48.585,48.201,3.118,-0.044,3.118,-0.815,5.787,6.175,22.175,120.893,9.788,1.437,-1.104e-6,4.24,-1.05,2.501e4,1.051e4,18.726,0.101,2241.138,1950.006,1.764,0.143,9.519e6,1468.288,19.482,0.627,0.631,0.287,0.217,0.123,0.279,0.484,-4.394e-5,0,0,0,0,0.009,0.007,165,213.825,83.667,12.047,2.187,14.823,1010.06,340.282,0.05,0.048
2.341,29.67,50.627,47.881,50.993,48.291,3.415,-0.042,3.415,-0.703,6.093,6.277,22.175,120.893,9.788,1.201,-1.335e-6,4.523,-1.359,2.488e4,1.038e4,18.664,0.101,2247.177,1946.495,1.822,0.15,9.988e6,1464.702,21.43,0.627,0.63,0.287,0.217,0.123,0.231,0.413,-4.99e-5,0,0,0,0,0.009,0.007,165,213.825,83.566,13.881,2.212,14.807,1009.77,340.272,0.05,0.048
2.391,32.261,53.019,47.929,53.404,48.356,3.727,-0.036,3.727,-0.557,6.403,6.415,22.175,120.893,9.788,0.872,-3.978e-6,4.525,-2.195,2.475e4,1.025e4,18.602,0.101,2255.769,1942.956,1.896,0.157,1.046e7,1460.577,23.462,0.627,0.629,0.287,0.217,0.123,0.166,0.306,1.481e-4,0,0,0,0,0.008,0.007,165,213.825,83.446,15.76,2.117,14.79,1009.466,340.262,0.05,0.049
2.441,34.972,55.414,48.019,55.82,48.469,4.055,-0.027,4.055,-0.375,6.717,6.589,22.175,120.893,9.788,0.61,-4.182e-6,3.85,-3.559,2.461e4,1.011e4,18.539,0.101,2262.771,1939.385,1.96,0.164,1.093e7,1457.734,25.61,0.628,0.629,0.287,0.217,0.124,0.115,0.22,-1.96e-4,0,0,0,0,0.005,0.008,165,213.825,83.308,17.636,2.032,14.773,1009.148,340.251,0.05,0.049
2.491,37.802,57.794,47.688,58.221,48.162,4.398,-0.012,4.398,-0.155,7.036,6.737,22.175,120.893,9.788,0.475,-3.472e-6,2.434,-4.788,2.448e4,9982.7,18.477,0.101,2266.48,1935.809,2.004,0.171,1.139e7,1444.705,27.859,0.628,0.629,0.287,0.217,0.124,0.089,0.177,-3.921e-4,0,0,0,0,0.002,0.008,165,213.825,83.15,19.453,2.037,14.754,1008.816,340.24,0.05,0.049
2.541,40.751,60.17,47.614,60.619,48.121,4.758,0.008,4.758,0.101,7.361,6.968,22.175,120.893,9.788,0.523,-8.02e-6,-1.662,-5.127,2.435e4,9851.919,18.414,0.1,2265.337,1932.21,2.019,0.178,1.186e7,1438.362,30.212,0.629,0.629,0.287,0.218,0.124,0.098,0.199,-4.646e-4,0,0,0,0,-8.626e-4,0.008,165,213.825,82.977,21.165,1.861,14.735,1008.471,340.228,0.05,0.049
2.591,43.819,62.537,47.414,63.008,47.955,5.133,0.035,5.133,0.394,7.693,7.182,22.175,120.893,9.788,0.607,-6.326e-6,-2.832,-4.425,2.422e4,9721.977,18.351,0.1,2263.236,1928.595,2.028,0.185,1.233e7,1429.136,32.666,0.629,0.63,0.287,0.218,0.124,0.114,0.234,-1.775e-4,0,0,0,0,-0.002,0.008,165,213.825,82.792,22.712,1.889,14.715,1008.111,340.216,0.05,0.049
2.641,47.005,64.916,47.671,65.411,48.254,5.525,0.07,5.525,0.723,8.036,7.482,22.175,120.893,9.788,0.749,-8.459e-6,-3.421,-3.693,2.409e4,9591.843,18.287,0.1,2259.628,1924.936,2.028,0.192,1.279e7,1431.244,35.243,0.63,0.631,0.287,0.218,0.125,0.142,0.291,8.783e-5,0,0,0,0,-0.003,0.009,165,213.825,82.6,24.059,1.867,14.694,1007.737,340.204,0.05,0.05
2.691,50.311,67.303,47.819,67.824,48.447,5.933,0.112,5.934,1.086,8.391,7.774,22.175,120.893,9.788,0.858,-1.016e-5,-3.438,-3.197,2.396e4,9461.748,18.222,0.1,2256.921,1921.238,2.034,0.2,1.326e7,1430.823,37.93,0.63,0.632,0.287,0.218,0.125,0.163,0.335,-1.299e-4,0,0,0,0,-0.003,0.009,165,213.825,82.405,25.18,1.88,14.673,1007.349,340.191,0.05,0.05
2.741,53.736,69.704,48.114,70.253,48.788,6.359,0.164,6.361,1.482,8.76,8.081,22.175,120.893,9.788,0.916,-9.811e-6,-3.187,-2.853,2.383e4,9331.363,18.157,0.1,2255.548,1917.492,2.049,0.207,1.373e7,1433.995,40.733,0.631,0.632,0.287,0.219,0.126,0.175,0.36,1.013e-4,0,0,0,0,-0.002,0.009,165,213.825,82.214,26.059,1.932,14.651,1006.948,340.177,0.05,0.05
2.791,57.282,72.129,48.587,72.707,49.307,6.802,0.226,6.806,1.906,9.144,8.399,22.175,120.893,9.788,0.932,-7.926e-6,-2.79,-2.586,2.37e4,9200.305,18.091,0.099,2255.313,1913.685,2.07,0.214,1.421e7,1441.415,43.661,0.631,0.633,0.287,0.219,0.126,0.178,0.371,2.842e-4,0,0,0,0,-0.002,0.01,165,213.825,82.032,26.692,2.01,14.628,1006.532,340.163,0.05,0.05
2.841,60.949,74.575,48.996,75.183,49.766,7.263,0.299,7.269,2.355,9.543,8.718,22.175,120.893,9.788,1.004,-1.142e-5,-2.271,-2.383,2.357e4,9068.707,18.023,0.099,2253.622,1909.819,2.084,0.221,1.469e7,1447.346,46.732,0.632,0.634,0.286,0.219,0.126,0.192,0.402,3.953e-4,0,0,0,0,-0.001,0.01,165,213.825,81.863,27.083,1.979,14.604,1006.102,340.149,0.05,0.05
2.891,64.739,77.02,48.982,77.661,49.79,7.743,0.382,7.753,2.825,9.956,8.933,22.175,120.893,9.787,0.996,-1.192e-5,-1.625,-2.241,2.344e4,8937.495,17.955,0.099,2253.995,1905.922,2.11,0.229,1.517e7,1443.113,49.893,0.632,0.634,0.286,0.219,0.127,0.191,0.403,-2.195e-4,0,0,0,0,-5.019e-4,0.01,165,213.825,81.713,27.228,2.008,14.579,1005.657,340.134,0.05,0.05
2.941,68.651,79.457,48.811,80.132,49.651,8.243,0.477,8.257,3.31,10.378,9.095,22.175,120.893,9.787,0.979,-1.356e-5,-0.917,-2.153,2.331e4,8806.998,17.887,0.099,2254.603,1902.002,2.137,0.236,1.565e7,1435.232,53.145,0.633,0.635,0.286,0.22,0.127,0.188,0.401,-4.346e-4,0,0,0,0,-1.502e-4,0.011,165,213.825,81.588,27.133,2.001,14.554,1005.198,340.118,0.05,0.051
2.991,72.685,81.907,49.083,82.617,49.952,8.762,0.583,8.781,3.807,10.814,9.275,22.175,120.893,9.787,0.927,-1.523e-5,-0.164,-2.117,2.318e4,8676.274,17.818,0.099,2256.146,1898.031,2.17,0.243,1.613e7,1437.734,56.513,0.634,0.635,0.286,0.22,0.128,0.177,0.384,3.477e-4,0,0,0,0,-4.491e-6,0.011,165,213.825,81.489,26.807,1.992,14.528,1004.725,340.103,0.05,0.051
3.041,76.842,84.382,49.594,85.13,50.485,9.301,0.701,9.327,4.31,11.262,9.444,22.175,120.893,9.787,0.857,-1.76e-5,0.597,-2.132,2.305e4,8544.831,17.748,0.098,2258.141,1893.993,2.207,0.251,1.661e7,1445.651,60.017,0.634,0.636,0.286,0.22,0.128,0.164,0.361,1.926e-4,0,0,0,0,5.631e-5,0.011,165,213.825,81.42,26.261,1.952,14.501,1004.238,340.086,0.05,0.051
