# Time (s),Altitude (m),Vertical velocity (m/s),Vertical acceleration (m/s²),Total velocity (m/s),Total acceleration (m/s²),Position East of launch (m),Position North of launch (m),Lateral distance (m),Lateral direction (°),Lateral velocity (m/s),Lateral acceleration (m/s²),Latitude (°),Longitude (°),Gravitational acceleration (m/s²),Angle of attack (°),Roll rate (°/s),Pitch rate (°/s),Yaw rate (°/s),Mass (g),Motor mass (g),Longitudinal moment of inertia (kg·m²),Rotational moment of inertia (kg·m²),CP location (mm),CG location (mm),Stability margin calibers (​),Mach number (​),Reynolds number (​),Thrust (N),Drag force (N),Drag coefficient (​),Axial drag coefficient (​),Friction drag coefficient (​),Pressure drag coefficient (​),Base drag coefficient (​),Normal force coefficient (​),Pitch moment coefficient (​),Yaw moment coefficient (​),Side force coefficient (​),Roll moment coefficient (​),Roll forcing coefficient (​),Roll damping coefficient (​),Pitch damping coefficient (​),Coriolis acceleration (m/s²),Reference length (mm),Reference area (cm²),Vertical orientation (zenith) (°),Lateral orientation (azimuth) (°),Wind velocity (m/s),Air temperature (°C),Air pressure (mbar),Speed of sound (m/s),Simulation time step (s),Computation time (s)
0.01,-4.757e-4,-0.095,-9.511,0.096,9.563,-5e-5,0,5e-5,180,0.01,1,22.175,120.893,9.788,91.313,0,0,0,2.8e4,1.35e4,19.963,0.106,NaN,2019.994,NaN,0.012,8.187e5,4.784,-4.691e-6,0.689,-2.056e-5,0.354,0.215,0.12,NaN,NaN,NaN,NaN,NaN,NaN,NaN,NaN,1.293e-5,165,213.825,84,0,4.173,15,1013.25,340.389,0.01,0.001
0.02,-4.761e-4,-0.095,-9.522,0.096,9.575,-5.004e-5,0,5.004e-5,180,0.01,1.001,22.175,120.893,9.788,91.333,0,0,0,2.8e4,1.35e4,19.963,0.106,NaN,2019.992,NaN,0.012,8.07e5,4.461,-4.783e-6,0.69,-2.156e-5,0.355,0.215,0.12,NaN,NaN,NaN,NaN,NaN,NaN,NaN,NaN,1.294e-5,165,213.825,84,0,4.114,15,1013.25,340.389,0.01,0.002
0.03,-4.763e-4,-0.095,-9.526,0.096,9.579,-5.006e-5,0,5.006e-5,180,0.01,1.001,22.175,120.893,9.788,91.353,0,0,0,2.8e4,1.35e4,19.963,0.106,NaN,2019.991,NaN,0.012,7.954e5,4.343,-4.865e-6,0.691,-2.259e-5,0.356,0.215,0.12,NaN,NaN,NaN,NaN,NaN,NaN,NaN,NaN,1.295e-5,165,213.825,84,0,4.055,15,1013.25,340.389,0.01,0.002
0.04,-4.765e-4,-0.095,-9.53,0.096,9.582,-5.008e-5,0,5.008e-5,180,0.01,1.002,22.175,120.893,9.788,91.374,0,0,0,2.8e4,1.35e4,19.963,0.106,NaN,2019.989,NaN,0.012,7.837e5,4.249,-4.949e-6,0.692,-2.366e-5,0.357,0.215,0.12,NaN,NaN,NaN,NaN,NaN,NaN,NaN,NaN,1.295e-5,165,213.825,84,0,3.995,15,1013.25,340.389,0.01,0.002
0.05,-4.761e-4,-0.095,-9.523,0.096,9.575,-5.005e-5,0,5.005e-5,180,0.01,1.001,22.175,120.893,9.788,91.394,0,0,0,2.8e4,1.35e4,19.963,0.106,NaN,2019.988,NaN,0.012,7.721e5,4.443,-5.02e-6,0.693,-2.473e-5,0.358,0.215,0.12,NaN,NaN,NaN,NaN,NaN,NaN,NaN,NaN,1.294e-5,165,213.825,84,0,3.936,15,1013.25,340.389,0.01,0.002
0.06,-4.757e-4,-0.095,-9.514,0.096,9.567,-5e-5,0,5e-5,180,0.01,1,22.175,120.893,9.788,91.386,0,0,0,2.8e4,1.35e4,19.963,0.106,NaN,2019.986,NaN,0.012,7.758e5,4.681,-4.98e-6,0.693,-2.43e-5,0.358,0.215,0.12,NaN,NaN,NaN,NaN,NaN,NaN,NaN,NaN,1.293e-5,165,213.825,84,0,3.955,15,1013.25,340.389,0.01,0.002
0.07,-4.762e-4,-0.095,-9.523,0.096,9.576,-5.005e-5,0,5.005e-5,180,0.01,1.001,22.175,120.893,9.788,91.38,0,0,0,2.8e4,1.35e4,19.963,0.106,NaN,2019.984,NaN,0.012,7.796e5,4.438,-4.968e-6,0.693,-2.401e-5,0.358,0.215,0.12,NaN,NaN,NaN,NaN,NaN,NaN,NaN,NaN,1.294e-5,165,213.825,84,0,3.974,15,1013.25,340.389,0.01,0.003
0.08,-4.761e-4,-0.095,-9.522,0.096,9.574,-5.004e-5,0,5.004e-5,180,0.01,1.001,22.175,120.893,9.788,91.374,0,0,0,2.8e4,1.35e4,19.963,0.106,NaN,2019.982,NaN,0.012,7.833e5,4.479,-4.94e-6,0.692,-2.364e-5,0.357,0.215,0.12,NaN,NaN,NaN,NaN,NaN,NaN,NaN,NaN,1.294e-5,165,213.825,84,0,3.993,15,1013.25,340.389,0.01,0.003
0.09,-4.759e-4,-0.095,-9.517,0.096,9.57,-5.002e-5,0,5.002e-5,180,0.01,1,22.175,120.893,9.788,91.366,0,0,0,2.8e4,1.35e4,19.963,0.106,NaN,2019.981,NaN,0.012,7.871e5,4.603,-4.907e-6,0.692,-2.326e-5,0.357,0.215,0.12,NaN,NaN,NaN,NaN,NaN,NaN,NaN,NaN,1.294e-5,165,213.825,84,0,4.012,15,1013.25,340.389,0.01,0.003
0.1,-4.764e-4,-0.095,-9.527,0.096,9.58,-5.007e-5,0,5.007e-5,180,0.01,1.001,22.175,120.893,9.788,91.361,0,0,0,2.8e4,1.35e4,19.963,0.106,NaN,2019.979,NaN,0.012,7.908e5,4.315,-4.897e-6,0.692,-2.3e-5,0.357,0.215,0.12,NaN,NaN,NaN,NaN,NaN,NaN,NaN,NaN,1.295e-5,165,213.825,84,0,4.031,15,1013.25,340.389,0.01,0.003
0.11,-4.762e-4,-0.095,-9.523,0.096,9.576,-5.005e-5,0,5.005e-5,180,0.01,1.001,22.175,120.893,9.788,91.351,0,0,0,2.8e4,1.35e4,19.963,0.106,NaN,2019.977,NaN,0.012,7.967e5,4.431,-4.852e-6,0.691,-2.245e-5,0.356,0.215,0.12,NaN,NaN,NaN,NaN,NaN,NaN,NaN,NaN,1.294e-5,165,213.825,84,0,4.061,15,1013.25,340.389,0.01,0.004
0.12,-4.762e-4,-0.095,-9.523,0.096,9.576,-5.005e-5,0,5.005e-5,180,0.01,1.001,22.175,120.893,9.788,91.341,0,0,0,2.8e4,1.35e4,19.962,0.106,NaN,2019.976,NaN,0.012,8.026e5,4.436,-4.813e-6,0.691,-2.194e-5,0.355,0.215,0.12,NaN,NaN,NaN,NaN,NaN,NaN,NaN,NaN,1.294e-5,165,213.825,84,0,4.091,15,1013.25,340.389,0.01,0.004
0.13,-4.758e-4,-0.095,-9.517,0.096,9.569,-5.001e-5,0,5.001e-5,180,0.01,1,22.175,120.893,9.788,91.33,0,0,0,2.8e4,1.35e4,19.962,0.106,NaN,2019.974,NaN,0.012,8.085e5,4.62,-4.765e-6,0.69,-2.141e-5,0.355,0.215,0.12,NaN,NaN,NaN,NaN,NaN,NaN,NaN,NaN,1.294e-5,165,213.825,84,0,4.121,15,1013.25,340.389,0.01,0.004
0.14,-4.762e-4,-0.095,-9.524,0.096,9.577,-5.005e-5,0,5.005e-5,180,0.01,1.001,22.175,120.893,9.788,91.322,0,0,0,2.8e4,1.35e4,19.962,0.106,NaN,2019.972,NaN,0.012,8.143e5,4.404,-4.739e-6,0.69,-2.099e-5,0.354,0.215,0.12,NaN,NaN,NaN,NaN,NaN,NaN,NaN,NaN,1.295e-5,165,213.825,84,0,4.151,15,1013.25,340.389,0.01,0.004
0.15,-4.761e-4,-0.095,-9.523,0.096,9.575,-5.004e-5,0,5.004e-5,180,0.01,1.001,22.175,120.893,9.788,91.312,0,0,0,2.8e4,1.35e4,19.962,0.106,NaN,2019.97,NaN,0.012,8.202e5,4.444,-4.7e-6,0.689,-2.051e-5,0.354,0.215,0.12,NaN,NaN,NaN,NaN,NaN,NaN,NaN,NaN,1.294e-5,165,213.825,84,0,4.181,15,1013.25,340.389,0.01,0.004
0.16,-4.758e-4,-0.095,-9.516,0.096,9.568,-5.001e-5,0,5.001e-5,180,0.01,1,22.175,120.893,9.788,91.327,0,0,0,2.8e4,1.35e4,19.962,0.106,NaN,2019.969,NaN,0.012,8.1e5,4.651,-4.754e-6,0.69,-2.128e-5,0.355,0.215,0.12,NaN,NaN,NaN,NaN,NaN,NaN,NaN,NaN,1.293e-5,165,213.825,84,0,4.129,15,1013.25,340.389,0.01,0.005
0.17,-4.765e-4,-0.095,-9.531,0.096,9.583,-5.009e-5,0,5.009e-5,180,0.01,1.002,22.175,120.893,9.788,91.347,0,0,0,2.8e4,1.35e4,19.962,0.106,NaN,2019.967,NaN,0.012,7.997e5,4.218,-4.844e-6,0.691,-2.224e-5,0.356,0.215,0.12,NaN,NaN,NaN,NaN,NaN,NaN,NaN,NaN,1.295e-5,165,213.825,84,0,4.076,15,1013.25,340.389,0.01,0.005
0.18,-4.765e-4,-0.095,-9.531,0.096,9.583,-5.009e-5,0,5.009e-5,180,0.01,1.002,22.175,120.893,9.788,91.364,0,0,0,2.8e4,1.35e4,19.962,0.106,NaN,2019.965,NaN,0.012,7.894e5,4.225,-4.912e-6,0.692,-2.315e-5,0.357,0.215,0.12,NaN,NaN,NaN,NaN,NaN,NaN,NaN,NaN,1.295e-5,165,213.825,84,0,4.024,15,1013.25,340.389,0.01,0.005
0.19,-4.764e-4,-0.095,-9.527,0.096,9.58,-5.007e-5,0,5.007e-5,180,0.01,1.001,22.175,120.893,9.788,91.382,0,0,0,2.8e4,1.35e4,19.962,0.106,NaN,2019.964,NaN,0.012,7.791e5,4.321,-4.977e-6,0.693,-2.408e-5,0.358,0.215,0.12,NaN,NaN,NaN,NaN,NaN,NaN,NaN,NaN,1.295e-5,165,213.825,84,0,3.972,15,1013.25,340.389,0.01,0.005
0.2,-4.766e-4,-0.095,-9.532,0.096,9.585,-5.01e-5,0,5.01e-5,180,0.01,1.002,22.175,120.893,9.788,91.401,0,0,0,2.8e4,1.35e4,19.962,0.106,NaN,2019.962,NaN,0.012,7.689e5,4.174,-5.058e-6,0.694,-2.513e-5,0.359,0.215,0.12,NaN,NaN,NaN,NaN,NaN,NaN,NaN,NaN,1.296e-5,165,213.825,84,0,3.919,15,1013.25,340.389,0.01,0.005
0.21,-4.763e-4,-0.095,-9.525,0.096,9.578,-5.006e-5,0,5.006e-5,180,0.01,1.001,22.175,120.893,9.788,91.413,0,0,0,2.8e4,1.35e4,19.962,0.106,NaN,2019.961,NaN,0.011,7.618e5,4.381,-5.097e-6,0.694,-2.579e-5,0.359,0.215,0.12,NaN,NaN,NaN,NaN,NaN,NaN,NaN,NaN,1.295e-5,165,213.825,84,0,3.883,15,1013.25,340.389,0.01,0.006
0.22,-4.758e-4,-0.095,-9.515,0.096,9.568,-5.001e-5,0,5.001e-5,180,0.01,1,22.175,120.893,9.788,91.424,0,0,0,2.8e4,1.35e4,19.962,0.106,NaN,2019.959,NaN,0.011,7.548e5,4.657,-5.133e-6,0.695,-2.646e-5,0.36,0.215,0.12,NaN,NaN,NaN,NaN,NaN,NaN,NaN,NaN,1.293e-5,165,213.825,84,0,3.848,15,1013.25,340.389,0.01,0.006
0.23,-4.762e-4,-0.095,-9.525,0.096,9.577,-5.005e-5,0,5.005e-5,180,0.01,1.001,22.175,120.893,9.788,91.439,0,0,0,2.8e4,1.35e4,19.962,0.106,NaN,2019.957,NaN,0.011,7.478e5,4.392,-5.201e-6,0.696,-2.732e-5,0.361,0.215,0.12,NaN,NaN,NaN,NaN,NaN,NaN,NaN,NaN,1.295e-5,165,213.825,84,0,3.812,15,1013.25,340.389,0.01,0.006
0.24,-4.76e-4,-0.095,-9.52,0.096,9.573,-5.003e-5,0,5.003e-5,180,0.01,1.001,22.175,120.893,9.788,91.452,0,0,0,2.8e4,1.35e4,19.962,0.106,NaN,2019.955,NaN,0.011,7.407e5,4.513,-5.248e-6,0.696,-2.809e-5,0.361,0.215,0.12,NaN,NaN,NaN,NaN,NaN,NaN,NaN,NaN,1.294e-5,165,213.825,84,0,3.776,15,1013.25,340.389,0.01,0.006
0.25,-4.759e-4,-0.095,-9.518,0.096,9.57,-5.002e-5,0,5.002e-5,180,0.01,1,22.175,120.893,9.788,91.466,0,0,0,2.8e4,1.35e4,19.962,0.106,NaN,2019.954,NaN,0.011,7.337e5,4.587,-5.299e-6,0.697,-2.891e-5,0.362,0.215,0.12,NaN,NaN,NaN,NaN,NaN,NaN,NaN,NaN,1.294e-5,165,213.825,84,0,3.74,15,1013.25,340.389,0.01,0.006
0.26,-4.762e-4,-0.095,-9.523,0.096,9.576,-5.005e-5,0,5.005e-5,180,0.01,1.001,22.175,120.893,9.788,91.474,0,0,0,2.8e4,1.35e4,19.962,0.106,NaN,2019.952,NaN,0.011,7.302e5,4.429,-5.336e-6,0.697,-2.94e-5,0.362,0.215,0.12,NaN,NaN,NaN,NaN,NaN,NaN,NaN,NaN,1.294e-5,165,213.825,84,0,3.722,15,1013.25,340.389,0.01,0.006
0.27,-4.76e-4,-0.095,-9.52,0.096,9.572,-5.003e-5,0,5.003e-5,180,0.01,1.001,22.175,120.893,9.788,91.48,0,0,0,2.8e4,1.35e4,19.962,0.106,NaN,2019.95,NaN,0.011,7.266e5,4.527,-5.359e-6,0.698,-2.981e-5,0.363,0.215,0.12,NaN,NaN,NaN,NaN,NaN,NaN,NaN,NaN,1.294e-5,165,213.825,84,0,3.704,15,1013.25,340.389,0.01,0.007
0.28,-4.761e-4,-0.095,-9.521,0.096,9.574,-5.004e-5,0,5.004e-5,180,0.01,1.001,22.175,120.893,9.788,91.488,0,0,0,2.8e4,1.35e4,19.962,0.106,NaN,2019.949,NaN,0.011,7.23e5,4.488,-5.39e-6,0.698,-3.028e-5,0.363,0.215,0.12,NaN,NaN,NaN,NaN,NaN,NaN,NaN,NaN,1.294e-5,165,213.825,84,0,3.686,15,1013.25,340.389,0.01,0.007
0.29,-4.758e-4,-0.095,-9.517,0.096,9.569,-5.001e-5,0,5.001e-5,180,0.01,1,22.175,120.893,9.788,91.495,0,0,0,2.8e4,1.35e4,19.962,0.106,NaN,2019.947,NaN,0.011,7.195e5,4.616,-5.412e-6,0.699,-3.07e-5,0.363,0.215,0.12,NaN,NaN,NaN,NaN,NaN,NaN,NaN,NaN,1.294e-5,165,213.825,84,0,3.667,15,1013.25,340.389,0.01,0.007
0.3,-4.76e-4,-0.095,-9.519,0.096,9.572,-5.003e-5,0,5.003e-5,180,0.01,1.001,22.175,120.893,9.788,91.502,0,0,0,2.8e4,1.35e4,19.962,0.106,NaN,2019.945,NaN,0.011,7.159e5,4.548,-5.445e-6,0.699,-3.12e-5,0.364,0.215,0.12,NaN,NaN,NaN,NaN,NaN,NaN,NaN,NaN,1.294e-5,165,213.825,84,0,3.649,15,1013.25,340.389,0.01,0.007
0.31,-4.757e-4,-0.095,-9.514,0.096,9.566,-5e-5,0,5e-5,180,0.01,1,22.175,120.893,9.788,91.507,0,0,0,2.8e4,1.35e4,19.962,0.106,NaN,2019.943,NaN,0.011,7.132e5,4.706,-5.458e-6,0.699,-3.151e-5,0.364,0.215,0.12,NaN,NaN,NaN,NaN,NaN,NaN,NaN,NaN,1.293e-5,165,213.825,84,0,3.636,15,1013.25,340.389,0.01,0.007
0.32,-4.763e-4,-0.095,-9.527,0.096,9.579,-5.007e-5,0,5.007e-5,180,0.01,1.001,22.175,120.893,9.788,91.515,0,0,0,2.8e4,1.35e4,19.962,0.106,NaN,2019.942,NaN,0.011,7.106e5,4.332,-5.503e-6,0.7,-3.201e-5,0.364,0.215,0.12,NaN,NaN,NaN,NaN,NaN,NaN,NaN,NaN,1.295e-5,165,213.825,84,0,3.622,15,1013.25,340.389,0.01,0.008
0.33,-4.761e-4,-0.095,-9.521,0.096,9.574,-5.004e-5,0,5.004e-5,180,0.01,1.001,22.175,120.893,9.788,91.52,0,0,0,2.8e4,1.35e4,19.962,0.106,NaN,2019.94,NaN,0.011,7.079e5,4.483,-5.517e-6,0.7,-3.233e-5,0.365,0.215,0.12,NaN,NaN,NaN,NaN,NaN,NaN,NaN,NaN,1.294e-5,165,213.825,84,0,3.608,15,1013.25,340.389,0.01,0.008
0.34,-4.759e-4,-0.095,-9.518,0.096,9.571,-5.002e-5,0,5.002e-5,180,0.01,1,22.175,120.893,9.788,91.525,0,0,0,2.8e4,1.35e4,19.962,0.106,NaN,2019.938,NaN,0.011,7.052e5,4.57,-5.534e-6,0.7,-3.268e-5,0.365,0.215,0.12,NaN,NaN,NaN,NaN,NaN,NaN,NaN,NaN,1.294e-5,165,213.825,84,0,3.594,15,1013.25,340.389,0.01,0.008
0.35,-4.762e-4,-0.095,-9.524,0.096,9.576,-5.005e-5,0,5.005e-5,180,0.01,1.001,22.175,120.893,9.788,91.532,0,0,0,2.8e4,1.35e4,19.962,0.106,NaN,2019.936,NaN,0.011,7.025e5,4.419,-5.567e-6,0.7,-3.313e-5,0.365,0.215,0.12,NaN,NaN,NaN,NaN,NaN,NaN,NaN,NaN,1.294e-5,165,213.825,84,0,3.581,15,1013.25,340.389,0.01,0.008
0.36,-4.764e-4,-0.095,-9.527,0.096,9.58,-5.007e-5,0,5.007e-5,180,0.01,1.001,22.175,120.893,9.788,91.489,0,0,0,2.8e4,1.35e4,19.962,0.106,NaN,2019.935,NaN,0.011,7.231e5,4.317,-5.4e-6,0.698,-3.033e-5,0.363,0.215,0.12,NaN,NaN,NaN,NaN,NaN,NaN,NaN,NaN,1.295e-5,165,213.825,84,0,3.686,15,1013.25,340.389,0.01,0.008
0.37,-4.76e-4,-0.095,-9.52,0.096,9.573,-5.003e-5,0,5.003e-5,180,0.01,1.001,22.175,120.893,9.788,91.447,0,0,0,2.8e4,1.35e4,19.962,0.106,NaN,2019.933,NaN,0.011,7.436e5,4.522,-5.226e-6,0.696,-2.775e-5,0.361,0.215,0.12,NaN,NaN,NaN,NaN,NaN,NaN,NaN,NaN,1.294e-5,165,213.825,84,0,3.791,15,1013.25,340.389,0.01,0.008
0.38,-4.762e-4,-0.095,-9.523,0.096,9.576,-5.005e-5,0,5.005e-5,180,0.01,1.001,22.175,120.893,9.788,91.408,0,0,0,2.8e4,1.35e4,19.962,0.106,NaN,2019.931,NaN,0.011,7.642e5,4.433,-5.077e-6,0.694,-2.553e-5,0.359,0.215,0.12,NaN,NaN,NaN,NaN,NaN,NaN,NaN,NaN,1.294e-5,165,213.825,84,0,3.896,15,1013.25,340.389,0.01,0.009
0.39,-4.757e-4,-0.095,-9.515,0.096,9.567,-5e-5,0,5e-5,180,0.01,1,22.175,120.893,9.788,91.37,0,0,0,2.8e4,1.35e4,19.962,0.106,NaN,2019.93,NaN,0.012,7.848e5,4.673,-4.919e-6,0.692,-2.346e-5,0.357,0.215,0.12,NaN,NaN,NaN,NaN,NaN,NaN,NaN,NaN,1.293e-5,165,213.825,84,0,4,15,1013.25,340.389,0.01,0.009
0.4,-4.755e-4,-0.095,-9.51,0.096,9.562,-4.998e-5,0,4.998e-5,180,0.01,1,22.175,120.893,9.788,91.334,0,0,0,2.8e4,1.35e4,19.962,0.106,NaN,2019.928,NaN,0.012,8.054e5,4.812,-4.775e-6,0.69,-2.162e-5,0.355,0.215,0.12,NaN,NaN,NaN,NaN,NaN,NaN,NaN,NaN,1.293e-5,165,213.825,84,0,4.105,15,1013.25,340.389,0.01,0.009
0.41,-4.759e-4,-0.095,-9.518,0.096,9.57,-5.002e-5,0,5.002e-5,180,0.01,1,22.175,120.893,9.788,91.31,0,0,0,2.8e4,1.35e4,19.962,0.106,NaN,2019.926,NaN,0.012,8.212e5,4.595,-4.686e-6,0.689,-2.041e-5,0.354,0.215,0.12,NaN,NaN,NaN,NaN,NaN,NaN,NaN,NaN,1.294e-5,165,213.825,84,0,4.186,15,1013.25,340.389,0.01,0.009
0.42,-4.758e-4,-0.095,-9.516,0.096,9.568,-5.001e-5,0,5.001e-5,180,0.01,1,22.175,120.893,9.788,91.285,0,0,0,2.8e4,1.35e4,19.962,0.106,NaN,2019.924,NaN,0.013,8.37e5,4.638,-4.587e-6,0.688,-1.923e-5,0.352,0.215,0.12,NaN,NaN,NaN,NaN,NaN,NaN,NaN,NaN,1.293e-5,165,213.825,84,0,4.267,15,1013.25,340.389,0.01,0.009
0.43,-4.755e-4,-0.095,-9.51,0.096,9.562,-4.998e-5,0,4.998e-5,180,0.01,1,22.175,120.893,9.788,91.26,0,0,0,2.8e4,1.35e4,19.962,0.106,NaN,2019.922,NaN,0.013,8.529e5,4.811,-4.485e-6,0.686,-1.811e-5,0.351,0.215,0.12,NaN,NaN,NaN,NaN,NaN,NaN,NaN,NaN,1.293e-5,165,213.825,84,0,4.348,15,1013.25,340.389,0.01,0.01
0.44,-4.753e-4,-0.095,-9.506,0.096,9.558,-4.996e-5,0,4.996e-5,180,0.01,0.999,22.175,120.893,9.788,91.236,0,0,0,2.8e4,1.35e4,19.962,0.106,NaN,2019.921,NaN,0.013,8.687e5,4.919,-4.391e-6,0.685,-1.709e-5,0.35,0.215,0.12,NaN,NaN,NaN,NaN,NaN,NaN,NaN,NaN,1.292e-5,165,213.825,84,0,4.429,15,1013.25,340.389,0.01,0.01
0.45,-4.759e-4,-0.095,-9.518,0.096,9.57,-5.002e-5,0,5.002e-5,180,0.01,1,22.175,120.893,9.788,91.216,0,0,0,2.8e4,1.35e4,19.961,0.106,NaN,2019.919,NaN,0.013,8.845e5,4.583,-4.322e-6,0.684,-1.622e-5,0.349,0.215,0.12,NaN,NaN,NaN,NaN,NaN,NaN,NaN,NaN,1.294e-5,165,213.825,84,0,4.509,15,1013.25,340.389,0.01,0.01
0.46,-4.762e-4,-0.095,-9.523,0.096,9.576,-5.005e-5,0,5.005e-5,180,0.01,1.001,22.175,120.893,9.788,91.22,0,0,0,2.8e4,1.35e4,19.961,0.106,NaN,2019.917,NaN,0.013,8.817e5,4.429,-4.344e-6,0.684,-1.641e-5,0.349,0.215,0.12,NaN,NaN,NaN,NaN,NaN,NaN,NaN,NaN,1.294e-5,165,213.825,84,0,4.495,15,1013.25,340.389,0.01,0.01
0.47,-4.761e-4,-0.095,-9.523,0.096,9.575,-5.004e-5,0,5.004e-5,180,0.01,1.001,22.175,120.893,9.788,91.224,0,0,0,2.8e4,1.35e4,19.961,0.106,NaN,2019.915,NaN,0.013,8.789e5,4.45,-4.358e-6,0.684,-1.657e-5,0.349,0.215,0.12,NaN,NaN,NaN,NaN,NaN,NaN,NaN,NaN,1.294e-5,165,213.825,84,0,4.48,15,1013.25,340.389,0.01,0.01
0.48,-4.753e-4,-0.095,-9.507,0.096,9.559,-4.996e-5,0,4.996e-5,180,0.01,0.999,22.175,120.893,9.788,91.226,0,0,0,2.8e4,1.35e4,19.961,0.106,NaN,2019.914,NaN,0.013,8.761e5,4.905,-4.352e-6,0.684,-1.665e-5,0.349,0.215,0.12,NaN,NaN,NaN,NaN,NaN,NaN,NaN,NaN,1.292e-5,165,213.825,84,0,4.466,15,1013.25,340.389,0.01,0.01
0.49,-4.756e-4,-0.095,-9.512,0.096,9.565,-4.999e-5,0,4.999e-5,180,0.01,1,22.175,120.893,9.788,91.231,0,0,0,2.8e4,1.35e4,19.961,0.106,NaN,2019.912,NaN,0.013,8.732e5,4.746,-4.375e-6,0.685,-1.685e-5,0.349,0.215,0.12,NaN,NaN,NaN,NaN,NaN,NaN,NaN,NaN,1.293e-5,165,213.825,84,0,4.452,15,1013.25,340.389,0.01,0.011
0.5,-4.761e-4,-0.095,-9.522,0.096,9.574,-5.004e-5,0,5.004e-5,180,0.01,1.001,22.175,120.893,9.788,91.236,0,0,0,2.8e4,1.35e4,19.961,0.106,NaN,2019.91,NaN,0.013,8.704e5,4.47,-4.404e-6,0.685,-1.707e-5,0.35,0.215,0.12,NaN,NaN,NaN,NaN,NaN,NaN,NaN,NaN,1.294e-5,165,213.825,84,0,4.437,15,1013.25,340.389,0.01,0.011
0.51,-4.758e-4,-0.095,-9.515,0.096,9.568,-5.001e-5,0,5.001e-5,180,0.01,1,22.175,120.893,9.788,91.24,0,0,0,2.8e4,1.35e4,19.961,0.106,NaN,2019.908,NaN,0.013,8.671e5,4.657,-4.413e-6,0.685,-1.724e-5,0.35,0.215,0.12,NaN,NaN,NaN,NaN,NaN,NaN,NaN,NaN,1.293e-5,165,213.825,84,0,4.42,15,1013.25,340.389,0.01,0.011
0.52,-4.75e-4,-0.095,-9.499,0.096,9.551,-4.992e-5,0,4.992e-5,180,0.01,0.998,22.175,120.893,9.788,91.243,0,0,0,2.8e4,1.35e4,19.961,0.106,NaN,2019.906,NaN,0.013,8.637e5,5.115,-4.409e-6,0.685,-1.736e-5,0.35,0.215,0.12,NaN,NaN,NaN,NaN,NaN,NaN,NaN,NaN,1.291e-5,165,213.825,84,0,4.403,15,1013.25,340.389,0.01,0.011
0.53,-4.746e-4,-0.095,-9.491,0.095,9.543,-4.988e-5,0,4.988e-5,180,0.01,0.998,22.175,120.893,9.788,91.246,0,0,0,2.8e4,1.35e4,19.961,0.106,NaN,2019.904,NaN,0.013,8.604e5,5.339,-4.416e-6,0.686,-1.752e-5,0.35,0.215,0.12,NaN,NaN,NaN,NaN,NaN,NaN,NaN,NaN,1.29e-5,165,213.825,84,0,4.386,15,1013.25,340.389,0.01,0.011
0.54,-4.758e-4,-0.095,-9.516,0.096,9.568,-5.001e-5,0,5.001e-5,180,0.01,1,22.175,120.893,9.788,91.255,0,0,0,2.8e4,1.35e4,19.961,0.106,NaN,2019.903,NaN,0.013,8.571e5,4.638,-4.47e-6,0.686,-1.787e-5,0.351,0.215,0.12,NaN,NaN,NaN,NaN,NaN,NaN,NaN,NaN,1.293e-5,165,213.825,84,0,4.369,15,1013.25,340.389,0.01,0.011
0.55,-4.755e-4,-0.095,-9.509,0.096,9.562,-4.997e-5,0,4.997e-5,180,0.01,0.999,22.175,120.893,9.788,91.259,0,0,0,2.8e4,1.35e4,19.961,0.106,NaN,2019.901,NaN,0.013,8.537e5,4.82,-4.48e-6,0.686,-1.805e-5,0.351,0.215,0.12,NaN,NaN,NaN,NaN,NaN,NaN,NaN,NaN,1.293e-5,165,213.825,84,0,4.352,15,1013.25,340.389,0.01,0.012
0.56,-4.749e-4,-0.095,-9.498,0.096,9.55,-4.991e-5,0,4.991e-5,180,0.01,0.998,22.175,120.893,9.788,91.246,0,0,0,2.8e4,1.35e4,19.961,0.106,NaN,2019.899,NaN,0.013,8.616e5,5.14,-4.419e-6,0.686,-1.748e-5,0.35,0.215,0.12,NaN,NaN,NaN,NaN,NaN,NaN,NaN,NaN,1.291e-5,165,213.825,84,0,4.393,15,1013.25,340.389,0.01,0.012
0.57,-4.749e-4,-0.095,-9.497,0.095,9.55,-4.991e-5,0,4.991e-5,180,0.01,0.998,22.175,120.893,9.788,91.234,0,0,0,2.8e4,1.35e4,19.961,0.106,NaN,2019.897,NaN,0.013,8.696e5,5.164,-4.374e-6,0.685,-1.699e-5,0.35,0.215,0.12,NaN,NaN,NaN,NaN,NaN,NaN,NaN,NaN,1.291e-5,165,213.825,84,0,4.433,15,1013.25,340.389,0.01,0.012
0.58,-4.749e-4,-0.095,-9.499,0.096,9.551,-4.992e-5,0,4.992e-5,180,0.01,0.998,22.175,120.893,9.788,91.223,0,0,0,2.8e4,1.35e4,19.961,0.106,NaN,2019.895,NaN,0.013,8.775e5,5.125,-4.333e-6,0.684,-1.653e-5,0.349,0.215,0.12,NaN,NaN,NaN,NaN,NaN,NaN,NaN,NaN,1.291e-5,165,213.825,84,0,4.473,15,1013.25,340.389,0.01,0.012
0.59,-4.746e-4,-0.095,-9.493,0.095,9.545,-4.989e-5,0,4.989e-5,180,0.01,0.998,22.175,120.893,9.788,91.211,0,0,0,2.8e4,1.35e4,19.961,0.106,NaN,2019.893,NaN,0.013,8.854e5,5.296,-4.283e-6,0.684,-1.604e-5,0.348,0.215,0.12,NaN,NaN,NaN,NaN,NaN,NaN,NaN,NaN,1.29e-5,165,213.825,84,0,4.514,15,1013.25,340.389,0.01,0.012
0.6,-4.741e-4,-0.095,-9.483,0.095,9.535,-4.984e-5,0,4.984e-5,180,0.01,0.997,22.175,120.893,9.788,91.199,0,0,0,2.8e4,1.349e4,19.961,0.106,NaN,2019.891,NaN,0.013,8.933e5,5.567,-4.229e-6,0.683,-1.556e-5,0.348,0.215,0.12,NaN,NaN,NaN,NaN,NaN,NaN,NaN,NaN,1.289e-5,165,213.825,84,0,4.554,15,1013.25,340.389,0.01,0.013
0.61,-4.739e-4,-0.095,-9.478,0.095,9.53,-4.981e-5,0,4.981e-5,180,0.01,0.996,22.175,120.893,9.788,91.219,0,0,0,2.8e4,1.349e4,19.961,0.106,NaN,2019.889,NaN,0.013,8.783e5,5.717,-4.3e-6,0.684,-1.637e-5,0.349,0.215,0.12,NaN,NaN,NaN,NaN,NaN,NaN,NaN,NaN,1.288e-5,165,213.825,84,0,4.477,15,1013.25,340.389,0.01,0.013
0.62,-4.745e-4,-0.095,-9.49,0.095,9.542,-4.987e-5,0,4.987e-5,180,0.01,0.997,22.175,120.893,9.788,91.242,0,0,0,2.8e4,1.349e4,19.961,0.106,NaN,2019.887,NaN,0.013,8.633e5,5.366,-4.399e-6,0.685,-1.733e-5,0.35,0.215,0.12,NaN,NaN,NaN,NaN,NaN,NaN,NaN,NaN,1.29e-5,165,213.825,84,0,4.401,15,1013.25,340.389,0.01,0.013
0.63,-4.737e-4,-0.095,-9.473,0.095,9.525,-4.978e-5,0,4.978e-5,180,0.01,0.996,22.175,120.893,9.788,91.262,0,0,0,2.799e4,1.349e4,19.961,0.106,NaN,2019.884,NaN,0.013,8.483e5,5.844,-4.46e-6,0.687,-1.82e-5,0.351,0.215,0.12,NaN,NaN,NaN,NaN,NaN,NaN,NaN,NaN,1.288e-5,165,213.825,84,0,4.324,15,1013.25,340.389,0.01,0.013
0.64,-4.738e-4,-0.095,-9.475,0.095,9.527,-4.979e-5,0,4.979e-5,180,0.01,0.996,22.175,120.893,9.788,91.285,0,0,0,2.799e4,1.349e4,19.961,0.106,NaN,2019.882,NaN,0.012,8.332e5,5.786,-4.551e-6,0.688,-1.925e-5,0.353,0.215,0.12,NaN,NaN,NaN,NaN,NaN,NaN,NaN,NaN,1.288e-5,165,213.825,84,0,4.248,15,1013.25,340.389,0.01,0.013
0.65,-4.734e-4,-0.095,-9.469,0.095,9.521,-4.976e-5,0,4.976e-5,180,0.01,0.995,22.175,120.893,9.788,91.308,0,0,0,2.799e4,1.349e4,19.961,0.106,NaN,2019.88,NaN,0.012,8.182e5,5.968,-4.633e-6,0.689,-2.032e-5,0.354,0.215,0.12,NaN,NaN,NaN,NaN,NaN,NaN,NaN,NaN,1.287e-5,165,213.825,84,0,4.171,15,1013.25,340.389,0.01,0.013
0.66,-4.724e-4,-0.094,-9.448,0.095,9.5,-4.965e-5,0,4.965e-5,180,0.01,0.993,22.175,120.893,9.788,91.309,0,0,0,2.799e4,1.349e4,19.961,0.106,NaN,2019.877,NaN,0.012,8.156e5,6.551,-4.618e-6,0.689,-2.039e-5,0.354,0.215,0.12,NaN,NaN,NaN,NaN,NaN,NaN,NaN,NaN,1.284e-5,165,213.825,84,0,4.158,15,1013.25,340.389,0.01,0.014
0.67,-4.721e-4,-0.094,-9.442,0.095,9.494,-4.962e-5,0,4.962e-5,180,0.01,0.992,22.175,120.893,9.788,91.312,0,0,0,2.799e4,1.349e4,19.961,0.106,NaN,2019.875,NaN,0.012,8.13e5,6.72,-4.626e-6,0.69,-2.055e-5,0.355,0.215,0.12,NaN,NaN,NaN,NaN,NaN,NaN,NaN,NaN,1.283e-5,165,213.825,84,0,4.144,15,1013.25,340.389,0.01,0.014
0.68,-4.711e-4,-0.094,-9.421,0.095,9.473,-4.951e-5,0,4.951e-5,180,0.01,0.99,22.175,120.893,9.788,91.314,0,0,0,2.799e4,1.349e4,19.961,0.106,NaN,2019.872,NaN,0.012,8.104e5,7.299,-4.612e-6,0.69,-2.062e-5,0.355,0.215,0.12,NaN,NaN,NaN,NaN,NaN,NaN,NaN,NaN,1.281e-5,165,213.825,84,0,4.131,15,1013.25,340.389,0.01,0.014
0.69,-4.708e-4,-0.094,-9.415,0.095,9.467,-4.948e-5,0,4.948e-5,180,0.01,0.99,22.175,120.893,9.788,91.317,0,0,0,2.799e4,1.349e4,19.961,0.106,NaN,2019.869,NaN,0.012,8.078e5,7.467,-4.619e-6,0.69,-2.079e-5,0.355,0.215,0.12,NaN,NaN,NaN,NaN,NaN,NaN,NaN,NaN,1.28e-5,165,213.825,84,0,4.118,15,1013.25,340.389,0.01,0.014
0.7,-4.699e-4,-0.094,-9.398,0.095,9.45,-4.939e-5,0,4.939e-5,180,0.01,0.988,22.175,120.893,9.788,91.319,0,0,0,2.799e4,1.349e4,19.961,0.106,NaN,2019.866,NaN,0.012,8.052e5,7.951,-4.61e-6,0.69,-2.088e-5,0.355,0.215,0.12,NaN,NaN,NaN,NaN,NaN,NaN,NaN,NaN,1.277e-5,165,213.825,84,0,4.105,15,1013.25,340.389,0.01,0.014
0.71,-4.682e-4,-0.094,-9.363,0.094,9.415,-4.921e-5,0,4.921e-5,180,0.01,0.984,22.175,120.893,9.788,91.327,0,0,0,2.799e4,1.349e4,19.96,0.106,NaN,2019.863,NaN,0.012,7.975e5,8.938,-4.607e-6,0.691,-2.127e-5,0.356,0.215,0.12,NaN,NaN,NaN,NaN,NaN,NaN,NaN,NaN,1.273e-5,165,213.825,84,0,4.065,15,1013.25,340.389,0.01,0.014
0.72,-4.676e-4,-0.094,-9.352,0.094,9.403,-4.915e-5,0,4.915e-5,180,0.01,0.983,22.175,120.893,9.788,91.338,0,0,0,2.799e4,1.349e4,19.96,0.106,NaN,2019.859,NaN,0.012,7.898e5,9.255,-4.64e-6,0.692,-2.184e-5,0.357,0.215,0.12,NaN,NaN,NaN,NaN,NaN,NaN,NaN,NaN,1.271e-5,165,213.825,84,0,4.026,15,1013.25,340.389,0.01,0.015
0.73,-4.659e-4,-0.093,-9.319,0.094,9.37,-4.897e-5,0,4.897e-5,180,0.01,0.979,22.175,120.893,9.788,91.346,0,0,0,2.799e4,1.349e4,19.96,0.106,NaN,2019.855,NaN,0.012,7.821e5,10.185,-4.64e-6,0.692,-2.228e-5,0.357,0.215,0.12,NaN,NaN,NaN,NaN,NaN,NaN,NaN,NaN,1.267e-5,165,213.825,84,0,3.987,15,1013.25,340.389,0.01,0.015
0.74,-4.64e-4,-0.093,-9.28,0.093,9.331,-4.877e-5,0,4.877e-5,180,0.01,0.975,22.175,120.893,9.788,91.354,0,0,0,2.799e4,1.349e4,19.96,0.106,NaN,2019.851,NaN,0.012,7.744e5,11.275,-4.632e-6,0.693,-2.268e-5,0.358,0.215,0.12,NaN,NaN,NaN,NaN,NaN,NaN,NaN,NaN,1.261e-5,165,213.825,84,0,3.948,15,1013.25,340.389,0.01,0.015
0.75,-4.621e-4,-0.092,-9.243,0.093,9.294,-4.857e-5,0,4.857e-5,180,0.01,0.971,22.175,120.893,9.788,91.362,0,0,0,2.799e4,1.349e4,19.96,0.106,NaN,2019.846,NaN,0.011,7.667e5,12.322,-4.627e-6,0.694,-2.311e-5,0.359,0.215,0.12,NaN,NaN,NaN,NaN,NaN,NaN,NaN,NaN,1.256e-5,165,213.825,84,0,3.908,15,1013.25,340.389,0.01,0.015
0.76,-4.598e-4,-0.092,-9.195,0.092,9.246,-4.832e-5,0,4.832e-5,180,0.01,0.966,22.175,120.893,9.788,91.361,0,0,0,2.799e4,1.349e4,19.96,0.106,NaN,2019.841,NaN,0.011,7.636e5,13.663,-4.577e-6,0.694,-2.305e-5,0.359,0.215,0.12,NaN,NaN,NaN,NaN,NaN,NaN,NaN,NaN,1.25e-5,165,213.825,84,0,3.892,15,1013.25,340.389,0.01,0.015
0.77,-4.586e-4,-0.092,-9.173,0.092,9.223,-4.82e-5,0,4.82e-5,180,0.01,0.964,22.175,120.893,9.788,91.363,0,0,0,2.799e4,1.349e4,19.96,0.106,NaN,2019.836,NaN,0.011,7.604e5,14.302,-4.564e-6,0.694,-2.318e-5,0.359,0.215,0.12,NaN,NaN,NaN,NaN,NaN,NaN,NaN,NaN,1.247e-5,165,213.825,84,0,3.876,15,1013.25,340.389,0.01,0.016
0.78,-4.56e-4,-0.091,-9.12,0.092,9.171,-4.793e-5,0,4.793e-5,180,0.01,0.959,22.175,120.893,9.788,91.361,0,0,0,2.799e4,1.349e4,19.96,0.106,NaN,2019.83,NaN,0.011,7.573e5,15.77,-4.507e-6,0.695,-2.308e-5,0.36,0.215,0.12,NaN,NaN,NaN,NaN,NaN,NaN,NaN,NaN,1.24e-5,165,213.825,84,0,3.86,15,1013.25,340.389,0.01,0.016
0.79,-4.54e-4,-0.091,-9.079,0.091,9.129,-4.771e-5,0,4.771e-5,180,0.01,0.954,22.175,120.893,9.788,91.36,0,0,0,2.799e4,1.349e4,19.96,0.106,NaN,2019.823,NaN,0.011,7.541e5,16.927,-4.467e-6,0.695,-2.307e-5,0.36,0.215,0.12,NaN,NaN,NaN,NaN,NaN,NaN,NaN,NaN,1.234e-5,165,213.825,84,0,3.844,15,1013.25,340.389,0.01,0.016
0.8,-4.518e-4,-0.09,-9.037,0.091,9.087,-4.749e-5,0,4.749e-5,180,0.009,0.95,22.175,120.893,9.788,91.36,0,0,0,2.799e4,1.349e4,19.96,0.106,NaN,2019.816,NaN,0.011,7.51e5,18.121,-4.425e-6,0.695,-2.304e-5,0.36,0.215,0.12,NaN,NaN,NaN,NaN,NaN,NaN,NaN,NaN,1.228e-5,165,213.825,84,0,3.828,15,1013.25,340.389,0.01,0.016
0.81,-4.495e-4,-0.09,-8.99,0.09,9.04,-4.725e-5,0,4.725e-5,180,0.009,0.945,22.175,120.893,9.788,91.363,0,0,0,2.799e4,1.349e4,19.96,0.106,NaN,2019.809,NaN,0.011,7.452e5,19.438,-4.394e-6,0.696,-2.323e-5,0.361,0.215,0.12,NaN,NaN,NaN,NaN,NaN,NaN,NaN,NaN,1.222e-5,165,213.825,84,0,3.799,15,1013.25,340.389,0.01,0.016
0.82,-4.482e-4,-0.09,-8.965,0.09,9.014,-4.711e-5,0,4.711e-5,180,0.009,0.942,22.175,120.893,9.788,91.37,0,0,0,2.799e4,1.349e4,19.959,0.106,NaN,2019.801,NaN,0.011,7.395e5,20.155,-4.393e-6,0.697,-2.359e-5,0.361,0.215,0.12,NaN,NaN,NaN,NaN,NaN,NaN,NaN,NaN,1.218e-5,165,213.825,84,0,3.77,15,1013.25,340.389,0.01,0.016
0.83,-4.434e-4,-0.089,-8.867,0.089,8.916,-4.66e-5,0,4.66e-5,180,0.009,0.932,22.175,120.893,9.788,91.365,0,0,0,2.799e4,1.349e4,19.959,0.106,NaN,2019.793,NaN,0.011,7.338e5,22.899,-4.288e-6,0.697,-2.339e-5,0.362,0.215,0.12,NaN,NaN,NaN,NaN,NaN,NaN,NaN,NaN,1.205e-5,165,213.825,84,0,3.741,15,1013.25,340.389,0.01,0.017
0.84,-4.345e-4,-0.087,-8.69,0.087,8.738,-4.567e-5,0,4.567e-5,180,0.009,0.913,22.175,120.893,9.788,91.349,0,0,0,2.799e4,1.349e4,19.959,0.106,NaN,2019.782,NaN,0.011,7.281e5,27.886,-4.072e-6,0.698,-2.256e-5,0.363,0.215,0.12,NaN,NaN,NaN,NaN,NaN,NaN,NaN,NaN,1.181e-5,165,213.825,84,0,3.711,15,1013.25,340.389,0.01,0.017
0.85,-4.271e-4,-0.085,-8.542,0.086,8.589,-4.489e-5,0,4.489e-5,180,0.009,0.898,22.175,120.893,9.788,91.336,0,0,0,2.799e4,1.349e4,19.959,0.106,NaN,2019.77,NaN,0.011,7.224e5,32.036,-3.903e-6,0.698,-2.196e-5,0.363,0.215,0.12,NaN,NaN,NaN,NaN,NaN,NaN,NaN,NaN,1.161e-5,165,213.825,84,0,3.682,15,1013.25,340.389,0.01,0.017
0.86,-4.194e-4,-0.084,-8.388,0.084,8.434,-4.408e-5,0,4.408e-5,180,0.009,0.882,22.175,120.893,9.788,91.315,0,0,0,2.799e4,1.349e4,19.959,0.106,NaN,2019.756,NaN,0.011,7.205e5,36.392,-3.706e-6,0.698,-2.096e-5,0.363,0.215,0.12,NaN,NaN,NaN,NaN,NaN,NaN,NaN,NaN,1.14e-5,165,213.825,84,0,3.673,15,1013.25,340.389,0.01,0.017
0.87,-4.119e-4,-0.082,-8.239,0.083,8.284,-4.33e-5,0,4.33e-5,180,0.009,0.866,22.175,120.893,9.788,91.295,0,0,0,2.799e4,1.349e4,19.958,0.106,NaN,2019.74,NaN,0.011,7.187e5,40.581,-3.522e-6,0.699,-2.002e-5,0.364,0.215,0.12,NaN,NaN,NaN,NaN,NaN,NaN,NaN,NaN,1.12e-5,165,213.825,84,0,3.664,15,1013.25,340.389,0.01,0.017
0.88,-4.047e-4,-0.081,-8.093,0.081,8.138,-4.253e-5,0,4.253e-5,180,0.009,0.851,22.175,120.893,9.788,91.276,0,0,0,2.799e4,1.349e4,19.958,0.106,NaN,2019.723,NaN,0.011,7.169e5,44.682,-3.349e-6,0.699,-1.913e-5,0.364,0.215,0.12,NaN,NaN,NaN,NaN,NaN,NaN,NaN,NaN,1.1e-5,165,213.825,84,0,3.655,15,1013.25,340.389,0.01,0.017
0.89,-3.982e-4,-0.08,-7.965,0.08,8.008,-4.186e-5,0,4.186e-5,180,0.008,0.837,22.175,120.893,9.788,91.258,0,0,0,2.799e4,1.349e4,19.958,0.106,NaN,2019.705,NaN,0.011,7.151e5,48.294,-3.201e-6,0.699,-1.838e-5,0.364,0.215,0.12,NaN,NaN,NaN,NaN,NaN,NaN,NaN,NaN,1.083e-5,165,213.825,84,0,3.645,15,1013.25,340.389,0.01,0.018
0.9,-3.921e-4,-0.078,-7.842,0.079,7.885,-4.121e-5,0,4.121e-5,180,0.008,0.824,22.175,120.893,9.788,91.242,0,0,0,2.799e4,1.349e4,19.957,0.106,NaN,2019.685,NaN,0.011,7.133e5,51.752,-3.064e-6,0.699,-1.769e-5,0.364,0.215,0.12,NaN,NaN,NaN,NaN,NaN,NaN,NaN,NaN,1.066e-5,165,213.825,84,0,3.636,15,1013.25,340.389,0.01,0.018
0.91,-3.84e-4,-0.077,-7.679,0.077,7.722,-4.036e-5,0,4.036e-5,180,0.008,0.807,22.175,120.893,9.788,91.205,0,0,0,2.798e4,1.348e4,19.957,0.106,NaN,2019.664,NaN,0.011,7.204e5,56.319,-2.848e-6,0.698,-1.612e-5,0.363,0.215,0.12,NaN,NaN,NaN,NaN,NaN,NaN,NaN,NaN,1.044e-5,165,213.825,84,0,3.672,15,1013.25,340.389,0.01,0.018
0.92,-3.761e-4,-0.075,-7.522,0.076,7.563,-3.953e-5,0,3.953e-5,180,0.008,0.791,22.175,120.893,9.788,91.168,0,0,0,2.798e4,1.348e4,19.957,0.106,NaN,2019.641,NaN,0.011,7.275e5,60.748,-2.648e-6,0.698,-1.47e-5,0.363,0.215,0.12,NaN,NaN,NaN,NaN,NaN,NaN,NaN,NaN,1.022e-5,165,213.825,84,0,3.709,15,1013.25,340.389,0.01,0.018
0.93,-3.643e-4,-0.073,-7.286,0.073,7.326,-3.829e-5,0,3.829e-5,180,0.008,0.766,22.175,120.893,9.788,91.121,0,0,0,2.798e4,1.348e4,19.956,0.106,NaN,2019.615,NaN,0.011,7.345e5,67.387,-2.382e-6,0.697,-1.297e-5,0.362,0.215,0.12,NaN,NaN,NaN,NaN,NaN,NaN,NaN,NaN,9.903e-6,165,213.825,84,0,3.745,15,1013.25,340.389,0.01,0.018
0.94,-3.499e-4,-0.07,-6.999,0.07,7.037,-3.678e-5,0,3.678e-5,180,0.007,0.736,22.175,120.893,9.788,91.066,0,0,0,2.798e4,1.348e4,19.956,0.106,NaN,2019.586,NaN,0.011,7.416e5,75.455,-2.091e-6,0.696,-1.116e-5,0.361,0.215,0.12,NaN,NaN,NaN,NaN,NaN,NaN,NaN,NaN,9.513e-6,165,213.825,84,0,3.781,15,1013.25,340.389,0.01,0.019
0.95,-3.337e-4,-0.067,-6.674,0.067,6.71,-3.507e-5,0,3.507e-5,180,0.007,0.701,22.175,120.893,9.788,91.007,0,0,0,2.798e4,1.348e4,19.955,0.106,NaN,2019.554,NaN,0.011,7.487e5,84.603,-1.795e-6,0.696,-9.402e-6,0.361,0.215,0.12,NaN,NaN,NaN,NaN,NaN,NaN,NaN,NaN,9.071e-6,165,213.825,84,0,3.817,15,1013.25,340.389,0.01,0.019
0.96,-3.135e-4,-0.063,-6.271,0.063,6.305,-3.295e-5,0,3.295e-5,180,0.007,0.659,22.175,120.893,9.788,90.947,0,0,0,2.798e4,1.348e4,19.954,0.106,NaN,2019.517,NaN,0.011,7.485e5,95.934,-1.49e-6,0.696,-7.809e-6,0.361,0.215,0.12,NaN,NaN,NaN,NaN,NaN,NaN,NaN,NaN,8.523e-6,165,213.825,84,0,3.816,15,1013.25,340.389,0.01,0.019
0.97,-2.933e-4,-0.059,-5.865,0.059,5.898,-3.082e-5,0,3.082e-5,180,0.006,0.616,22.175,120.893,9.788,90.886,0,0,0,2.798e4,1.348e4,19.954,0.106,NaN,2019.476,NaN,0.011,7.484e5,107.326,-1.22e-6,0.696,-6.399e-6,0.361,0.215,0.12,NaN,NaN,NaN,NaN,NaN,NaN,NaN,NaN,7.972e-6,165,213.825,84,0,3.816,15,1013.25,340.389,0.01,0.019
0.98,-2.671e-4,-0.053,-5.342,0.054,5.372,-2.808e-5,0,2.808e-5,180,0.006,0.561,22.175,120.893,9.788,90.807,0,0,0,2.797e4,1.347e4,19.953,0.106,NaN,2019.43,NaN,0.011,7.483e5,122.033,-9.23e-7,0.696,-4.841e-6,0.361,0.215,0.12,NaN,NaN,NaN,NaN,NaN,NaN,NaN,NaN,7.261e-6,165,213.825,84,0,3.815,15,1013.25,340.389,0.01,0.019
0.99,-2.333e-4,-0.047,-4.667,0.047,4.692,-2.453e-5,0,2.453e-5,180,0.005,0.49,22.175,120.893,9.788,90.705,0,0,0,2.797e4,1.347e4,19.952,0.106,NaN,2019.376,NaN,0.011,7.481e5,141.022,-6.161e-7,0.696,-3.233e-6,0.361,0.215,0.12,NaN,NaN,NaN,NaN,NaN,NaN,NaN,NaN,6.343e-6,165,213.825,84,0,3.814,15,1013.25,340.389,0.01,0.019
1,-1.839e-4,-0.037,-3.678,0.037,3.699,-1.933e-5,0,1.933e-5,180,0.004,0.387,22.175,120.893,9.788,90.556,0,0,0,2.797e4,1.347e4,19.951,0.106,NaN,2019.312,NaN,0.011,7.48e5,168.795,-3.023e-7,0.696,-1.587e-6,0.361,0.215,0.12,NaN,NaN,NaN,NaN,NaN,NaN,NaN,NaN,5e-6,165,213.825,84,0,3.814,15,1013.25,340.389,0.01,0.02
1.01,-1.138e-4,-0.023,-2.275,0.023,2.288,-1.196e-5,0,1.196e-5,180,0.002,0.239,22.175,120.893,9.788,90.339,0,0,0,2.796e4,1.346e4,19.949,0.106,NaN,2019.232,NaN,0.011,7.578e5,208.221,-7.072e-8,0.695,-3.617e-7,0.36,0.215,0.12,NaN,NaN,NaN,NaN,NaN,NaN,NaN,NaN,3.094e-6,165,213.825,84,0,3.864,15,1013.25,340.389,0.01,0.02
1.02,-4.855e-5,-0.01,-0.97,0.01,0.975,-5.103e-6,0,5.103e-6,180,0.001,0.102,22.175,120.893,9.788,90.143,0,0,0,2.796e4,1.346e4,19.948,0.106,NaN,2019.139,NaN,0.011,7.676e5,244.886,-5.421e-9,0.694,-2.702e-8,0.359,0.215,0.12,NaN,NaN,NaN,NaN,NaN,NaN,NaN,NaN,1.32e-6,165,213.825,84,0,3.914,15,1013.25,340.389,0.01,0.02
1.03,2.205e-5,0.004,0.442,0.004,0.445,2.317e-6,0,2.317e-6,0,4.638e-4,0.046,22.175,120.893,9.788,89.936,0,0,0,2.795e4,1.345e4,19.946,0.106,NaN,2019.03,NaN,0.012,7.774e5,284.538,0,0.693,0,0.358,0.215,0.12,NaN,NaN,NaN,NaN,NaN,NaN,NaN,NaN,5.998e-7,165,213.825,84,0,3.964,15,1013.25,340.389,0.01,0.02
1.04,1.641e-4,0.024,1.96,0.024,1.971,1.725e-5,0,1.725e-5,0,0.003,0.206,22.175,120.893,9.788,89.656,0,0,0,2.795e4,1.345e4,19.943,0.106,NaN,2018.905,NaN,0.012,7.873e5,327.142,7.952e-8,0.692,3.768e-7,0.357,0.215,0.12,NaN,NaN,NaN,NaN,NaN,NaN,NaN,NaN,3.263e-6,165,213.825,84,0,4.014,15,1013.25,340.389,0.01,0.02
1.05,5.833e-4,0.06,3.585,0.06,3.604,6.13e-5,0,6.13e-5,0,0.006,0.377,22.175,120.893,9.788,89.152,0,0,0,2.794e4,1.344e4,19.941,0.106,NaN,2018.763,NaN,0.012,7.972e5,372.693,1.208e-6,0.691,5.584e-6,0.356,0.215,0.12,NaN,NaN,NaN,NaN,NaN,NaN,NaN,NaN,8.133e-6,165,213.825,84,0,4.065,15,1013.25,340.389,0.01,0.02
1.06,0.001,0.115,5.563,0.116,5.594,1.534e-4,0,1.534e-4,0,0.012,0.585,22.175,120.893,9.788,88.375,0,0,0,2.793e4,1.343e4,19.938,0.106,NaN,2018.599,NaN,0.012,8.027e5,428.171,8.548e-6,0.691,3.896e-5,0.355,0.215,0.12,NaN,NaN,NaN,NaN,NaN,NaN,NaN,NaN,1.569e-5,165,213.825,84,0,4.091,15,1013.25,340.389,0.01,0.021
1.07,0.003,0.191,7.517,0.192,7.558,3.142e-4,0,3.142e-4,0,0.02,0.79,22.175,120.893,9.788,87.336,0,0,0,2.792e4,1.342e4,19.935,0.106,NaN,2018.415,NaN,0.012,8.086e5,482.882,3.776e-5,0.69,1.696e-4,0.355,0.215,0.12,NaN,NaN,NaN,NaN,NaN,NaN,NaN,NaN,2.59e-5,165,213.825,84,0,4.118,15,1013.25,340.389,0.01,0.021
1.08,0.005,0.288,9.758,0.29,9.812,5.658e-4,0,5.658e-4,0,0.03,1.026,22.175,120.893,9.788,86.002,0,0,0,2.791e4,1.341e4,19.931,0.106,NaN,2018.206,NaN,0.012,8.149e5,545.617,1.277e-4,0.689,5.647e-4,0.354,0.215,0.12,NaN,NaN,NaN,NaN,NaN,NaN,NaN,NaN,3.916e-5,165,213.825,84,0,4.145,15,1013.249,340.389,0.01,0.021
1.09,0.009,0.411,12.305,0.413,12.373,9.333e-4,0,9.333e-4,0,0.043,1.293,22.175,120.893,9.788,84.341,0,0,0,2.79e4,1.34e4,19.927,0.106,NaN,2017.969,NaN,0.012,8.222e5,616.859,3.617e-4,0.689,0.002,0.354,0.215,0.12,NaN,NaN,NaN,NaN,NaN,NaN,NaN,NaN,5.588e-5,165,213.825,84,0,4.172,15,1013.249,340.389,0.01,0.021
1.1,0.014,0.563,15.219,0.566,15.303,0.001,0,0.001,0,0.059,1.6,22.175,120.893,9.788,82.318,0,0,0,2.789e4,1.339e4,19.922,0.106,NaN,2017.702,NaN,0.012,8.31e5,698.307,9.029e-4,0.688,0.004,0.353,0.215,0.12,NaN,NaN,NaN,NaN,NaN,NaN,NaN,NaN,7.656e-5,165,213.825,84,0,4.199,15,1013.248,340.389,0.01,0.021
1.11,0.02,0.746,18.29,0.75,18.39,0.002,0,0.002,0,0.078,1.922,22.175,120.893,9.788,79.675,0,0,0,2.788e4,1.338e4,19.917,0.106,NaN,2017.401,NaN,0.012,8.209e5,784.022,0.002,0.689,0.009,0.354,0.215,0.12,NaN,NaN,NaN,NaN,NaN,NaN,NaN,NaN,1.014e-4,165,213.825,84,0,4.118,15,1013.248,340.389,0.01,0.022
1.12,0.029,0.96,21.441,0.966,21.559,0.003,0,0.003,0,0.101,2.253,22.175,120.893,9.788,76.547,0,0,0,2.786e4,1.336e4,19.911,0.106,NaN,2017.066,NaN,0.012,8.14e5,871.849,0.004,0.69,0.019,0.354,0.215,0.12,NaN,NaN,NaN,NaN,NaN,NaN,NaN,NaN,1.305e-4,165,213.825,84,0,4.037,15,1013.247,340.389,0.01,0.022
1.13,0.04,1.207,24.646,1.213,24.782,0.004,0,0.004,0,0.127,2.59,22.175,120.893,9.788,72.947,0,0,0,2.784e4,1.334e4,19.904,0.106,NaN,2016.696,NaN,0.012,8.115e5,961.049,0.008,0.69,0.038,0.355,0.215,0.12,NaN,NaN,NaN,NaN,NaN,NaN,NaN,NaN,1.64e-4,165,213.825,84,0,3.956,15,1013.245,340.389,0.01,0.022
1.14,0.053,1.482,27.565,1.49,27.717,0.006,0,0.006,0,0.156,2.897,22.175,120.893,9.788,68.961,0,0,0,2.782e4,1.332e4,19.897,0.106,NaN,2016.295,NaN,0.012,8.142e5,1042.073,0.015,0.69,0.067,0.354,0.215,0.12,NaN,NaN,NaN,NaN,NaN,NaN,NaN,NaN,2.015e-4,165,213.825,84,0,3.875,15,1013.244,340.389,0.01,0.022
1.15,0.069,1.783,30.094,1.793,30.26,0.007,0,0.007,0,0.187,3.163,22.175,120.893,9.788,64.705,0,0,0,2.78e4,1.33e4,19.889,0.106,NaN,2015.866,NaN,0.012,8.229e5,1112.029,0.025,0.689,0.11,0.354,0.215,0.12,NaN,NaN,NaN,NaN,NaN,NaN,NaN,NaN,2.424e-4,165,213.825,84,0,3.794,15,1013.242,340.389,0.01,0.022
1.16,0.089,2.106,32.291,2.117,32.468,0.009,0,0.009,0,0.221,3.394,22.175,120.893,9.788,60.869,0,0,0,2.778e4,1.328e4,19.881,0.106,NaN,2015.413,NaN,0.013,8.53e5,1172.553,0.039,0.686,0.159,0.351,0.215,0.12,NaN,NaN,NaN,NaN,NaN,NaN,NaN,NaN,2.862e-4,165,213.825,84,0,3.799,14.999,1013.24,340.389,0.01,0.023
1.17,0.112,2.446,34.03,2.459,34.217,0.012,0,0.012,0,0.257,3.577,22.175,120.893,9.788,57.124,0,0,0,2.776e4,1.326e4,19.873,0.105,NaN,2014.941,NaN,0.013,8.886e5,1220.187,0.058,0.683,0.215,0.348,0.215,0.12,NaN,NaN,NaN,NaN,NaN,NaN,NaN,NaN,3.325e-4,165,213.825,84,0,3.805,14.999,1013.237,340.388,0.01,0.023
1.18,0.138,2.799,35.307,2.814,35.501,0.014,0,0.014,0,0.294,3.711,22.175,120.893,9.788,53.555,0,0,0,2.774e4,1.324e4,19.864,0.105,NaN,2014.455,NaN,0.014,9.291e5,1254.818,0.081,0.68,0.275,0.345,0.215,0.12,NaN,NaN,NaN,NaN,NaN,NaN,NaN,NaN,3.804e-4,165,213.825,84,0,3.811,14.999,1013.234,340.388,0.01,0.023
1.19,0.168,3.16,36.108,3.177,36.307,0.018,0,0.018,0,0.332,3.795,22.175,120.893,9.788,50.224,0,0,0,2.771e4,1.321e4,19.855,0.105,NaN,2013.959,NaN,0.015,9.739e5,1276.135,0.109,0.677,0.337,0.342,0.215,0.12,NaN,NaN,NaN,NaN,NaN,NaN,NaN,NaN,4.295e-4,165,213.825,84,0,3.817,14.999,1013.23,340.388,0.01,0.023
1.2,0.201,3.526,36.661,3.546,36.863,0.021,0,0.021,0,0.371,3.853,22.175,120.893,9.788,47.151,0,0,0,2.769e4,1.319e4,19.846,0.105,NaN,2013.458,NaN,0.015,1.022e6,1290.479,0.141,0.674,0.397,0.339,0.215,0.12,NaN,NaN,NaN,NaN,NaN,NaN,NaN,NaN,4.793e-4,165,213.825,84,0,3.822,14.999,1013.226,340.388,0.01,0.023
1.21,0.238,3.896,36.967,3.917,37.171,0.025,0,0.025,0,0.409,3.885,22.175,120.893,9.788,44.589,0,0,0,2.767e4,1.317e4,19.837,0.105,NaN,2012.952,NaN,0.016,1.079e6,1297.933,0.177,0.67,0.448,0.335,0.215,0.12,NaN,NaN,NaN,NaN,NaN,NaN,NaN,NaN,5.295e-4,165,213.825,84,0,3.861,14.998,1013.222,340.388,0.01,0.024
1.22,0.279,4.266,37.027,4.289,37.23,0.029,0,0.029,0,0.448,3.892,22.175,120.893,9.788,42.281,0,0,0,2.764e4,1.314e4,19.828,0.105,NaN,2012.446,NaN,0.017,1.137e6,1298.512,0.217,0.667,0.494,0.332,0.215,0.12,NaN,NaN,NaN,NaN,NaN,NaN,NaN,NaN,5.798e-4,165,213.825,84,0,3.9,14.998,1013.217,340.388,0.01,0.024
1.23,0.324,4.636,37.069,4.662,37.273,0.034,0,0.034,0,0.487,3.896,22.175,120.893,9.788,40.199,0,0,0,2.762e4,1.312e4,19.819,0.105,NaN,2011.938,NaN,0.018,1.197e6,1298.633,0.261,0.663,0.535,0.328,0.215,0.12,NaN,NaN,NaN,NaN,NaN,NaN,NaN,NaN,6.302e-4,165,213.825,84,0,3.939,14.998,1013.212,340.388,0.01,0.024
1.24,0.372,5.006,36.975,5.033,37.179,0.039,0,0.039,0,0.526,3.886,22.175,120.893,9.788,38.322,0,0,0,2.76e4,1.31e4,19.81,0.105,NaN,2011.431,NaN,0.019,1.258e6,1294.965,0.308,0.66,0.571,0.325,0.215,0.12,NaN,NaN,NaN,NaN,NaN,NaN,NaN,NaN,6.804e-4,165,213.825,84,0,3.978,14.998,1013.206,340.387,0.01,0.024
1.25,0.424,5.374,36.889,5.404,37.092,0.045,0,0.045,0,0.565,3.877,22.175,120.893,9.788,36.626,0,0,0,2.757e4,1.307e4,19.801,0.105,NaN,2010.925,NaN,0.02,1.321e6,1291.53,0.358,0.657,0.603,0.322,0.215,0.12,NaN,NaN,NaN,NaN,NaN,NaN,NaN,NaN,7.305e-4,165,213.825,84,0,4.017,14.997,1013.2,340.387,0.01,0.024
1.26,0.479,5.742,36.801,5.774,37.004,0.05,0,0.05,0,0.604,3.868,22.175,120.893,9.788,34.628,0,0,0,2.755e4,1.305e4,19.792,0.105,NaN,2010.419,NaN,0.021,1.376e6,1288.052,0.413,0.655,0.641,0.32,0.215,0.12,NaN,NaN,NaN,NaN,NaN,NaN,NaN,NaN,7.805e-4,165,213.825,84,0,3.987,14.997,1013.194,340.387,0.01,0.024
1.27,0.538,6.109,36.689,6.143,36.891,0.057,0,0.057,0,0.642,3.856,22.175,120.893,9.788,32.793,0,0,0,2.753e4,1.303e4,19.783,0.105,NaN,2009.914,NaN,0.021,1.433e6,1283.912,0.471,0.652,0.673,0.317,0.215,0.12,NaN,NaN,NaN,NaN,NaN,NaN,NaN,NaN,8.303e-4,165,213.825,84,0,3.958,14.997,1013.187,340.387,0.01,0.025
1.28,0.601,6.475,36.656,6.511,36.858,0.063,0,0.063,0,0.681,3.853,22.175,120.893,9.788,31.1,0,0,0,2.75e4,1.3e4,19.774,0.105,NaN,2009.409,NaN,0.022,1.491e6,1281.967,0.531,0.65,0.701,0.315,0.215,0.12,NaN,NaN,NaN,NaN,NaN,NaN,NaN,NaN,8.801e-4,165,213.825,84,0,3.928,14.996,1013.179,340.387,0.01,0.025
1.29,0.668,6.841,36.573,6.879,36.774,0.07,0,0.07,0,0.719,3.844,22.175,120.893,9.788,29.539,0,0,0,2.748e4,1.298e4,19.765,0.105,NaN,2008.904,NaN,0.023,1.55e6,1278.651,0.593,0.648,0.725,0.312,0.215,0.12,NaN,NaN,NaN,NaN,NaN,NaN,NaN,NaN,9.298e-4,165,213.825,84,0,3.898,14.996,1013.172,340.386,0.01,0.025
1.3,0.738,7.206,36.531,7.246,36.732,0.078,0,0.078,0,0.757,3.84,22.175,120.893,9.788,28.095,0,0,0,2.746e4,1.296e4,19.756,0.105,NaN,2008.399,NaN,0.024,1.611e6,1276.485,0.658,0.645,0.745,0.31,0.215,0.12,NaN,NaN,NaN,NaN,NaN,NaN,NaN,NaN,9.795e-4,165,213.825,84,0,3.868,14.995,1013.163,340.386,0.01,0.025
1.31,0.812,7.571,36.525,7.613,36.727,0.085,0,0.085,0,0.796,3.839,22.175,120.893,9.788,27.274,0,0,0,2.743e4,1.293e4,19.747,0.105,NaN,2007.894,NaN,0.025,1.68e6,1275.318,0.724,0.643,0.754,0.308,0.215,0.12,NaN,NaN,NaN,NaN,NaN,NaN,NaN,NaN,0.001,165,213.825,84,0,3.925,14.995,1013.155,340.386,0.01,0.025
1.32,0.89,7.936,36.497,7.98,36.698,0.094,0,0.094,0,0.834,3.836,22.175,120.893,9.788,26.519,0,0,0,2.741e4,1.291e4,19.738,0.105,NaN,2007.388,NaN,0.026,1.749e6,1273.528,0.793,0.641,0.762,0.305,0.215,0.12,NaN,NaN,NaN,NaN,NaN,NaN,NaN,NaN,0.001,165,213.825,84,0,3.982,14.994,1013.146,340.385,0.01,0.026
1.33,0.971,8.301,36.547,8.347,36.748,0.102,0,0.102,0,0.872,3.841,22.175,120.893,9.788,25.82,0,0,0,2.739e4,1.289e4,19.729,0.105,NaN,2006.882,NaN,0.027,1.818e6,1273.891,0.865,0.638,0.768,0.303,0.215,0.12,NaN,NaN,NaN,NaN,NaN,NaN,NaN,NaN,0.001,165,213.825,84,0,4.039,14.994,1013.136,340.385,0.01,0.026
1.34,1.056,8.666,36.523,8.714,36.724,0.111,0,0.111,0,0.911,3.839,22.175,120.893,9.788,25.173,0,0,0,2.736e4,1.286e4,19.72,0.105,NaN,2006.376,NaN,0.028,1.888e6,1272.247,0.939,0.636,0.774,0.301,0.215,0.12,NaN,NaN,NaN,NaN,NaN,NaN,NaN,NaN,0.001,165,213.825,84,0,4.095,14.993,1013.126,340.385,0.01,0.026
1.35,1.144,9.031,36.533,9.081,36.734,0.12,0,0.12,0,0.949,3.84,22.175,120.893,9.788,24.572,0,0,0,2.734e4,1.284e4,19.711,0.105,NaN,2005.868,NaN,0.029,1.958e6,1271.517,1.016,0.634,0.778,0.299,0.215,0.12,NaN,NaN,NaN,NaN,NaN,NaN,NaN,NaN,0.001,165,213.825,84,0,4.152,14.993,1013.116,340.384,0.01,0.026
1.36,1.236,9.397,36.57,9.449,36.771,0.13,0,0.13,0,0.988,3.844,22.175,120.893,9.788,23.631,0,0,0,2.732e4,1.282e4,19.702,0.105,NaN,2005.361,NaN,0.03,2.022e6,1271.539,1.095,0.632,0.786,0.297,0.215,0.12,NaN,NaN,NaN,NaN,NaN,NaN,NaN,NaN,0.001,165,213.825,84,0,4.134,14.992,1013.105,340.384,0.01,0.026
1.37,1.332,9.763,36.586,9.816,36.787,0.14,0,0.14,0,1.026,3.845,22.175,120.893,9.788,22.748,0,0,0,2.729e4,1.279e4,19.693,0.105,NaN,2004.852,NaN,0.031,2.087e6,1270.983,1.176,0.631,0.793,0.295,0.215,0.12,NaN,NaN,NaN,NaN,NaN,NaN,NaN,NaN,0.001,165,213.825,84,0,4.116,14.991,1013.094,340.384,0.01,0.026
1.38,1.432,10.129,36.702,10.185,36.904,0.15,0,0.15,0,1.065,3.858,22.175,120.893,9.788,21.916,0,0,0,2.727e4,1.277e4,19.684,0.105,NaN,2004.342,NaN,0.032,2.153e6,1273.167,1.259,0.629,0.797,0.294,0.215,0.12,NaN,NaN,NaN,NaN,NaN,NaN,NaN,NaN,0.001,165,213.825,84,0,4.098,14.991,1013.082,340.383,0.01,0.027
1.39,1.535,10.497,36.742,10.554,36.945,0.161,0,0.161,0,1.103,3.862,22.175,120.893,9.788,21.132,0,0,0,2.725e4,1.275e4,19.675,0.105,NaN,2003.83,NaN,0.033,2.219e6,1273.278,1.343,0.627,0.801,0.292,0.215,0.12,NaN,NaN,NaN,NaN,NaN,NaN,NaN,NaN,0.001,165,213.825,84,0,4.079,14.99,1013.07,340.383,0.01,0.027
1.4,1.641,10.865,36.829,10.925,37.032,0.173,0,0.173,0,1.142,3.871,22.175,120.893,9.788,20.393,0,0,0,2.723e4,1.273e4,19.666,0.105,NaN,2003.318,NaN,0.034,2.285e6,1274.663,1.43,0.626,0.804,0.29,0.215,0.12,NaN,NaN,NaN,NaN,NaN,NaN,NaN,NaN,0.001,165,213.825,84,0,4.061,14.989,1013.057,340.382,0.01,0.027
1.41,1.752,11.234,36.936,11.296,37.139,0.184,0,0.184,0,1.181,3.882,22.175,120.893,9.788,19.714,0,0,0,2.72e4,1.27e4,19.657,0.105,NaN,2002.803,NaN,0.035,2.353e6,1276.588,1.518,0.624,0.805,0.289,0.215,0.12,NaN,NaN,NaN,NaN,NaN,NaN,NaN,NaN,0.002,165,213.825,84,0,4.048,14.989,1013.045,340.382,0.01,0.027
1.42,1.866,11.604,37.004,11.668,37.208,0.196,0,0.196,0,1.22,3.889,22.175,120.893,9.788,19.072,0,0,0,2.718e4,1.268e4,19.648,0.105,NaN,2002.288,NaN,0.036,2.421e6,1277.444,1.609,0.623,0.806,0.288,0.215,0.12,NaN,NaN,NaN,NaN,NaN,NaN,NaN,NaN,0.002,165,213.825,84,0,4.034,14.988,1013.031,340.382,0.01,0.027
1.43,1.984,11.975,37.139,12.041,37.344,0.209,0,0.209,0,1.259,3.903,22.175,120.893,9.788,18.463,0,0,0,2.716e4,1.266e4,19.639,0.105,NaN,2001.77,NaN,0.037,2.489e6,1280.14,1.706,0.623,0.808,0.288,0.215,0.12,NaN,NaN,NaN,NaN,NaN,NaN,NaN,NaN,0.002,165,213.825,84,0,4.02,14.987,1013.017,340.381,0.01,0.028
1.44,2.106,12.347,37.195,12.415,37.4,0.221,0,0.221,0,1.298,3.909,22.175,120.893,9.788,17.886,0,0,0,2.713e4,1.263e4,19.629,0.105,NaN,2001.252,NaN,0.038,2.558e6,1280.681,1.804,0.623,0.81,0.288,0.215,0.12,NaN,NaN,NaN,NaN,NaN,NaN,NaN,NaN,0.002,165,213.825,84,0,4.006,14.986,1013.003,340.381,0.01,0.028
1.45,2.231,12.72,37.304,12.79,37.51,0.234,0,0.234,0,1.337,3.921,22.175,120.893,9.788,17.337,0,0,0,2.711e4,1.261e4,19.62,0.105,NaN,2000.731,NaN,0.039,2.627e6,1282.653,1.904,0.623,0.81,0.288,0.215,0.12,NaN,NaN,NaN,NaN,NaN,NaN,NaN,NaN,0.002,165,213.825,84,0,3.993,14.985,1012.988,340.38,0.01,0.028
1.46,2.36,13.094,37.422,13.166,37.628,0.248,0,0.248,0,1.376,3.933,22.175,120.893,9.788,16.988,0,0,0,2.709e4,1.259e4,19.611,0.104,NaN,2000.209,NaN,0.04,2.699e6,1284.861,2.011,0.623,0.81,0.288,0.215,0.12,NaN,NaN,NaN,NaN,NaN,NaN,NaN,NaN,0.002,165,213.825,84,0,4.022,14.985,1012.973,340.38,0.01,0.028
1.47,2.493,13.468,37.475,13.542,37.681,0.262,0,0.262,0,1.416,3.939,22.175,120.893,9.788,16.657,0,0,0,2.706e4,1.256e4,19.602,0.104,NaN,1999.686,NaN,0.042,2.772e6,1285.292,2.119,0.623,0.81,0.288,0.215,0.12,NaN,NaN,NaN,NaN,NaN,NaN,NaN,NaN,0.002,165,213.825,84,0,4.052,14.984,1012.958,340.379,0.01,0.028
1.48,2.629,13.844,37.596,13.92,37.803,0.276,0,0.276,0,1.455,3.951,22.175,120.893,9.788,16.341,0,0,0,2.704e4,1.254e4,19.592,0.104,NaN,1999.161,NaN,0.043,2.844e6,1287.587,2.23,0.623,0.809,0.288,0.215,0.12,NaN,NaN,NaN,NaN,NaN,NaN,NaN,NaN,0.002,165,213.825,84,0,4.081,14.983,1012.942,340.379,0.01,0.028
1.49,2.77,14.22,37.642,14.299,37.849,0.291,0,0.291,0,1.495,3.956,22.175,120.893,9.788,16.04,0,0,0,2.702e4,1.252e4,19.583,0.104,NaN,1998.635,NaN,0.044,2.917e6,1287.832,2.344,0.623,0.809,0.288,0.215,0.12,NaN,NaN,NaN,NaN,NaN,NaN,NaN,NaN,0.002,165,213.825,84,0,4.111,14.982,1012.925,340.378,0.01,0.029
1.5,2.914,14.597,37.712,14.678,37.919,0.306,0,0.306,0,1.534,3.964,22.175,120.893,9.788,15.754,0,0,0,2.699e4,1.249e4,19.574,0.104,NaN,1998.108,NaN,0.045,2.99e6,1288.735,2.459,0.623,0.807,0.288,0.215,0.12,NaN,NaN,NaN,NaN,NaN,NaN,NaN,NaN,0.002,165,213.825,84,0,4.14,14.981,1012.908,340.377,0.01,0.029
1.51,3.062,14.975,37.793,15.057,38.001,0.322,0,0.322,0,1.574,3.972,22.175,120.893,9.788,15.586,0,0,0,2.697e4,1.247e4,19.564,0.104,NaN,1997.579,NaN,0.046,3.065e6,1289.948,2.581,0.623,0.807,0.288,0.215,0.12,NaN,NaN,NaN,NaN,NaN,NaN,NaN,NaN,0.002,165,213.825,84,0,4.2,14.98,1012.891,340.377,0.01,0.029
1.52,3.213,15.353,37.809,15.437,38.017,0.338,0,0.338,0,1.614,3.974,22.175,120.893,9.788,15.427,0,0,0,2.695e4,1.244e4,19.555,0.104,NaN,1997.049,NaN,0.047,3.14e6,1289.376,2.706,0.623,0.806,0.288,0.215,0.12,NaN,NaN,NaN,NaN,NaN,NaN,NaN,NaN,0.002,165,213.825,84,0,4.26,14.979,1012.873,340.376,0.01,0.029
1.53,3.369,15.732,37.948,15.819,38.157,0.354,0,0.354,0,1.654,3.989,22.175,120.893,9.788,15.273,0,0,0,2.692e4,1.242e4,19.546,0.104,NaN,1996.518,NaN,0.048,3.215e6,1292.164,2.834,0.623,0.805,0.288,0.215,0.12,NaN,NaN,NaN,NaN,NaN,NaN,NaN,NaN,0.002,165,213.825,84,0,4.32,14.978,1012.855,340.376,0.01,0.029
1.54,3.528,16.112,38.018,16.201,38.227,0.371,0,0.371,0,1.693,3.996,22.175,120.893,9.788,15.126,0,0,0,2.69e4,1.24e4,19.536,0.104,NaN,1995.985,NaN,0.049,3.29e6,1293.051,2.965,0.623,0.804,0.288,0.215,0.12,NaN,NaN,NaN,NaN,NaN,NaN,NaN,NaN,0.002,165,213.825,84,0,4.379,14.977,1012.836,340.375,0.01,0.029
1.55,3.691,16.493,38.123,16.584,38.333,0.388,0,0.388,0,1.734,4.007,22.175,120.893,9.788,14.985,0,0,0,2.687e4,1.237e4,19.527,0.104,NaN,1995.451,NaN,0.05,3.366e6,1294.89,3.099,0.623,0.803,0.288,0.215,0.12,NaN,NaN,NaN,NaN,NaN,NaN,NaN,NaN,0.002,165,213.825,84,0,4.439,14.976,1012.817,340.374,0.01,0.03
1.56,3.858,16.875,38.247,16.968,38.458,0.405,0,0.405,0,1.774,4.02,22.175,120.893,9.788,14.715,0,0,0,2.685e4,1.235e4,19.517,0.104,NaN,1994.914,NaN,0.052,3.44e6,1297.251,3.229,0.623,0.801,0.288,0.215,0.12,NaN,NaN,NaN,NaN,NaN,NaN,NaN,NaN,0.002,165,213.825,84,0,4.456,14.975,1012.798,340.374,0.01,0.03
1.57,4.029,17.258,38.267,17.353,38.478,0.423,0,0.423,0,1.814,4.022,22.175,120.893,9.788,14.457,0,0,0,2.683e4,1.233e4,19.508,0.104,NaN,1994.377,NaN,0.053,3.513e6,1296.778,3.36,0.623,0.799,0.288,0.215,0.12,NaN,NaN,NaN,NaN,NaN,NaN,NaN,NaN,0.002,165,213.825,84,0,4.474,14.974,1012.778,340.373,0.01,0.03
1.585,4.292,17.832,38.286,17.932,38.623,0.451,-7.256e-5,0.451,-0.009,1.89,5.091,22.175,120.893,9.788,14.059,0,0.025,-5.118e-5,2.679e4,1.229e4,19.493,0.104,2028.554,1993.568,0.212,0.054,3.624e6,1298.654,3.56,0.624,0.796,0.288,0.215,0.12,3.931,0.834,2.286e-4,0,0,0,0,2.07e-6,0.002,165,213.825,84,0.002,4.5,14.972,1012.747,340.372,0.015,0.03
1.608,4.703,18.697,38.488,18.804,38.826,0.495,-4.594e-4,0.495,-0.053,2.004,5.111,22.175,120.893,9.788,13.425,0,0.071,-2.772e-4,2.674e4,1.224e4,19.472,0.104,2035.683,1992.348,0.263,0.057,3.79e6,1301.804,3.862,0.624,0.789,0.288,0.215,0.12,3.699,0.971,2.993e-4,0,0,0,0,1.54e-5,0.003,165,213.825,84,0.012,4.514,14.969,1012.698,340.37,0.023,0.03
1.641,5.356,20.005,38.826,20.123,39.165,0.566,-0.002,0.566,-0.17,2.176,5.141,22.175,120.893,9.788,12.354,0,0.163,-0.001,2.666e4,1.216e4,19.439,0.104,2048.361,1990.501,0.351,0.061,4.038e6,1307.398,4.313,0.624,0.776,0.288,0.215,0.12,3.316,1.162,2.337e-4,0,0,0,0,7.179e-5,0.003,165,213.825,84,0.049,4.456,14.965,1012.622,340.368,0.034,0.031
1.691,6.405,21.962,39.249,22.096,39.589,0.681,-0.005,0.681,-0.415,2.433,5.178,22.175,120.893,9.788,11.011,0,0.35,-0.004,2.654e4,1.204e4,19.39,0.104,2065.437,1987.731,0.471,0.066,4.413e6,1313.533,5.025,0.624,0.758,0.288,0.215,0.121,2.857,1.345,-3.056e-4,0,0,0,0,2.783e-4,0.003,165,213.825,84,0.169,4.387,14.958,1012.499,340.364,0.05,0.031
1.741,7.553,23.949,39.833,24.099,40.174,0.809,-0.01,0.809,-0.702,2.693,5.224,22.175,120.893,9.788,9.441,0,0.599,-0.011,2.642e4,1.192e4,19.34,0.104,2087.228,1984.915,0.62,0.072,4.789e6,1323.765,5.727,0.624,0.733,0.288,0.216,0.121,2.351,1.457,-5.499e-5,0,0,0,0,6.899e-4,0.003,165,213.825,83.999,0.394,4.138,14.951,1012.364,340.359,0.05,0.031
1.791,8.8,25.967,40.465,26.134,40.808,0.95,-0.017,0.95,-0.998,2.956,5.276,22.175,120.893,9.788,8.232,0,0.904,-0.023,2.63e4,1.18e4,19.29,0.103,2105.525,1982.048,0.748,0.078,5.176e6,1335.184,6.511,0.624,0.713,0.288,0.216,0.121,1.982,1.482,-1.166e-4,0,0,0,0,0.001,0.004,165,213.825,83.998,0.75,3.959,14.943,1012.218,340.354,0.05,0.031
1.841,10.15,28.019,41.14,28.203,41.485,1.104,-0.025,1.104,-1.283,3.222,5.336,22.175,120.893,9.788,7.674,0,1.262,-0.036,2.617e4,1.167e4,19.238,0.103,2114.495,1979.127,0.82,0.084,5.578e6,1347.677,7.467,0.624,0.704,0.288,0.216,0.121,1.819,1.49,4.195e-4,0,0,0,0,0.002,0.004,165,213.825,83.995,1.265,4.036,14.934,1012.06,340.349,0.05,0.031
1.891,11.603,30.111,41.948,30.313,42.295,1.272,-0.034,1.272,-1.552,3.492,5.408,22.175,120.893,9.788,7.129,0,1.679,-0.054,2.605e4,1.155e4,19.185,0.103,2123.562,1976.143,0.893,0.09,5.988e6,1363.475,8.5,0.624,0.696,0.288,0.216,0.121,1.663,1.483,-2.043e-4,0,0,0,0,0.003,0.004,165,213.825,83.989,1.964,4.098,14.925,1011.889,340.343,0.05,0.032
1.941,13.162,32.236,42.614,32.455,42.963,1.453,-0.046,1.453,-1.799,3.764,5.462,22.175,120.893,9.788,6.504,-3.718e-7,2.153,-0.081,2.593e4,1.143e4,19.132,0.103,2134.366,1973.105,0.977,0.096,6.403e6,1375.364,9.585,0.625,0.686,0.288,0.216,0.121,1.489,1.451,-3.028e-4,0,0,0,0,0.005,0.004,165,213.825,83.98,2.872,4.092,14.914,1011.706,340.337,0.05,0.032
1.991,14.828,34.399,43.372,34.636,43.722,1.647,-0.058,1.648,-2.02,4.04,5.523,22.175,120.893,9.788,5.581,-6.111e-7,2.67,-0.134,2.58e4,1.13e4,19.077,0.103,2151.117,1970.006,1.098,0.102,6.822e6,1389.417,10.662,0.625,0.672,0.288,0.216,0.121,1.243,1.357,2.504e-4,0,0,0,0,0.007,0.005,165,213.825,83.965,4.011,3.877,14.904,1011.511,340.33,0.05,0.032
2.041,16.603,36.613,44.373,36.867,44.727,1.856,-0.071,1.857,-2.206,4.321,5.618,22.175,120.893,9.788,5.331,-3.39e-7,3.229,-0.161,2.567e4,1.117e4,19.021,0.102,2155.892,1966.831,1.146,0.109,7.259e6,1409.711,12.013,0.625,0.669,0.288,0.216,0.122,1.178,1.342,2.568e-4,0,0,0,0,0.009,0.005,165,213.825,83.942,5.394,4.056,14.892,1011.303,340.324,0.05,0.032
2.091,18.49,38.87,45.259,39.142,45.617,2.079,-0.086,2.08,-2.356,4.605,5.706,22.175,120.893,9.788,4.82,0,3.852,-0.22,2.554e4,1.104e4,18.964,0.102,2165.83,1963.584,1.226,0.116,7.701e6,1426.753,13.386,0.625,0.662,0.287,0.216,0.122,1.048,1.274,2.592e-4,0,0,0,0,0.011,0.005,165,213.825,83.908,7.037,4.064,14.88,1011.081,340.316,0.05,0.032
2.141,20.491,41.158,45.869,41.447,46.231,2.316,-0.1,2.318,-2.468,4.893,5.778,22.175,120.893,9.788,4.09,-1.718e-6,4.492,-0.335,2.541e4,1.091e4,18.906,0.102,2180.616,1960.282,1.335,0.122,8.147e6,1436.554,14.776,0.626,0.653,0.287,0.216,0.122,0.869,1.146,2.895e-4,0,0,0,0,0.013,0.006,165,213.825,83.861,8.946,3.896,14.867,1010.847,340.308,0.05,0.032
2.191,22.606,43.48,46.558,43.788,46.927,2.567,-0.114,2.57,-2.536,5.184,5.871,22.175,120.893,9.788,3.854,-1.305e-6,5.157,-0.379,2.528e4,1.078e4,18.847,0.102,2185.617,1956.918,1.386,0.129,8.605e6,1448.404,16.426,0.626,0.651,0.287,0.216,0.122,0.812,1.11,3.942e-4,0,0,0,0,0.016,0.006,165,213.825,83.794,11.108,4.087,14.853,1010.599,340.3,0.05,0.033
2.241,24.839,45.839,47.287,46.165,47.665,2.833,-0.127,2.836,-2.558,5.479,5.989,22.175,120.893,9.788,3.618,-1.914e-6,5.887,-0.428,2.515e4,1.065e4,18.787,0.102,2190.707,1953.489,1.438,0.136,9.071e6,1461.178,18.191,0.626,0.648,0.287,0.217,0.122,0.757,1.07,2.869e-4,0,0,0,0,0.019,0.006,165,213.825,83.705,13.515,4.299,14.839,1010.337,340.291,0.05,0.033
2.291,27.191,48.223,47.796,48.568,48.189,3.115,-0.138,3.118,-2.533,5.777,6.141,22.175,120.893,9.788,2.798,-2.092e-6,6.592,-0.743,2.501e4,1.051e4,18.726,0.101,2208.812,1950.006,1.569,0.143,9.535e6,1468.288,19.853,0.627,0.64,0.287,0.217,0.123,0.57,0.872,-2.77e-4,0,0,0,0,0.021,0.007,165,213.825,83.589,16.147,4.02,14.823,1010.061,340.282,0.05,0.033
2.341,29.662,50.611,47.871,50.975,48.281,3.411,-0.146,3.414,-2.455,6.078,6.272,22.175,120.893,9.788,2.403,-2.589e-6,7.228,-0.934,2.488e4,1.038e4,18.664,0.101,2217.974,1946.495,1.645,0.15,1e7,1464.702,21.758,0.627,0.637,0.287,0.217,0.123,0.483,0.771,4.475e-4,0,0,0,0,0.023,0.007,165,213.825,83.441,18.937,4.093,14.807,1009.771,340.272,0.05,0.033
2.391,32.252,53.001,47.915,53.384,48.347,3.722,-0.151,3.725,-2.322,6.382,6.445,22.175,120.893,9.788,2.038,-1.659e-6,7.856,-1.171,2.475e4,1.025e4,18.602,0.101,2226.682,1942.956,1.72,0.157,1.048e7,1460.577,23.771,0.627,0.635,0.287,0.217,0.123,0.404,0.671,-1.899e-4,0,0,0,0,0.025,0.007,165,213.825,83.259,21.825,4.202,14.79,1009.467,340.262,0.05,0.033
2.441,34.962,55.396,47.998,55.799,48.466,4.049,-0.151,4.052,-2.131,6.691,6.719,22.175,120.893,9.788,1.386,-4.057e-6,8.245,-2.103,2.461e4,1.011e4,18.539,0.101,2242.76,1939.385,1.839,0.164,1.094e7,1457.734,25.801,0.628,0.631,0.287,0.217,0.124,0.269,0.469,3.983e-4,0,0,0,0,0.025,0.008,165,213.825,83.039,24.747,4.011,14.773,1009.15,340.251,0.05,0.034
2.491,37.791,57.775,47.654,58.198,48.163,4.391,-0.144,4.394,-1.88,7.004,6.982,22.175,120.893,9.788,0.95,-6.59e-6,8.265,-3.319,2.448e4,9982.7,18.477,0.101,2253.975,1935.809,1.928,0.171,1.141e7,1444.705,27.994,0.628,0.63,0.287,0.217,0.124,0.181,0.326,2.841e-4,0,0,0,0,0.023,0.008,165,213.825,82.784,27.609,4.01,14.754,1008.818,340.24,0.05,0.034
2.541,40.739,60.149,47.564,60.593,48.127,4.749,-0.13,4.751,-1.567,7.325,7.335,22.175,120.893,9.788,0.575,-8.381e-6,7.058,-5.871,2.435e4,9851.919,18.414,0.1,2263.958,1932.21,2.011,0.179,1.188e7,1438.362,30.307,0.629,0.629,0.287,0.218,0.124,0.108,0.202,-2.67e-4,0,0,0,0,0.016,0.008,165,213.825,82.495,30.335,4.017,14.735,1008.472,340.228,0.05,0.034
2.591,43.806,62.512,47.341,62.979,47.966,5.123,-0.106,5.124,-1.19,7.655,7.717,22.175,120.893,9.788,0.381,-1.145e-5,1.277,-9.205,2.422e4,9721.977,18.351,0.1,2269.283,1928.595,2.065,0.186,1.234e7,1429.136,32.74,0.629,0.63,0.287,0.218,0.124,0.071,0.146,4.724e-4,0,0,0,0,4.701e-4,0.008,165,213.825,82.179,32.866,4.06,14.715,1008.112,340.216,0.05,0.034
2.641,46.991,64.887,47.572,65.378,48.27,5.513,-0.072,5.513,-0.752,7.999,8.175,22.175,120.893,9.788,0.406,-1.08e-5,-4.249,-8.214,2.409e4,9591.843,18.287,0.1,2268.755,1924.936,2.084,0.193,1.281e7,1431.244,35.319,0.63,0.63,0.287,0.218,0.125,0.076,0.164,-1.328e-4,0,0,0,0,-0.005,0.009,165,213.825,81.841,35.155,4.255,14.695,1007.739,340.204,0.05,0.035
2.691,50.294,67.268,47.682,67.785,48.469,5.919,-0.026,5.919,-0.253,8.359,8.698,22.175,120.893,9.788,0.689,-1.19e-5,-7.453,-5.089,2.396e4,9461.748,18.222,0.1,2261.354,1921.238,2.061,0.2,1.328e7,1430.823,38.024,0.63,0.631,0.287,0.218,0.125,0.13,0.283,-3.99e-4,0,0,0,0,-0.014,0.009,165,213.825,81.49,37.177,4.253,14.673,1007.351,340.191,0.05,0.035
2.741,53.718,69.662,47.936,70.208,48.816,6.342,0.034,6.342,0.306,8.738,9.226,22.175,120.893,9.788,0.875,-1.527e-5,-7.676,-3.786,2.383e4,9331.363,18.157,0.1,2256.625,1917.492,2.055,0.207,1.376e7,1433.995,40.865,0.631,0.632,0.287,0.219,0.126,0.167,0.356,-2.91e-4,0,0,0,0,-0.014,0.009,165,213.825,81.135,38.907,4.411,14.651,1006.95,340.177,0.05,0.035
2.791,57.261,72.077,48.368,72.654,49.342,6.782,0.109,6.783,0.922,9.139,9.758,22.175,120.893,9.788,0.968,-1.109e-5,-7.37,-3.007,2.37e4,9200.305,18.091,0.099,2254.383,1913.685,2.065,0.214,1.424e7,1441.415,43.839,0.631,0.633,0.287,0.219,0.126,0.185,0.394,6.196e-5,0,0,0,0,-0.012,0.01,165,213.825,80.789,40.343,4.663,14.628,1006.534,340.163,0.05,0.035
2.841,60.926,74.51,48.708,75.122,49.812,7.241,0.201,7.244,1.592,9.565,10.432,22.175,120.893,9.788,1.423,-1.805e-5,-6.706,-2.452,2.357e4,9068.707,18.023,0.099,2242.989,1909.819,2.019,0.222,1.471e7,1447.346,47.017,0.632,0.636,0.286,0.219,0.126,0.277,0.568,-3.528e-4,0,0,0,0,-0.009,0.01,165,213.825,80.46,41.497,4.393,14.604,1006.104,340.149,0.05,0.035
2.891,64.712,76.939,48.627,77.588,49.847,7.717,0.312,7.724,2.312,10.014,10.964,22.175,120.893,9.787,1.711,-2.163e-5,-5.524,-2.189,2.344e4,8937.495,17.955,0.099,2236.063,1905.922,2.001,0.229,1.519e7,1443.113,50.302,0.632,0.638,0.286,0.219,0.127,0.336,0.678,2.463e-4,0,0,0,0,-0.006,0.01,165,213.825,80.165,42.343,4.242,14.579,1005.66,340.134,0.05,0.035
2.941,68.619,79.357,48.409,80.046,49.717,8.213,0.442,8.225,3.079,10.485,11.33,22.175,120.893,9.787,1.79,-2.604e-5,-4.096,-2.012,2.331e4,8806.998,17.887,0.099,2234.298,1902.002,2.014,0.236,1.567e7,1435.232,53.624,0.633,0.639,0.286,0.22,0.127,0.353,0.714,3.548e-4,0,0,0,0,-0.003,0.011,165,213.825,79.918,42.862,4.268,14.554,1005.202,340.119,0.05,0.036
2.991,72.648,81.786,48.656,82.519,50.022,8.728,0.593,8.748,3.886,10.978,11.611,22.175,120.893,9.787,1.685,-2.574e-5,-2.566,-1.876,2.318e4,8676.274,17.818,0.099,2237.065,1898.031,2.055,0.243,1.615e7,1437.734,56.998,0.634,0.639,0.286,0.22,0.128,0.331,0.682,4.439e-4,0,0,0,0,-0.001,0.011,165,213.825,79.729,43.065,4.453,14.528,1004.73,340.103,0.05,0.036
3.041,76.798,84.239,49.124,85.019,50.564,9.262,0.765,9.294,4.723,11.494,11.982,22.175,120.893,9.787,1.781,-2.351e-5,-0.905,-1.836,2.305e4,8544.831,17.748,0.098,2234.904,1893.993,2.066,0.251,1.663e7,1445.651,60.575,0.634,0.64,0.286,0.22,0.128,0.352,0.727,-9.04e-5,0,0,0,0,-1.293e-4,0.011,165,213.825,79.603,42.97,4.224,14.501,1004.243,340.086,0.05,0.036
