# Time (s),Altitude (m),Vertical velocity (m/s),Vertical acceleration (m/s²),Total velocity (m/s),Total acceleration (m/s²),Position East of launch (m),Position North of launch (m),Lateral distance (m),Lateral direction (°),Lateral velocity (m/s),Lateral acceleration (m/s²),Latitude (°),Longitude (°),Gravitational acceleration (m/s²),Angle of attack (°),Roll rate (°/s),Pitch rate (°/s),Yaw rate (°/s),Mass (g),Motor mass (g),Longitudinal moment of inertia (kg·m²),Rotational moment of inertia (kg·m²),CP location (mm),CG location (mm),Stability margin calibers (​),Mach number (​),Reynolds number (​),Thrust (N),Drag force (N),Drag coefficient (​),Axial drag coefficient (​),Friction drag coefficient (​),Pressure drag coefficient (​),Base drag coefficient (​),Normal force coefficient (​),Pitch moment coefficient (​),Yaw moment coefficient (​),Side force coefficient (​),Roll moment coefficient (​),Roll forcing coefficient (​),Roll damping coefficient (​),Pitch damping coefficient (​),Coriolis acceleration (m/s²),Reference length (mm),Reference area (cm²),Vertical orientation (zenith) (°),Lateral orientation (azimuth) (°),Wind velocity (m/s),Air temperature (°C),Air pressure (mbar),Speed of sound (m/s),Simulation time step (s),Computation time (s)
0.01,-4.664e-4,-0.093,-9.324,0.095,9.468,-8.224e-5,0,8.224e-5,180,0.016,1.644,22.175,120.893,9.788,90.884,0,0,0,2.8e4,1.35e4,19.963,0.106,NaN,2019.994,NaN,0.018,1.204e6,4.784,-2.992e-6,0.663,-6.061e-6,0.328,0.215,0.12,NaN,NaN,NaN,NaN,NaN,NaN,NaN,NaN,1.282e-5,165,213.825,80,0,6.138,15,1013.25,340.389,0.01,0.001
0.02,-4.668e-4,-0.093,-9.336,0.095,9.48,-8.231e-5,0,8.231e-5,180,0.016,1.646,22.175,120.893,9.788,90.897,0,0,0,2.8e4,1.35e4,19.963,0.106,NaN,2019.992,NaN,0.018,1.188e6,4.461,-3.047e-6,0.664,-6.343e-6,0.329,0.215,0.12,NaN,NaN,NaN,NaN,NaN,NaN,NaN,NaN,1.283e-5,165,213.825,80,0,6.056,15,1013.25,340.389,0.01,0.002
0.03,-4.67e-4,-0.093,-9.34,0.095,9.484,-8.234e-5,0,8.234e-5,180,0.016,1.647,22.175,120.893,9.788,90.91,0,0,0,2.8e4,1.35e4,19.963,0.106,NaN,2019.991,NaN,0.018,1.172e6,4.343,-3.097e-6,0.665,-6.626e-6,0.33,0.215,0.12,NaN,NaN,NaN,NaN,NaN,NaN,NaN,NaN,1.284e-5,165,213.825,80,0,5.973,15,1013.25,340.389,0.01,0.002
0.04,-4.672e-4,-0.093,-9.343,0.095,9.487,-8.237e-5,0,8.237e-5,180,0.016,1.647,22.175,120.893,9.788,90.923,0,0,0,2.8e4,1.35e4,19.963,0.106,NaN,2019.989,NaN,0.017,1.155e6,4.249,-3.147e-6,0.666,-6.923e-6,0.331,0.215,0.12,NaN,NaN,NaN,NaN,NaN,NaN,NaN,NaN,1.285e-5,165,213.825,80,0,5.891,15,1013.25,340.389,0.01,0.002
0.05,-4.668e-4,-0.093,-9.336,0.095,9.48,-8.231e-5,0,8.231e-5,180,0.016,1.646,22.175,120.893,9.788,90.935,0,0,0,2.8e4,1.35e4,19.963,0.106,NaN,2019.988,NaN,0.017,1.139e6,4.443,-3.189e-6,0.667,-7.215e-6,0.331,0.215,0.12,NaN,NaN,NaN,NaN,NaN,NaN,NaN,NaN,1.284e-5,165,213.825,80,0,5.809,15,1013.25,340.389,0.01,0.002
0.06,-4.664e-4,-0.093,-9.328,0.095,9.472,-8.224e-5,0,8.224e-5,180,0.016,1.645,22.175,120.893,9.788,90.921,0,0,0,2.8e4,1.35e4,19.963,0.106,NaN,2019.986,NaN,0.017,1.156e6,4.681,-3.131e-6,0.666,-6.88e-6,0.331,0.215,0.12,NaN,NaN,NaN,NaN,NaN,NaN,NaN,NaN,1.282e-5,165,213.825,80,0,5.894,15,1013.25,340.389,0.01,0.003
0.07,-4.668e-4,-0.093,-9.336,0.095,9.481,-8.231e-5,0,8.231e-5,180,0.016,1.646,22.175,120.893,9.788,90.908,0,0,0,2.8e4,1.35e4,19.963,0.106,NaN,2019.984,NaN,0.018,1.173e6,4.438,-3.091e-6,0.665,-6.6e-6,0.33,0.215,0.12,NaN,NaN,NaN,NaN,NaN,NaN,NaN,NaN,1.284e-5,165,213.825,80,0,5.979,15,1013.25,340.389,0.01,0.003
0.08,-4.668e-4,-0.093,-9.335,0.095,9.479,-8.23e-5,0,8.23e-5,180,0.016,1.646,22.175,120.893,9.788,90.896,0,0,0,2.8e4,1.35e4,19.963,0.106,NaN,2019.982,NaN,0.018,1.189e6,4.479,-3.042e-6,0.664,-6.315e-6,0.329,0.215,0.12,NaN,NaN,NaN,NaN,NaN,NaN,NaN,NaN,1.283e-5,165,213.825,80,0,6.064,15,1013.25,340.389,0.01,0.003
0.09,-4.665e-4,-0.093,-9.331,0.095,9.475,-8.226e-5,0,8.226e-5,180,0.016,1.645,22.175,120.893,9.788,90.883,0,0,0,2.8e4,1.35e4,19.963,0.106,NaN,2019.981,NaN,0.018,1.206e6,4.603,-2.992e-6,0.663,-6.041e-6,0.328,0.215,0.12,NaN,NaN,NaN,NaN,NaN,NaN,NaN,NaN,1.283e-5,165,213.825,80,0,6.149,15,1013.25,340.389,0.01,0.003
0.1,-4.67e-4,-0.093,-9.341,0.095,9.485,-8.235e-5,0,8.235e-5,180,0.016,1.647,22.175,120.893,9.788,90.872,0,0,0,2.8e4,1.35e4,19.963,0.106,NaN,2019.979,NaN,0.018,1.223e6,4.315,-2.957e-6,0.662,-5.808e-6,0.327,0.215,0.12,NaN,NaN,NaN,NaN,NaN,NaN,NaN,NaN,1.284e-5,165,213.825,80,0,6.234,15,1013.25,340.389,0.01,0.004
0.11,-4.668e-4,-0.093,-9.337,0.095,9.481,-8.232e-5,0,8.232e-5,180,0.016,1.646,22.175,120.893,9.788,90.86,0,0,0,2.8e4,1.35e4,19.963,0.106,NaN,2019.977,NaN,0.019,1.239e6,4.431,-2.912e-6,0.661,-5.574e-6,0.326,0.215,0.12,NaN,NaN,NaN,NaN,NaN,NaN,NaN,NaN,1.284e-5,165,213.825,80,0,6.315,15,1013.25,340.389,0.01,0.004
0.12,-4.668e-4,-0.093,-9.337,0.095,9.481,-8.231e-5,0,8.231e-5,180,0.016,1.646,22.175,120.893,9.788,90.849,0,0,0,2.8e4,1.35e4,19.962,0.106,NaN,2019.976,NaN,0.019,1.255e6,4.436,-2.872e-6,0.66,-5.359e-6,0.325,0.215,0.12,NaN,NaN,NaN,NaN,NaN,NaN,NaN,NaN,1.284e-5,165,213.825,80,0,6.396,15,1013.25,340.389,0.01,0.004
0.13,-4.665e-4,-0.093,-9.33,0.095,9.474,-8.226e-5,0,8.226e-5,180,0.016,1.645,22.175,120.893,9.788,90.838,0,0,0,2.8e4,1.35e4,19.962,0.106,NaN,2019.974,NaN,0.019,1.27e6,4.62,-2.827e-6,0.66,-5.144e-6,0.325,0.215,0.12,NaN,NaN,NaN,NaN,NaN,NaN,NaN,NaN,1.283e-5,165,213.825,80,0,6.477,15,1013.25,340.389,0.01,0.004
0.14,-4.669e-4,-0.093,-9.338,0.095,9.482,-8.232e-5,0,8.232e-5,180,0.016,1.646,22.175,120.893,9.788,90.828,0,0,0,2.8e4,1.35e4,19.962,0.106,NaN,2019.972,NaN,0.019,1.286e6,4.404,-2.796e-6,0.659,-4.962e-6,0.324,0.215,0.12,NaN,NaN,NaN,NaN,NaN,NaN,NaN,NaN,1.284e-5,165,213.825,80,0,6.558,15,1013.25,340.389,0.01,0.004
0.15,-4.668e-4,-0.093,-9.336,0.095,9.48,-8.231e-5,0,8.231e-5,180,0.016,1.646,22.175,120.893,9.788,90.818,0,0,0,2.8e4,1.35e4,19.962,0.106,NaN,2019.97,NaN,0.02,1.302e6,4.444,-2.758e-6,0.658,-4.775e-6,0.323,0.215,0.12,NaN,NaN,NaN,NaN,NaN,NaN,NaN,NaN,1.284e-5,165,213.825,80,0,6.64,15,1013.25,340.389,0.01,0.005
0.16,-4.664e-4,-0.093,-9.329,0.095,9.473,-8.225e-5,0,8.225e-5,180,0.016,1.645,22.175,120.893,9.788,90.822,0,0,0,2.8e4,1.35e4,19.962,0.106,NaN,2019.969,NaN,0.019,1.295e6,4.651,-2.768e-6,0.658,-4.845e-6,0.323,0.215,0.12,NaN,NaN,NaN,NaN,NaN,NaN,NaN,NaN,1.283e-5,165,213.825,80,0,6.603,15,1013.25,340.389,0.01,0.005
0.17,-4.672e-4,-0.093,-9.344,0.095,9.488,-8.238e-5,0,8.238e-5,180,0.016,1.648,22.175,120.893,9.788,90.828,0,0,0,2.8e4,1.35e4,19.962,0.106,NaN,2019.967,NaN,0.019,1.288e6,4.218,-2.798e-6,0.659,-4.952e-6,0.324,0.215,0.12,NaN,NaN,NaN,NaN,NaN,NaN,NaN,NaN,1.285e-5,165,213.825,80,0,6.567,15,1013.25,340.389,0.01,0.005
0.18,-4.672e-4,-0.093,-9.344,0.095,9.488,-8.238e-5,0,8.238e-5,180,0.016,1.648,22.175,120.893,9.788,90.832,0,0,0,2.8e4,1.35e4,19.962,0.106,NaN,2019.965,NaN,0.019,1.281e6,4.225,-2.814e-6,0.659,-5.037e-6,0.324,0.215,0.12,NaN,NaN,NaN,NaN,NaN,NaN,NaN,NaN,1.285e-5,165,213.825,80,0,6.531,15,1013.25,340.389,0.01,0.005
0.19,-4.67e-4,-0.093,-9.341,0.095,9.485,-8.235e-5,0,8.235e-5,180,0.016,1.647,22.175,120.893,9.788,90.837,0,0,0,2.8e4,1.35e4,19.962,0.106,NaN,2019.964,NaN,0.019,1.274e6,4.321,-2.828e-6,0.66,-5.118e-6,0.324,0.215,0.12,NaN,NaN,NaN,NaN,NaN,NaN,NaN,NaN,1.284e-5,165,213.825,80,0,6.495,15,1013.25,340.389,0.01,0.006
0.2,-4.673e-4,-0.093,-9.346,0.095,9.49,-8.24e-5,0,8.24e-5,180,0.016,1.648,22.175,120.893,9.788,90.842,0,0,0,2.8e4,1.35e4,19.962,0.106,NaN,2019.962,NaN,0.019,1.267e6,4.174,-2.85e-6,0.66,-5.215e-6,0.325,0.215,0.12,NaN,NaN,NaN,NaN,NaN,NaN,NaN,NaN,1.285e-5,165,213.825,80,0,6.459,15,1013.25,340.389,0.01,0.006
0.21,-4.669e-4,-0.093,-9.338,0.095,9.483,-8.233e-5,0,8.233e-5,180,0.016,1.647,22.175,120.893,9.788,90.84,0,0,0,2.8e4,1.35e4,19.962,0.106,NaN,2019.961,NaN,0.019,1.268e6,4.381,-2.841e-6,0.66,-5.188e-6,0.325,0.215,0.12,NaN,NaN,NaN,NaN,NaN,NaN,NaN,NaN,1.284e-5,165,213.825,80,0,6.465,15,1013.25,340.389,0.01,0.006
0.22,-4.664e-4,-0.093,-9.329,0.095,9.473,-8.225e-5,0,8.225e-5,180,0.016,1.645,22.175,120.893,9.788,90.839,0,0,0,2.8e4,1.35e4,19.962,0.106,NaN,2019.959,NaN,0.019,1.269e6,4.657,-2.829e-6,0.66,-5.156e-6,0.325,0.215,0.12,NaN,NaN,NaN,NaN,NaN,NaN,NaN,NaN,1.283e-5,165,213.825,80,0,6.472,15,1013.25,340.389,0.01,0.006
0.23,-4.669e-4,-0.093,-9.338,0.095,9.482,-8.233e-5,0,8.233e-5,180,0.016,1.647,22.175,120.893,9.788,90.839,0,0,0,2.8e4,1.35e4,19.962,0.106,NaN,2019.957,NaN,0.019,1.271e6,4.392,-2.834e-6,0.66,-5.156e-6,0.325,0.215,0.12,NaN,NaN,NaN,NaN,NaN,NaN,NaN,NaN,1.284e-5,165,213.825,80,0,6.478,15,1013.25,340.389,0.01,0.006
0.24,-4.667e-4,-0.093,-9.334,0.095,9.478,-8.229e-5,0,8.229e-5,180,0.016,1.646,22.175,120.893,9.788,90.837,0,0,0,2.8e4,1.35e4,19.962,0.106,NaN,2019.955,NaN,0.019,1.272e6,4.513,-2.827e-6,0.66,-5.133e-6,0.324,0.215,0.12,NaN,NaN,NaN,NaN,NaN,NaN,NaN,NaN,1.283e-5,165,213.825,80,0,6.484,15,1013.25,340.389,0.01,0.007
0.25,-4.666e-4,-0.093,-9.331,0.095,9.475,-8.227e-5,0,8.227e-5,180,0.016,1.645,22.175,120.893,9.788,90.836,0,0,0,2.8e4,1.35e4,19.962,0.106,NaN,2019.954,NaN,0.019,1.273e6,4.587,-2.822e-6,0.66,-5.114e-6,0.324,0.215,0.12,NaN,NaN,NaN,NaN,NaN,NaN,NaN,NaN,1.283e-5,165,213.825,80,0,6.491,15,1013.25,340.389,0.01,0.007
0.26,-4.668e-4,-0.093,-9.337,0.095,9.481,-8.232e-5,0,8.232e-5,180,0.016,1.646,22.175,120.893,9.788,90.84,0,0,0,2.8e4,1.35e4,19.962,0.106,NaN,2019.952,NaN,0.019,1.269e6,4.429,-2.837e-6,0.66,-5.175e-6,0.325,0.215,0.12,NaN,NaN,NaN,NaN,NaN,NaN,NaN,NaN,1.284e-5,165,213.825,80,0,6.469,15,1013.25,340.389,0.01,0.007
0.27,-4.667e-4,-0.093,-9.333,0.095,9.477,-8.229e-5,0,8.229e-5,180,0.016,1.646,22.175,120.893,9.788,90.842,0,0,0,2.8e4,1.35e4,19.962,0.106,NaN,2019.95,NaN,0.019,1.265e6,4.527,-2.844e-6,0.66,-5.223e-6,0.325,0.215,0.12,NaN,NaN,NaN,NaN,NaN,NaN,NaN,NaN,1.283e-5,165,213.825,80,0,6.448,15,1013.25,340.389,0.01,0.007
0.28,-4.667e-4,-0.093,-9.335,0.095,9.479,-8.23e-5,0,8.23e-5,180,0.016,1.646,22.175,120.893,9.788,90.845,0,0,0,2.8e4,1.35e4,19.962,0.106,NaN,2019.949,NaN,0.019,1.26e6,4.488,-2.856e-6,0.66,-5.279e-6,0.325,0.215,0.12,NaN,NaN,NaN,NaN,NaN,NaN,NaN,NaN,1.283e-5,165,213.825,80,0,6.426,15,1013.25,340.389,0.01,0.007
0.29,-4.665e-4,-0.093,-9.33,0.095,9.474,-8.226e-5,0,8.226e-5,180,0.016,1.645,22.175,120.893,9.788,90.847,0,0,0,2.8e4,1.35e4,19.962,0.106,NaN,2019.947,NaN,0.019,1.256e6,4.616,-2.862e-6,0.66,-5.326e-6,0.325,0.215,0.12,NaN,NaN,NaN,NaN,NaN,NaN,NaN,NaN,1.283e-5,165,213.825,80,0,6.405,15,1013.25,340.389,0.01,0.008
0.3,-4.666e-4,-0.093,-9.333,0.095,9.477,-8.228e-5,0,8.228e-5,180,0.016,1.646,22.175,120.893,9.788,90.851,0,0,0,2.8e4,1.35e4,19.962,0.106,NaN,2019.945,NaN,0.019,1.252e6,4.548,-2.875e-6,0.661,-5.386e-6,0.325,0.215,0.12,NaN,NaN,NaN,NaN,NaN,NaN,NaN,NaN,1.283e-5,165,213.825,80,0,6.383,15,1013.25,340.389,0.01,0.008
0.31,-4.664e-4,-0.093,-9.327,0.095,9.471,-8.223e-5,0,8.223e-5,180,0.016,1.645,22.175,120.893,9.788,90.848,0,0,0,2.8e4,1.35e4,19.962,0.106,NaN,2019.943,NaN,0.019,1.255e6,4.706,-2.863e-6,0.66,-5.342e-6,0.325,0.215,0.12,NaN,NaN,NaN,NaN,NaN,NaN,NaN,NaN,1.282e-5,165,213.825,80,0,6.396,15,1013.25,340.389,0.01,0.008
0.32,-4.67e-4,-0.093,-9.34,0.095,9.484,-8.235e-5,0,8.235e-5,180,0.016,1.647,22.175,120.893,9.788,90.848,0,0,0,2.8e4,1.35e4,19.962,0.106,NaN,2019.942,NaN,0.019,1.257e6,4.332,-2.869e-6,0.66,-5.331e-6,0.325,0.215,0.12,NaN,NaN,NaN,NaN,NaN,NaN,NaN,NaN,1.284e-5,165,213.825,80,0,6.41,15,1013.25,340.389,0.01,0.008
0.33,-4.667e-4,-0.093,-9.335,0.095,9.479,-8.23e-5,0,8.23e-5,180,0.016,1.646,22.175,120.893,9.788,90.846,0,0,0,2.8e4,1.35e4,19.962,0.106,NaN,2019.94,NaN,0.019,1.26e6,4.483,-2.858e-6,0.66,-5.288e-6,0.325,0.215,0.12,NaN,NaN,NaN,NaN,NaN,NaN,NaN,NaN,1.283e-5,165,213.825,80,0,6.423,15,1013.25,340.389,0.01,0.008
0.34,-4.666e-4,-0.093,-9.332,0.095,9.476,-8.227e-5,0,8.227e-5,180,0.016,1.645,22.175,120.893,9.788,90.844,0,0,0,2.8e4,1.35e4,19.962,0.106,NaN,2019.938,NaN,0.019,1.262e6,4.57,-2.848e-6,0.66,-5.25e-6,0.325,0.215,0.12,NaN,NaN,NaN,NaN,NaN,NaN,NaN,NaN,1.283e-5,165,213.825,80,0,6.436,15,1013.25,340.389,0.01,0.009
0.35,-4.669e-4,-0.093,-9.337,0.095,9.481,-8.232e-5,0,8.232e-5,180,0.016,1.646,22.175,120.893,9.788,90.842,0,0,0,2.8e4,1.35e4,19.962,0.106,NaN,2019.936,NaN,0.019,1.265e6,4.419,-2.847e-6,0.66,-5.225e-6,0.325,0.215,0.12,NaN,NaN,NaN,NaN,NaN,NaN,NaN,NaN,1.284e-5,165,213.825,80,0,6.449,15,1013.25,340.389,0.01,0.009
0.36,-4.67e-4,-0.093,-9.341,0.095,9.485,-8.235e-5,0,8.235e-5,180,0.016,1.647,22.175,120.893,9.788,90.836,0,0,0,2.8e4,1.35e4,19.962,0.106,NaN,2019.935,NaN,0.019,1.275e6,4.317,-2.825e-6,0.659,-5.099e-6,0.324,0.215,0.12,NaN,NaN,NaN,NaN,NaN,NaN,NaN,NaN,1.284e-5,165,213.825,80,0,6.503,15,1013.25,340.389,0.01,0.009
0.37,-4.667e-4,-0.093,-9.333,0.095,9.477,-8.229e-5,0,8.229e-5,180,0.016,1.646,22.175,120.893,9.788,90.828,0,0,0,2.8e4,1.35e4,19.962,0.106,NaN,2019.933,NaN,0.019,1.286e6,4.522,-2.793e-6,0.659,-4.96e-6,0.324,0.215,0.12,NaN,NaN,NaN,NaN,NaN,NaN,NaN,NaN,1.283e-5,165,213.825,80,0,6.557,15,1013.25,340.389,0.01,0.009
0.38,-4.668e-4,-0.093,-9.337,0.095,9.481,-8.232e-5,0,8.232e-5,180,0.016,1.646,22.175,120.893,9.788,90.822,0,0,0,2.8e4,1.35e4,19.962,0.106,NaN,2019.931,NaN,0.019,1.297e6,4.433,-2.771e-6,0.658,-4.841e-6,0.323,0.215,0.12,NaN,NaN,NaN,NaN,NaN,NaN,NaN,NaN,1.284e-5,165,213.825,80,0,6.611,15,1013.25,340.389,0.01,0.01
0.39,-4.664e-4,-0.093,-9.328,0.095,9.472,-8.224e-5,0,8.224e-5,180,0.016,1.645,22.175,120.893,9.788,90.814,0,0,0,2.8e4,1.35e4,19.962,0.106,NaN,2019.93,NaN,0.02,1.307e6,4.673,-2.739e-6,0.658,-4.709e-6,0.323,0.215,0.12,NaN,NaN,NaN,NaN,NaN,NaN,NaN,NaN,1.282e-5,165,213.825,80,0,6.664,15,1013.25,340.389,0.01,0.01
0.4,-4.662e-4,-0.093,-9.323,0.095,9.467,-8.22e-5,0,8.22e-5,180,0.016,1.644,22.175,120.893,9.788,90.807,0,0,0,2.8e4,1.35e4,19.962,0.106,NaN,2019.928,NaN,0.02,1.318e6,4.812,-2.711e-6,0.657,-4.586e-6,0.322,0.215,0.12,NaN,NaN,NaN,NaN,NaN,NaN,NaN,NaN,1.282e-5,165,213.825,80,0,6.718,15,1013.25,340.389,0.01,0.01
0.41,-4.665e-4,-0.093,-9.331,0.095,9.475,-8.226e-5,0,8.226e-5,180,0.016,1.645,22.175,120.893,9.788,90.806,0,0,0,2.8e4,1.35e4,19.962,0.106,NaN,2019.926,NaN,0.02,1.321e6,4.595,-2.71e-6,0.657,-4.558e-6,0.322,0.215,0.12,NaN,NaN,NaN,NaN,NaN,NaN,NaN,NaN,1.283e-5,165,213.825,80,0,6.737,15,1013.25,340.389,0.01,0.01
0.42,-4.665e-4,-0.093,-9.329,0.095,9.473,-8.225e-5,0,8.225e-5,180,0.016,1.645,22.175,120.893,9.788,90.803,0,0,0,2.8e4,1.35e4,19.962,0.106,NaN,2019.924,NaN,0.02,1.325e6,4.638,-2.7e-6,0.657,-4.517e-6,0.322,0.215,0.12,NaN,NaN,NaN,NaN,NaN,NaN,NaN,NaN,1.283e-5,165,213.825,80,0,6.755,15,1013.25,340.389,0.01,0.01
0.43,-4.662e-4,-0.093,-9.323,0.095,9.467,-8.22e-5,0,8.22e-5,180,0.016,1.644,22.175,120.893,9.788,90.801,0,0,0,2.8e4,1.35e4,19.962,0.106,NaN,2019.922,NaN,0.02,1.329e6,4.811,-2.687e-6,0.657,-4.47e-6,0.322,0.215,0.12,NaN,NaN,NaN,NaN,NaN,NaN,NaN,NaN,1.282e-5,165,213.825,80,0,6.774,15,1013.25,340.389,0.01,0.011
0.44,-4.66e-4,-0.093,-9.32,0.095,9.463,-8.216e-5,0,8.216e-5,180,0.016,1.643,22.175,120.893,9.788,90.798,0,0,0,2.8e4,1.35e4,19.962,0.106,NaN,2019.921,NaN,0.02,1.332e6,4.919,-2.676e-6,0.657,-4.427e-6,0.322,0.215,0.12,NaN,NaN,NaN,NaN,NaN,NaN,NaN,NaN,1.281e-5,165,213.825,80,0,6.793,15,1013.25,340.389,0.01,0.011
0.45,-4.666e-4,-0.093,-9.331,0.095,9.475,-8.227e-5,0,8.227e-5,180,0.016,1.645,22.175,120.893,9.788,90.797,0,0,0,2.8e4,1.35e4,19.961,0.106,NaN,2019.919,NaN,0.02,1.336e6,4.583,-2.678e-6,0.657,-4.407e-6,0.321,0.215,0.12,NaN,NaN,NaN,NaN,NaN,NaN,NaN,NaN,1.283e-5,165,213.825,80,0,6.811,15,1013.25,340.389,0.01,0.011
0.46,-4.668e-4,-0.093,-9.337,0.095,9.481,-8.232e-5,0,8.232e-5,180,0.016,1.646,22.175,120.893,9.788,90.807,0,0,0,2.8e4,1.35e4,19.961,0.106,NaN,2019.917,NaN,0.02,1.32e6,4.429,-2.718e-6,0.657,-4.58e-6,0.322,0.215,0.12,NaN,NaN,NaN,NaN,NaN,NaN,NaN,NaN,1.284e-5,165,213.825,80,0,6.73,15,1013.25,340.389,0.01,0.011
0.47,-4.668e-4,-0.093,-9.336,0.095,9.48,-8.231e-5,0,8.231e-5,180,0.016,1.646,22.175,120.893,9.788,90.817,0,0,0,2.8e4,1.35e4,19.961,0.106,NaN,2019.915,NaN,0.02,1.304e6,4.45,-2.753e-6,0.658,-4.753e-6,0.323,0.215,0.12,NaN,NaN,NaN,NaN,NaN,NaN,NaN,NaN,1.284e-5,165,213.825,80,0,6.65,15,1013.25,340.389,0.01,0.011
0.48,-4.66e-4,-0.093,-9.32,0.095,9.464,-8.217e-5,0,8.217e-5,180,0.016,1.643,22.175,120.893,9.788,90.825,0,0,0,2.8e4,1.35e4,19.961,0.106,NaN,2019.914,NaN,0.019,1.288e6,4.905,-2.776e-6,0.659,-4.911e-6,0.324,0.215,0.12,NaN,NaN,NaN,NaN,NaN,NaN,NaN,NaN,1.281e-5,165,213.825,80,0,6.569,15,1013.25,340.389,0.01,0.012
0.49,-4.663e-4,-0.093,-9.326,0.095,9.469,-8.222e-5,0,8.222e-5,180,0.016,1.644,22.175,120.893,9.788,90.836,0,0,0,2.8e4,1.35e4,19.961,0.106,NaN,2019.912,NaN,0.019,1.273e6,4.746,-2.818e-6,0.66,-5.111e-6,0.324,0.215,0.12,NaN,NaN,NaN,NaN,NaN,NaN,NaN,NaN,1.282e-5,165,213.825,80,0,6.488,15,1013.25,340.389,0.01,0.012
0.5,-4.668e-4,-0.093,-9.335,0.095,9.479,-8.23e-5,0,8.23e-5,180,0.016,1.646,22.175,120.893,9.788,90.848,0,0,0,2.8e4,1.35e4,19.961,0.106,NaN,2019.91,NaN,0.019,1.257e6,4.47,-2.866e-6,0.66,-5.329e-6,0.325,0.215,0.12,NaN,NaN,NaN,NaN,NaN,NaN,NaN,NaN,1.283e-5,165,213.825,80,0,6.407,15,1013.25,340.389,0.01,0.012
0.51,-4.664e-4,-0.093,-9.329,0.095,9.473,-8.225e-5,0,8.225e-5,180,0.016,1.645,22.175,120.893,9.788,90.848,0,0,0,2.8e4,1.35e4,19.961,0.106,NaN,2019.908,NaN,0.019,1.256e6,4.657,-2.861e-6,0.66,-5.327e-6,0.325,0.215,0.12,NaN,NaN,NaN,NaN,NaN,NaN,NaN,NaN,1.283e-5,165,213.825,80,0,6.404,15,1013.25,340.389,0.01,0.012
0.52,-4.656e-4,-0.093,-9.313,0.095,9.456,-8.21e-5,0,8.21e-5,180,0.016,1.642,22.175,120.893,9.788,90.847,0,0,0,2.8e4,1.35e4,19.961,0.106,NaN,2019.906,NaN,0.019,1.255e6,5.115,-2.848e-6,0.66,-5.308e-6,0.325,0.215,0.12,NaN,NaN,NaN,NaN,NaN,NaN,NaN,NaN,1.28e-5,165,213.825,80,0,6.4,15,1013.25,340.389,0.01,0.012
0.53,-4.652e-4,-0.093,-9.305,0.094,9.448,-8.203e-5,0,8.203e-5,180,0.016,1.641,22.175,120.893,9.788,90.846,0,0,0,2.8e4,1.35e4,19.961,0.106,NaN,2019.904,NaN,0.019,1.255e6,5.339,-2.843e-6,0.66,-5.304e-6,0.325,0.215,0.12,NaN,NaN,NaN,NaN,NaN,NaN,NaN,NaN,1.279e-5,165,213.825,80,0,6.396,15,1013.25,340.389,0.01,0.012
0.54,-4.665e-4,-0.093,-9.329,0.095,9.473,-8.225e-5,0,8.225e-5,180,0.016,1.645,22.175,120.893,9.788,90.849,0,0,0,2.8e4,1.35e4,19.961,0.106,NaN,2019.903,NaN,0.019,1.254e6,4.638,-2.867e-6,0.661,-5.355e-6,0.325,0.215,0.12,NaN,NaN,NaN,NaN,NaN,NaN,NaN,NaN,1.283e-5,165,213.825,80,0,6.393,15,1013.25,340.389,0.01,0.013
0.55,-4.661e-4,-0.093,-9.323,0.095,9.467,-8.219e-5,0,8.219e-5,180,0.016,1.644,22.175,120.893,9.788,90.849,0,0,0,2.8e4,1.35e4,19.961,0.106,NaN,2019.901,NaN,0.019,1.253e6,4.82,-2.863e-6,0.661,-5.353e-6,0.325,0.215,0.12,NaN,NaN,NaN,NaN,NaN,NaN,NaN,NaN,1.282e-5,165,213.825,80,0,6.389,15,1013.25,340.389,0.01,0.013
0.56,-4.656e-4,-0.093,-9.312,0.095,9.455,-8.21e-5,0,8.21e-5,180,0.016,1.642,22.175,120.893,9.788,90.84,0,0,0,2.8e4,1.35e4,19.961,0.106,NaN,2019.899,NaN,0.019,1.265e6,5.14,-2.824e-6,0.66,-5.183e-6,0.325,0.215,0.12,NaN,NaN,NaN,NaN,NaN,NaN,NaN,NaN,1.28e-5,165,213.825,80,0,6.449,15,1013.25,340.389,0.01,0.013
0.57,-4.655e-4,-0.093,-9.311,0.095,9.455,-8.209e-5,0,8.209e-5,180,0.016,1.642,22.175,120.893,9.788,90.832,0,0,0,2.8e4,1.35e4,19.961,0.106,NaN,2019.897,NaN,0.019,1.277e6,5.164,-2.795e-6,0.659,-5.036e-6,0.324,0.215,0.12,NaN,NaN,NaN,NaN,NaN,NaN,NaN,NaN,1.28e-5,165,213.825,80,0,6.509,15,1013.25,340.389,0.01,0.013
0.58,-4.656e-4,-0.093,-9.312,0.095,9.456,-8.21e-5,0,8.21e-5,180,0.016,1.642,22.175,120.893,9.788,90.825,0,0,0,2.8e4,1.35e4,19.961,0.106,NaN,2019.895,NaN,0.019,1.288e6,5.125,-2.768e-6,0.659,-4.898e-6,0.324,0.215,0.12,NaN,NaN,NaN,NaN,NaN,NaN,NaN,NaN,1.28e-5,165,213.825,80,0,6.569,15,1013.25,340.389,0.01,0.013
0.59,-4.653e-4,-0.093,-9.306,0.094,9.45,-8.205e-5,0,8.205e-5,180,0.016,1.641,22.175,120.893,9.788,90.817,0,0,0,2.8e4,1.35e4,19.961,0.106,NaN,2019.893,NaN,0.019,1.3e6,5.296,-2.736e-6,0.658,-4.753e-6,0.323,0.215,0.12,NaN,NaN,NaN,NaN,NaN,NaN,NaN,NaN,1.279e-5,165,213.825,80,0,6.629,15,1013.25,340.389,0.01,0.014
0.6,-4.648e-4,-0.093,-9.297,0.094,9.44,-8.196e-5,0,8.196e-5,180,0.016,1.639,22.175,120.893,9.788,90.809,0,0,0,2.8e4,1.349e4,19.961,0.106,NaN,2019.891,NaN,0.02,1.312e6,5.567,-2.701e-6,0.658,-4.609e-6,0.323,0.215,0.12,NaN,NaN,NaN,NaN,NaN,NaN,NaN,NaN,1.278e-5,165,213.825,80,0,6.689,15,1013.25,340.389,0.01,0.014
0.61,-4.646e-4,-0.093,-9.291,0.094,9.435,-8.192e-5,0,8.192e-5,180,0.016,1.638,22.175,120.893,9.788,90.812,0,0,0,2.8e4,1.349e4,19.961,0.106,NaN,2019.889,NaN,0.02,1.305e6,5.717,-2.711e-6,0.658,-4.674e-6,0.323,0.215,0.12,NaN,NaN,NaN,NaN,NaN,NaN,NaN,NaN,1.277e-5,165,213.825,80,0,6.655,15,1013.25,340.389,0.01,0.014
0.62,-4.652e-4,-0.093,-9.304,0.094,9.447,-8.203e-5,0,8.203e-5,180,0.016,1.641,22.175,120.893,9.788,90.817,0,0,0,2.8e4,1.349e4,19.961,0.106,NaN,2019.887,NaN,0.019,1.299e6,5.366,-2.737e-6,0.658,-4.767e-6,0.323,0.215,0.12,NaN,NaN,NaN,NaN,NaN,NaN,NaN,NaN,1.279e-5,165,213.825,80,0,6.621,15,1013.25,340.389,0.01,0.014
0.63,-4.643e-4,-0.093,-9.287,0.094,9.43,-8.188e-5,0,8.188e-5,180,0.016,1.638,22.175,120.893,9.788,90.82,0,0,0,2.799e4,1.349e4,19.961,0.106,NaN,2019.884,NaN,0.019,1.292e6,5.844,-2.738e-6,0.659,-4.817e-6,0.323,0.215,0.12,NaN,NaN,NaN,NaN,NaN,NaN,NaN,NaN,1.277e-5,165,213.825,80,0,6.587,15,1013.25,340.389,0.01,0.014
0.64,-4.645e-4,-0.093,-9.289,0.094,9.432,-8.19e-5,0,8.19e-5,180,0.016,1.638,22.175,120.893,9.788,90.825,0,0,0,2.799e4,1.349e4,19.961,0.106,NaN,2019.882,NaN,0.019,1.285e6,5.786,-2.755e-6,0.659,-4.897e-6,0.324,0.215,0.12,NaN,NaN,NaN,NaN,NaN,NaN,NaN,NaN,1.277e-5,165,213.825,80,0,6.553,15,1013.25,340.389,0.01,0.014
0.65,-4.641e-4,-0.093,-9.283,0.094,9.426,-8.184e-5,0,8.184e-5,180,0.016,1.637,22.175,120.893,9.788,90.828,0,0,0,2.799e4,1.349e4,19.961,0.106,NaN,2019.88,NaN,0.019,1.279e6,5.968,-2.765e-6,0.659,-4.966e-6,0.324,0.215,0.12,NaN,NaN,NaN,NaN,NaN,NaN,NaN,NaN,1.276e-5,165,213.825,80,0,6.519,15,1013.25,340.389,0.01,0.015
0.66,-4.631e-4,-0.093,-9.262,0.094,9.405,-8.166e-5,0,8.166e-5,180,0.016,1.633,22.175,120.893,9.788,90.831,0,0,0,2.799e4,1.349e4,19.961,0.106,NaN,2019.877,NaN,0.019,1.272e6,6.551,-2.763e-6,0.66,-5.016e-6,0.324,0.215,0.12,NaN,NaN,NaN,NaN,NaN,NaN,NaN,NaN,1.273e-5,165,213.825,80,0,6.484,15,1013.25,340.389,0.01,0.015
0.67,-4.628e-4,-0.093,-9.256,0.094,9.399,-8.161e-5,0,8.161e-5,180,0.016,1.632,22.175,120.893,9.788,90.835,0,0,0,2.799e4,1.349e4,19.961,0.106,NaN,2019.875,NaN,0.019,1.265e6,6.72,-2.774e-6,0.66,-5.091e-6,0.325,0.215,0.12,NaN,NaN,NaN,NaN,NaN,NaN,NaN,NaN,1.273e-5,165,213.825,80,0,6.449,15,1013.25,340.389,0.01,0.015
0.68,-4.618e-4,-0.092,-9.236,0.094,9.378,-8.143e-5,0,8.143e-5,180,0.016,1.629,22.175,120.893,9.788,90.838,0,0,0,2.799e4,1.349e4,19.961,0.106,NaN,2019.872,NaN,0.019,1.258e6,7.299,-2.772e-6,0.66,-5.143e-6,0.325,0.215,0.12,NaN,NaN,NaN,NaN,NaN,NaN,NaN,NaN,1.27e-5,165,213.825,80,0,6.414,15,1013.25,340.389,0.01,0.015
0.69,-4.615e-4,-0.092,-9.23,0.094,9.372,-8.137e-5,0,8.137e-5,180,0.016,1.627,22.175,120.893,9.788,90.842,0,0,0,2.799e4,1.349e4,19.961,0.106,NaN,2019.869,NaN,0.019,1.251e6,7.467,-2.783e-6,0.661,-5.221e-6,0.325,0.215,0.12,NaN,NaN,NaN,NaN,NaN,NaN,NaN,NaN,1.269e-5,165,213.825,80,0,6.379,15,1013.25,340.389,0.01,0.015
0.7,-4.606e-4,-0.092,-9.213,0.094,9.355,-8.122e-5,0,8.122e-5,180,0.016,1.624,22.175,120.893,9.788,90.845,0,0,0,2.799e4,1.349e4,19.961,0.106,NaN,2019.866,NaN,0.019,1.244e6,7.951,-2.785e-6,0.661,-5.282e-6,0.326,0.215,0.12,NaN,NaN,NaN,NaN,NaN,NaN,NaN,NaN,1.267e-5,165,213.825,80,0,6.344,15,1013.25,340.389,0.01,0.016
0.71,-4.589e-4,-0.092,-9.178,0.093,9.32,-8.092e-5,0,8.092e-5,180,0.016,1.618,22.175,120.893,9.788,90.831,0,0,0,2.799e4,1.349e4,19.96,0.106,NaN,2019.863,NaN,0.019,1.26e6,8.938,-2.715e-6,0.66,-5.019e-6,0.325,0.215,0.12,NaN,NaN,NaN,NaN,NaN,NaN,NaN,NaN,1.262e-5,165,213.825,80,0,6.426,15,1013.25,340.389,0.01,0.016
0.72,-4.583e-4,-0.092,-9.167,0.093,9.308,-8.082e-5,0,8.082e-5,180,0.016,1.616,22.175,120.893,9.788,90.819,0,0,0,2.799e4,1.349e4,19.96,0.106,NaN,2019.859,NaN,0.019,1.277e6,9.255,-2.668e-6,0.659,-4.808e-6,0.324,0.215,0.12,NaN,NaN,NaN,NaN,NaN,NaN,NaN,NaN,1.26e-5,165,213.825,80,0,6.509,15,1013.25,340.389,0.01,0.016
0.73,-4.567e-4,-0.091,-9.134,0.093,9.275,-8.053e-5,0,8.053e-5,180,0.016,1.611,22.175,120.893,9.788,90.806,0,0,0,2.799e4,1.349e4,19.96,0.106,NaN,2019.855,NaN,0.019,1.293e6,10.185,-2.604e-6,0.659,-4.576e-6,0.323,0.215,0.12,NaN,NaN,NaN,NaN,NaN,NaN,NaN,NaN,1.256e-5,165,213.825,80,0,6.591,15,1013.25,340.389,0.01,0.016
0.74,-4.548e-4,-0.091,-9.096,0.092,9.236,-8.019e-5,0,8.019e-5,180,0.016,1.604,22.175,120.893,9.788,90.793,0,0,0,2.799e4,1.349e4,19.96,0.106,NaN,2019.851,NaN,0.02,1.309e6,11.275,-2.537e-6,0.658,-4.349e-6,0.323,0.215,0.12,NaN,NaN,NaN,NaN,NaN,NaN,NaN,NaN,1.251e-5,165,213.825,80,0,6.673,15,1013.25,340.389,0.01,0.016
0.75,-4.53e-4,-0.091,-9.059,0.092,9.199,-7.987e-5,0,7.987e-5,180,0.016,1.597,22.175,120.893,9.788,90.78,0,0,0,2.799e4,1.349e4,19.96,0.106,NaN,2019.846,NaN,0.02,1.325e6,12.322,-2.473e-6,0.657,-4.137e-6,0.322,0.215,0.12,NaN,NaN,NaN,NaN,NaN,NaN,NaN,NaN,1.245e-5,165,213.825,80,0,6.755,15,1013.25,340.389,0.01,0.016
0.76,-4.506e-4,-0.09,-9.012,0.092,9.151,-7.945e-5,0,7.945e-5,180,0.016,1.589,22.175,120.893,9.788,90.764,0,0,0,2.799e4,1.349e4,19.96,0.106,NaN,2019.841,NaN,0.02,1.347e6,13.663,-2.392e-6,0.656,-3.874e-6,0.321,0.215,0.12,NaN,NaN,NaN,NaN,NaN,NaN,NaN,NaN,1.239e-5,165,213.825,80,0,6.866,15,1013.25,340.389,0.01,0.017
0.77,-4.495e-4,-0.09,-8.989,0.091,9.128,-7.925e-5,0,7.925e-5,180,0.016,1.585,22.175,120.893,9.788,90.75,0,0,0,2.799e4,1.349e4,19.96,0.106,NaN,2019.836,NaN,0.02,1.368e6,14.302,-2.334e-6,0.655,-3.661e-6,0.32,0.215,0.12,NaN,NaN,NaN,NaN,NaN,NaN,NaN,NaN,1.236e-5,165,213.825,80,0,6.976,15,1013.25,340.389,0.01,0.017
0.78,-4.469e-4,-0.089,-8.938,0.091,9.076,-7.88e-5,0,7.88e-5,180,0.016,1.576,22.175,120.893,9.788,90.734,0,0,0,2.799e4,1.349e4,19.96,0.106,NaN,2019.83,NaN,0.021,1.39e6,15.77,-2.255e-6,0.654,-3.428e-6,0.319,0.215,0.12,NaN,NaN,NaN,NaN,NaN,NaN,NaN,NaN,1.229e-5,165,213.825,80,0,7.086,15,1013.25,340.389,0.01,0.017
0.79,-4.449e-4,-0.089,-8.897,0.09,9.034,-7.844e-5,0,7.844e-5,180,0.016,1.569,22.175,120.893,9.788,90.719,0,0,0,2.799e4,1.349e4,19.96,0.106,NaN,2019.823,NaN,0.021,1.411e6,16.927,-2.187e-6,0.653,-3.224e-6,0.318,0.215,0.12,NaN,NaN,NaN,NaN,NaN,NaN,NaN,NaN,1.223e-5,165,213.825,80,0,7.197,15,1013.25,340.389,0.01,0.017
0.8,-4.428e-4,-0.089,-8.855,0.09,8.992,-7.807e-5,0,7.807e-5,180,0.016,1.561,22.175,120.893,9.788,90.705,0,0,0,2.799e4,1.349e4,19.96,0.106,NaN,2019.816,NaN,0.021,1.433e6,18.121,-2.121e-6,0.652,-3.033e-6,0.317,0.215,0.12,NaN,NaN,NaN,NaN,NaN,NaN,NaN,NaN,1.217e-5,165,213.825,80,0,7.307,15,1013.25,340.389,0.01,0.017
0.81,-4.404e-4,-0.088,-8.809,0.089,8.945,-7.766e-5,0,7.766e-5,180,0.016,1.553,22.175,120.893,9.788,90.711,0,0,0,2.799e4,1.349e4,19.96,0.106,NaN,2019.809,NaN,0.021,1.415e6,19.438,-2.118e-6,0.653,-3.108e-6,0.318,0.215,0.12,NaN,NaN,NaN,NaN,NaN,NaN,NaN,NaN,1.211e-5,165,213.825,80,0,7.212,15,1013.25,340.389,0.01,0.018
0.82,-4.392e-4,-0.088,-8.783,0.089,8.919,-7.744e-5,0,7.744e-5,180,0.015,1.549,22.175,120.893,9.788,90.718,0,0,0,2.799e4,1.349e4,19.959,0.106,NaN,2019.801,NaN,0.021,1.396e6,20.155,-2.13e-6,0.654,-3.21e-6,0.319,0.215,0.12,NaN,NaN,NaN,NaN,NaN,NaN,NaN,NaN,1.208e-5,165,213.825,80,0,7.118,15,1013.25,340.389,0.01,0.018
0.83,-4.343e-4,-0.087,-8.687,0.088,8.821,-7.659e-5,0,7.659e-5,180,0.015,1.532,22.175,120.893,9.788,90.72,0,0,0,2.799e4,1.349e4,19.959,0.106,NaN,2019.793,NaN,0.021,1.378e6,22.899,-2.091e-6,0.655,-3.236e-6,0.319,0.215,0.12,NaN,NaN,NaN,NaN,NaN,NaN,NaN,NaN,1.194e-5,165,213.825,80,0,7.024,15,1013.25,340.389,0.01,0.018
0.84,-4.256e-4,-0.085,-8.511,0.086,8.643,-7.504e-5,0,7.504e-5,180,0.015,1.501,22.175,120.893,9.788,90.715,0,0,0,2.799e4,1.349e4,19.959,0.106,NaN,2019.782,NaN,0.02,1.359e6,27.886,-1.996e-6,0.656,-3.174e-6,0.32,0.215,0.12,NaN,NaN,NaN,NaN,NaN,NaN,NaN,NaN,1.17e-5,165,213.825,80,0,6.929,15,1013.25,340.389,0.01,0.018
0.85,-4.183e-4,-0.084,-8.365,0.085,8.494,-7.375e-5,0,7.375e-5,180,0.015,1.475,22.175,120.893,9.788,90.712,0,0,0,2.799e4,1.349e4,19.959,0.106,NaN,2019.77,NaN,0.02,1.341e6,32.036,-1.924e-6,0.656,-3.144e-6,0.321,0.215,0.12,NaN,NaN,NaN,NaN,NaN,NaN,NaN,NaN,1.15e-5,165,213.825,80,0,6.835,15,1013.25,340.389,0.01,0.018
0.86,-4.106e-4,-0.082,-8.212,0.083,8.339,-7.24e-5,0,7.24e-5,180,0.014,1.448,22.175,120.893,9.788,90.7,0,0,0,2.799e4,1.349e4,19.959,0.106,NaN,2019.756,NaN,0.02,1.339e6,36.392,-1.823e-6,0.656,-2.985e-6,0.321,0.215,0.12,NaN,NaN,NaN,NaN,NaN,NaN,NaN,NaN,1.129e-5,165,213.825,80,0,6.827,15,1013.25,340.389,0.01,0.018
0.87,-4.032e-4,-0.081,-8.065,0.082,8.189,-7.11e-5,0,7.11e-5,180,0.014,1.422,22.175,120.893,9.788,90.688,0,0,0,2.799e4,1.349e4,19.958,0.106,NaN,2019.74,NaN,0.02,1.337e6,40.581,-1.729e-6,0.656,-2.838e-6,0.321,0.215,0.12,NaN,NaN,NaN,NaN,NaN,NaN,NaN,NaN,1.109e-5,165,213.825,80,0,6.819,15,1013.25,340.389,0.01,0.019
0.88,-3.96e-4,-0.079,-7.92,0.08,8.042,-6.983e-5,0,6.983e-5,180,0.014,1.397,22.175,120.893,9.788,90.677,0,0,0,2.799e4,1.349e4,19.958,0.106,NaN,2019.723,NaN,0.02,1.336e6,44.682,-1.64e-6,0.657,-2.698e-6,0.321,0.215,0.12,NaN,NaN,NaN,NaN,NaN,NaN,NaN,NaN,1.089e-5,165,213.825,80,0,6.811,15,1013.25,340.389,0.01,0.019
0.89,-3.897e-4,-0.078,-7.793,0.079,7.913,-6.871e-5,0,6.871e-5,180,0.014,1.374,22.175,120.893,9.788,90.666,0,0,0,2.799e4,1.349e4,19.958,0.106,NaN,2019.705,NaN,0.02,1.334e6,48.294,-1.564e-6,0.657,-2.58e-6,0.321,0.215,0.12,NaN,NaN,NaN,NaN,NaN,NaN,NaN,NaN,1.071e-5,165,213.825,80,0,6.803,15,1013.25,340.389,0.01,0.019
0.9,-3.836e-4,-0.077,-7.671,0.078,7.79,-6.763e-5,0,6.763e-5,180,0.014,1.353,22.175,120.893,9.788,90.657,0,0,0,2.799e4,1.349e4,19.957,0.106,NaN,2019.685,NaN,0.02,1.333e6,51.752,-1.494e-6,0.657,-2.47e-6,0.322,0.215,0.12,NaN,NaN,NaN,NaN,NaN,NaN,NaN,NaN,1.055e-5,165,213.825,80,0,6.795,15,1013.25,340.389,0.01,0.019
0.91,-3.755e-4,-0.075,-7.511,0.076,7.626,-6.622e-5,0,6.622e-5,180,0.013,1.324,22.175,120.893,9.788,90.642,0,0,0,2.798e4,1.348e4,19.957,0.106,NaN,2019.664,NaN,0.02,1.334e6,56.319,-1.401e-6,0.657,-2.311e-6,0.321,0.215,0.12,NaN,NaN,NaN,NaN,NaN,NaN,NaN,NaN,1.033e-5,165,213.825,80,0,6.803,15,1013.25,340.389,0.01,0.019
0.92,-3.677e-4,-0.074,-7.355,0.075,7.468,-6.484e-5,0,6.484e-5,180,0.013,1.297,22.175,120.893,9.788,90.628,0,0,0,2.798e4,1.348e4,19.957,0.106,NaN,2019.641,NaN,0.02,1.336e6,60.748,-1.314e-6,0.657,-2.163e-6,0.321,0.215,0.12,NaN,NaN,NaN,NaN,NaN,NaN,NaN,NaN,1.011e-5,165,213.825,80,0,6.81,15,1013.25,340.389,0.01,0.02
0.93,-3.56e-4,-0.071,-7.121,0.072,7.231,-6.278e-5,0,6.278e-5,180,0.013,1.256,22.175,120.893,9.788,90.608,0,0,0,2.798e4,1.348e4,19.956,0.106,NaN,2019.615,NaN,0.02,1.337e6,67.387,-1.191e-6,0.657,-1.957e-6,0.321,0.215,0.12,NaN,NaN,NaN,NaN,NaN,NaN,NaN,NaN,9.79e-6,165,213.825,80,0,6.818,15,1013.25,340.389,0.01,0.02
0.94,-3.418e-4,-0.068,-6.837,0.069,6.942,-6.028e-5,0,6.028e-5,180,0.012,1.206,22.175,120.893,9.788,90.583,0,0,0,2.798e4,1.348e4,19.956,0.106,NaN,2019.586,NaN,0.02,1.339e6,75.455,-1.053e-6,0.656,-1.726e-6,0.321,0.215,0.12,NaN,NaN,NaN,NaN,NaN,NaN,NaN,NaN,9.4e-6,165,213.825,80,0,6.825,15,1013.25,340.389,0.01,0.02
0.95,-3.257e-4,-0.065,-6.515,0.066,6.615,-5.744e-5,0,5.744e-5,180,0.011,1.149,22.175,120.893,9.788,90.555,0,0,0,2.798e4,1.348e4,19.955,0.106,NaN,2019.554,NaN,0.02,1.34e6,84.603,-9.105e-7,0.656,-1.489e-6,0.321,0.215,0.12,NaN,NaN,NaN,NaN,NaN,NaN,NaN,NaN,8.957e-6,165,213.825,80,0,6.833,15,1013.25,340.389,0.01,0.02
0.96,-3.058e-4,-0.061,-6.116,0.062,6.21,-5.392e-5,0,5.392e-5,180,0.011,1.078,22.175,120.893,9.788,90.52,0,0,0,2.798e4,1.348e4,19.954,0.106,NaN,2019.517,NaN,0.02,1.343e6,95.934,-7.519e-7,0.656,-1.225e-6,0.321,0.215,0.12,NaN,NaN,NaN,NaN,NaN,NaN,NaN,NaN,8.408e-6,165,213.825,80,0,6.847,15,1013.25,340.389,0.01,0.02
0.97,-2.857e-4,-0.057,-5.714,0.058,5.803,-5.038e-5,0,5.038e-5,180,0.01,1.008,22.175,120.893,9.788,90.485,0,0,0,2.798e4,1.348e4,19.954,0.106,NaN,2019.476,NaN,0.02,1.345e6,107.326,-6.122e-7,0.656,-9.932e-7,0.321,0.215,0.12,NaN,NaN,NaN,NaN,NaN,NaN,NaN,NaN,7.856e-6,165,213.825,80,0,6.86,15,1013.25,340.389,0.01,0.02
0.98,-2.598e-4,-0.052,-5.196,0.053,5.276,-4.581e-5,0,4.581e-5,180,0.009,0.916,22.175,120.893,9.788,90.44,0,0,0,2.797e4,1.347e4,19.953,0.106,NaN,2019.43,NaN,0.02,1.348e6,122.033,-4.596e-7,0.656,-7.426e-7,0.321,0.215,0.12,NaN,NaN,NaN,NaN,NaN,NaN,NaN,NaN,7.144e-6,165,213.825,80,0,6.874,15,1013.25,340.389,0.01,0.021
0.99,-2.264e-4,-0.045,-4.527,0.046,4.597,-3.992e-5,0,3.992e-5,180,0.008,0.798,22.175,120.893,9.788,90.382,0,0,0,2.797e4,1.347e4,19.952,0.106,NaN,2019.376,NaN,0.02,1.351e6,141.022,-3.035e-7,0.656,-4.884e-7,0.321,0.215,0.12,NaN,NaN,NaN,NaN,NaN,NaN,NaN,NaN,6.225e-6,165,213.825,80,0,6.888,15,1013.25,340.389,0.01,0.021
1,-1.775e-4,-0.035,-3.549,0.036,3.604,-3.129e-5,0,3.129e-5,180,0.006,0.626,22.175,120.893,9.788,90.299,0,0,0,2.797e4,1.347e4,19.951,0.106,NaN,2019.312,NaN,0.02,1.354e6,168.795,-1.46e-7,0.656,-2.34e-7,0.321,0.215,0.12,NaN,NaN,NaN,NaN,NaN,NaN,NaN,NaN,4.88e-6,165,213.825,80,0,6.902,15,1013.25,340.389,0.01,0.021
1.01,-1.08e-4,-0.022,-2.16,0.022,2.193,-1.905e-5,0,1.905e-5,180,0.004,0.381,22.175,120.893,9.788,90.183,0,0,0,2.796e4,1.346e4,19.949,0.106,NaN,2019.232,NaN,0.02,1.344e6,208.221,-3.321e-8,0.656,-5.398e-8,0.321,0.215,0.12,NaN,NaN,NaN,NaN,NaN,NaN,NaN,NaN,2.97e-6,165,213.825,80,0,6.854,15,1013.25,340.389,0.01,0.021
1.02,-4.34e-5,-0.009,-0.867,0.009,0.88,-7.652e-6,0,7.652e-6,180,0.002,0.153,22.175,120.893,9.788,90.074,0,0,0,2.796e4,1.346e4,19.948,0.106,NaN,2019.139,NaN,0.02,1.335e6,244.886,0,0.657,0,0.321,0.215,0.12,NaN,NaN,NaN,NaN,NaN,NaN,NaN,NaN,1.193e-6,165,213.825,80,0,6.806,15,1013.25,340.389,0.01,0.021
1.03,2.651e-5,0.005,0.532,0.005,0.54,4.675e-6,0,4.675e-6,0,9.356e-4,0.094,22.175,120.893,9.788,89.954,0,0,0,2.795e4,1.345e4,19.946,0.106,NaN,2019.03,NaN,0.02,1.325e6,284.538,0,0.657,0,0.322,0.215,0.12,NaN,NaN,NaN,NaN,NaN,NaN,NaN,NaN,7.294e-7,165,213.825,80,0,6.758,15,1013.25,340.389,0.01,0.022
1.04,1.812e-4,0.026,2.035,0.026,2.066,3.196e-5,0,3.196e-5,0,0.005,0.359,22.175,120.893,9.788,89.778,0,0,0,2.795e4,1.345e4,19.943,0.106,NaN,2018.905,NaN,0.02,1.316e6,327.142,5.683e-8,0.658,9.639e-8,0.322,0.215,0.12,NaN,NaN,NaN,NaN,NaN,NaN,NaN,NaN,3.525e-6,165,213.825,80,0,6.71,15,1013.25,340.389,0.01,0.022
1.05,6.197e-4,0.062,3.643,0.063,3.699,1.093e-4,0,1.093e-4,0,0.011,0.642,22.175,120.893,9.788,89.458,0,0,0,2.794e4,1.344e4,19.941,0.106,NaN,2018.763,NaN,0.02,1.307e6,372.693,8.092e-7,0.658,1.392e-6,0.323,0.215,0.12,NaN,NaN,NaN,NaN,NaN,NaN,NaN,NaN,8.532e-6,165,213.825,80,0,6.662,15,1013.25,340.389,0.01,0.022
1.06,0.002,0.118,5.603,0.12,5.689,2.681e-4,0,2.681e-4,0,0.021,0.988,22.175,120.893,9.788,88.971,0,0,0,2.793e4,1.343e4,19.938,0.106,NaN,2018.599,NaN,0.02,1.309e6,428.171,5.533e-6,0.658,9.483e-6,0.323,0.215,0.12,NaN,NaN,NaN,NaN,NaN,NaN,NaN,NaN,1.623e-5,165,213.825,80,0,6.674,15,1013.25,340.389,0.01,0.022
1.07,0.003,0.193,7.537,0.196,7.653,5.427e-4,0,5.427e-4,0,0.034,1.329,22.175,120.893,9.788,88.318,0,0,0,2.792e4,1.342e4,19.935,0.106,NaN,2018.415,NaN,0.02,1.312e6,482.882,2.411e-5,0.658,4.115e-5,0.323,0.215,0.12,NaN,NaN,NaN,NaN,NaN,NaN,NaN,NaN,2.659e-5,165,213.825,80,0,6.686,15,1013.25,340.389,0.01,0.022
1.08,0.005,0.291,9.756,0.295,9.907,9.697e-4,0,9.697e-4,0,0.051,1.72,22.175,120.893,9.788,87.475,0,0,0,2.791e4,1.341e4,19.931,0.106,NaN,2018.206,NaN,0.02,1.315e6,545.617,8.118e-5,0.658,1.379e-4,0.322,0.215,0.12,NaN,NaN,NaN,NaN,NaN,NaN,NaN,NaN,4e-5,165,213.825,80,0,6.698,15,1013.249,340.389,0.01,0.022
1.09,0.009,0.414,12.278,0.42,12.468,0.002,0,0.002,0,0.073,2.165,22.175,120.893,9.788,86.418,0,0,0,2.79e4,1.34e4,19.927,0.106,NaN,2017.969,NaN,0.02,1.319e6,616.859,2.303e-4,0.657,3.89e-4,0.322,0.215,0.12,NaN,NaN,NaN,NaN,NaN,NaN,NaN,NaN,5.687e-5,165,213.825,80,0,6.71,15,1013.249,340.389,0.01,0.023
1.1,0.014,0.565,15.164,0.574,15.398,0.002,0,0.002,0,0.1,2.674,22.175,120.893,9.788,85.12,0,0,0,2.789e4,1.339e4,19.922,0.106,NaN,2017.702,NaN,0.02,1.323e6,698.307,5.782e-4,0.657,9.698e-4,0.322,0.215,0.12,NaN,NaN,NaN,NaN,NaN,NaN,NaN,NaN,7.771e-5,165,213.825,80,0,6.722,15,1013.248,340.389,0.01,0.023
1.11,0.02,0.747,18.205,0.759,18.485,0.004,0,0.004,0,0.132,3.21,22.175,120.893,9.788,83.558,0,0,0,2.788e4,1.338e4,19.917,0.106,NaN,2017.401,NaN,0.02,1.326e6,784.022,0.001,0.657,0.002,0.322,0.215,0.12,NaN,NaN,NaN,NaN,NaN,NaN,NaN,NaN,1.027e-4,165,213.825,80,0,6.72,15,1013.248,340.389,0.01,0.023
1.12,0.029,0.96,21.325,0.975,21.654,0.005,0,0.005,0,0.169,3.76,22.175,120.893,9.788,81.74,0,0,0,2.786e4,1.336e4,19.911,0.106,NaN,2017.066,NaN,0.02,1.331e6,871.849,0.003,0.657,0.005,0.322,0.215,0.12,NaN,NaN,NaN,NaN,NaN,NaN,NaN,NaN,1.32e-4,165,213.825,80,0,6.718,15,1013.247,340.389,0.01,0.023
1.13,0.04,1.205,24.499,1.224,24.877,0.007,0,0.007,0,0.213,4.32,22.175,120.893,9.788,79.672,0,0,0,2.784e4,1.334e4,19.904,0.106,NaN,2016.696,NaN,0.02,1.339e6,961.049,0.005,0.656,0.009,0.321,0.215,0.12,NaN,NaN,NaN,NaN,NaN,NaN,NaN,NaN,1.657e-4,165,213.825,80,0,6.716,15,1013.245,340.389,0.01,0.023
1.14,0.053,1.479,27.39,1.502,27.812,0.009,0,0.009,0,0.261,4.83,22.175,120.893,9.788,77.39,0,0,0,2.782e4,1.332e4,19.897,0.106,NaN,2016.295,NaN,0.02,1.349e6,1042.073,0.009,0.656,0.015,0.321,0.215,0.12,NaN,NaN,NaN,NaN,NaN,NaN,NaN,NaN,2.033e-4,165,213.825,80,0,6.714,15,1013.244,340.389,0.01,0.024
1.15,0.07,1.778,29.894,1.805,30.355,0.012,0,0.012,0,0.313,5.271,22.175,120.893,9.788,74.945,0,0,0,2.78e4,1.33e4,19.889,0.106,NaN,2015.866,NaN,0.02,1.363e6,1112.029,0.016,0.655,0.025,0.32,0.215,0.12,NaN,NaN,NaN,NaN,NaN,NaN,NaN,NaN,2.444e-4,165,213.825,80,0,6.711,15,1013.242,340.389,0.01,0.024
1.16,0.089,2.098,32.069,2.131,32.564,0.016,0,0.016,0,0.37,5.655,22.175,120.893,9.788,72.359,0,0,0,2.778e4,1.328e4,19.881,0.106,NaN,2015.413,NaN,0.021,1.379e6,1172.553,0.025,0.655,0.039,0.319,0.215,0.12,NaN,NaN,NaN,NaN,NaN,NaN,NaN,NaN,2.885e-4,165,213.825,80,0,6.7,14.999,1013.24,340.389,0.01,0.024
1.17,0.112,2.436,33.792,2.474,34.313,0.02,0,0.02,0,0.43,5.958,22.175,120.893,9.788,69.705,0,0,0,2.776e4,1.326e4,19.873,0.105,NaN,2014.941,NaN,0.021,1.399e6,1220.187,0.039,0.654,0.058,0.319,0.215,0.12,NaN,NaN,NaN,NaN,NaN,NaN,NaN,NaN,3.349e-4,165,213.825,80,0,6.689,14.999,1013.237,340.388,0.01,0.024
1.18,0.138,2.786,35.056,2.829,35.597,0.024,0,0.024,0,0.491,6.181,22.175,120.893,9.788,67.038,0,0,0,2.774e4,1.324e4,19.864,0.105,NaN,2014.455,NaN,0.021,1.422e6,1254.818,0.056,0.653,0.081,0.318,0.215,0.12,NaN,NaN,NaN,NaN,NaN,NaN,NaN,NaN,3.831e-4,165,213.825,80,0,6.678,14.999,1013.234,340.388,0.01,0.024
1.19,0.167,3.145,35.85,3.193,36.403,0.03,0,0.03,0,0.555,6.321,22.175,120.893,9.788,64.407,0,0,0,2.771e4,1.321e4,19.855,0.105,NaN,2013.959,NaN,0.022,1.45e6,1276.135,0.077,0.652,0.108,0.316,0.215,0.12,NaN,NaN,NaN,NaN,NaN,NaN,NaN,NaN,4.324e-4,165,213.825,80,0,6.667,14.999,1013.23,340.388,0.01,0.024
1.2,0.201,3.509,36.398,3.563,36.959,0.035,0,0.035,0,0.619,6.418,22.175,120.893,9.788,61.841,0,0,0,2.769e4,1.319e4,19.846,0.105,NaN,2013.458,NaN,0.022,1.481e6,1290.479,0.103,0.65,0.138,0.315,0.215,0.12,NaN,NaN,NaN,NaN,NaN,NaN,NaN,NaN,4.824e-4,165,213.825,80,0,6.656,14.999,1013.226,340.388,0.01,0.025
1.21,0.238,3.875,36.701,3.935,37.267,0.042,0,0.042,0,0.683,6.471,22.175,120.893,9.788,59.129,0,0,0,2.767e4,1.317e4,19.837,0.105,NaN,2012.952,NaN,0.023,1.504e6,1297.933,0.134,0.649,0.174,0.314,0.215,0.12,NaN,NaN,NaN,NaN,NaN,NaN,NaN,NaN,5.328e-4,165,213.825,80,0,6.583,14.998,1013.222,340.388,0.01,0.025
1.22,0.278,4.243,36.76,4.308,37.327,0.049,0,0.049,0,0.748,6.482,22.175,120.893,9.788,56.502,0,0,0,2.764e4,1.314e4,19.828,0.105,NaN,2012.446,NaN,0.023,1.531e6,1298.512,0.17,0.648,0.214,0.313,0.215,0.12,NaN,NaN,NaN,NaN,NaN,NaN,NaN,NaN,5.833e-4,165,213.825,80,0,6.51,14.998,1013.217,340.388,0.01,0.025
1.23,0.322,4.611,36.802,4.682,37.37,0.057,0,0.057,0,0.813,6.489,22.175,120.893,9.788,53.969,0,0,0,2.762e4,1.312e4,19.819,0.105,NaN,2011.938,NaN,0.023,1.561e6,1298.633,0.211,0.647,0.255,0.312,0.215,0.12,NaN,NaN,NaN,NaN,NaN,NaN,NaN,NaN,6.339e-4,165,213.825,80,0,6.437,14.998,1013.212,340.388,0.01,0.025
1.24,0.37,4.978,36.709,5.054,37.276,0.065,0,0.065,0,0.878,6.473,22.175,120.893,9.788,51.541,0,0,0,2.76e4,1.31e4,19.81,0.105,NaN,2011.431,NaN,0.024,1.594e6,1294.965,0.257,0.646,0.297,0.311,0.215,0.12,NaN,NaN,NaN,NaN,NaN,NaN,NaN,NaN,6.843e-4,165,213.825,80,0,6.363,14.998,1013.207,340.387,0.01,0.025
1.25,0.422,5.344,36.624,5.426,37.189,0.074,0,0.074,0,0.942,6.458,22.175,120.893,9.788,49.219,0,0,0,2.757e4,1.307e4,19.801,0.105,NaN,2010.925,NaN,0.024,1.629e6,1291.53,0.307,0.645,0.34,0.309,0.215,0.12,NaN,NaN,NaN,NaN,NaN,NaN,NaN,NaN,7.347e-4,165,213.825,80,0,6.29,14.997,1013.201,340.387,0.01,0.026
1.26,0.477,5.709,36.537,5.797,37.101,0.084,0,0.084,0,1.007,6.443,22.175,120.893,9.788,47.931,0,0,0,2.755e4,1.305e4,19.792,0.105,NaN,2010.419,NaN,0.025,1.697e6,1288.052,0.356,0.642,0.363,0.307,0.215,0.12,NaN,NaN,NaN,NaN,NaN,NaN,NaN,NaN,7.849e-4,165,213.825,80,0,6.422,14.997,1013.194,340.387,0.01,0.026
1.27,0.536,6.073,36.426,6.167,36.988,0.095,0,0.095,0,1.071,6.423,22.175,120.893,9.788,46.747,0,0,0,2.753e4,1.303e4,19.783,0.105,NaN,2009.914,NaN,0.026,1.765e6,1283.912,0.408,0.64,0.385,0.305,0.215,0.12,NaN,NaN,NaN,NaN,NaN,NaN,NaN,NaN,8.349e-4,165,213.825,80,0,6.555,14.997,1013.187,340.387,0.01,0.026
1.28,0.599,6.437,36.394,6.536,36.955,0.106,0,0.106,0,1.135,6.417,22.175,120.893,9.788,45.653,0,0,0,2.75e4,1.3e4,19.774,0.105,NaN,2009.409,NaN,0.027,1.834e6,1281.967,0.464,0.638,0.405,0.303,0.215,0.12,NaN,NaN,NaN,NaN,NaN,NaN,NaN,NaN,8.849e-4,165,213.825,80,0,6.687,14.996,1013.18,340.387,0.01,0.026
1.29,0.665,6.8,36.312,6.904,36.872,0.117,0,0.117,0,1.199,6.403,22.175,120.893,9.788,44.642,0,0,0,2.748e4,1.298e4,19.765,0.105,NaN,2008.904,NaN,0.029,1.903e6,1278.651,0.522,0.636,0.423,0.301,0.215,0.12,NaN,NaN,NaN,NaN,NaN,NaN,NaN,NaN,9.348e-4,165,213.825,80,0,6.819,14.996,1013.172,340.386,0.01,0.026
1.3,0.735,7.162,36.27,7.273,36.83,0.13,0,0.13,0,1.263,6.395,22.175,120.893,9.788,43.704,0,0,0,2.746e4,1.296e4,19.756,0.105,NaN,2008.399,NaN,0.03,1.973e6,1276.485,0.584,0.634,0.441,0.298,0.215,0.12,NaN,NaN,NaN,NaN,NaN,NaN,NaN,NaN,9.847e-4,165,213.825,80,0,6.951,14.995,1013.164,340.386,0.01,0.026
1.31,0.808,7.525,36.265,7.641,36.824,0.142,0,0.142,0,1.327,6.394,22.175,120.893,9.788,42.466,0,0,0,2.743e4,1.293e4,19.747,0.105,NaN,2007.894,NaN,0.03,2.031e6,1275.318,0.652,0.632,0.464,0.297,0.215,0.12,NaN,NaN,NaN,NaN,NaN,NaN,NaN,NaN,0.001,165,213.825,80,0,6.993,14.995,1013.155,340.386,0.01,0.027
1.32,0.885,7.887,36.236,8.008,36.795,0.156,0,0.156,0,1.391,6.389,22.175,120.893,9.788,41.298,0,0,0,2.741e4,1.291e4,19.738,0.105,NaN,2007.388,NaN,0.031,2.09e6,1273.528,0.724,0.631,0.487,0.295,0.215,0.12,NaN,NaN,NaN,NaN,NaN,NaN,NaN,NaN,0.001,165,213.825,80,0,7.035,14.994,1013.146,340.385,0.01,0.027
1.33,0.966,8.249,36.285,8.377,36.845,0.17,0,0.17,0,1.455,6.398,22.175,120.893,9.788,40.194,0,0,0,2.739e4,1.289e4,19.729,0.105,NaN,2006.882,NaN,0.032,2.15e6,1273.891,0.799,0.629,0.507,0.294,0.215,0.12,NaN,NaN,NaN,NaN,NaN,NaN,NaN,NaN,0.001,165,213.825,80,0,7.077,14.994,1013.137,340.385,0.01,0.027
1.34,1.05,8.612,36.262,8.745,36.822,0.185,0,0.185,0,1.519,6.394,22.175,120.893,9.788,39.15,0,0,0,2.736e4,1.286e4,19.72,0.105,NaN,2006.376,NaN,0.033,2.211e6,1272.247,0.877,0.628,0.527,0.292,0.215,0.12,NaN,NaN,NaN,NaN,NaN,NaN,NaN,NaN,0.001,165,213.825,80,0,7.119,14.993,1013.127,340.385,0.01,0.027
1.35,1.138,8.974,36.272,9.113,36.831,0.201,0,0.201,0,1.582,6.396,22.175,120.893,9.788,38.163,0,0,0,2.734e4,1.284e4,19.711,0.105,NaN,2005.868,NaN,0.034,2.273e6,1271.517,0.959,0.626,0.545,0.291,0.215,0.12,NaN,NaN,NaN,NaN,NaN,NaN,NaN,NaN,0.001,165,213.825,80,0,7.162,14.993,1013.117,340.384,0.01,0.027
1.36,1.23,9.337,36.308,9.481,36.868,0.217,0,0.217,0,1.646,6.402,22.175,120.893,9.788,36.554,0,0,0,2.732e4,1.282e4,19.702,0.105,NaN,2005.361,NaN,0.035,2.315e6,1271.539,1.049,0.625,0.575,0.29,0.215,0.12,NaN,NaN,NaN,NaN,NaN,NaN,NaN,NaN,0.001,165,213.825,80,0,7.03,14.992,1013.106,340.384,0.01,0.028
1.37,1.325,9.7,36.323,9.85,36.884,0.234,0,0.234,0,1.71,6.405,22.175,120.893,9.788,35.003,0,0,0,2.729e4,1.279e4,19.693,0.105,NaN,2004.852,NaN,0.035,2.358e6,1270.983,1.143,0.624,0.604,0.289,0.215,0.12,NaN,NaN,NaN,NaN,NaN,NaN,NaN,NaN,0.001,165,213.825,80,0,6.898,14.991,1013.095,340.384,0.01,0.028
1.38,1.424,10.065,36.437,10.22,37,0.251,0,0.251,0,1.775,6.425,22.175,120.893,9.788,33.507,0,0,0,2.727e4,1.277e4,19.684,0.105,NaN,2004.342,NaN,0.036,2.403e6,1273.167,1.24,0.623,0.63,0.288,0.215,0.12,NaN,NaN,NaN,NaN,NaN,NaN,NaN,NaN,0.001,165,213.825,80,0,6.766,14.991,1013.083,340.383,0.01,0.028
1.39,1.526,10.429,36.477,10.59,37.04,0.269,0,0.269,0,1.839,6.432,22.175,120.893,9.788,32.065,0,0,0,2.725e4,1.275e4,19.675,0.105,NaN,2003.83,NaN,0.037,2.45e6,1273.278,1.341,0.623,0.656,0.288,0.215,0.12,NaN,NaN,NaN,NaN,NaN,NaN,NaN,NaN,0.001,165,213.825,80,0,6.634,14.99,1013.071,340.383,0.01,0.028
1.4,1.632,10.795,36.562,10.961,37.126,0.288,0,0.288,0,1.903,6.447,22.175,120.893,9.788,30.677,0,0,0,2.723e4,1.273e4,19.666,0.105,NaN,2003.318,NaN,0.037,2.499e6,1274.663,1.445,0.623,0.679,0.288,0.215,0.12,NaN,NaN,NaN,NaN,NaN,NaN,NaN,NaN,0.001,165,213.825,80,0,6.502,14.989,1013.059,340.382,0.01,0.028
1.41,1.742,11.161,36.668,11.333,37.233,0.307,0,0.307,0,1.968,6.465,22.175,120.893,9.788,29.877,0,0,0,2.72e4,1.27e4,19.657,0.105,NaN,2002.803,NaN,0.038,2.563e6,1276.588,1.548,0.623,0.692,0.288,0.215,0.12,NaN,NaN,NaN,NaN,NaN,NaN,NaN,NaN,0.002,165,213.825,80,0,6.511,14.989,1013.046,340.382,0.01,0.028
1.42,1.855,11.528,36.734,11.706,37.301,0.327,0,0.327,0,2.033,6.477,22.175,120.893,9.788,29.114,0,0,0,2.718e4,1.268e4,19.648,0.105,NaN,2002.288,NaN,0.039,2.627e6,1277.444,1.655,0.623,0.704,0.288,0.215,0.12,NaN,NaN,NaN,NaN,NaN,NaN,NaN,NaN,0.002,165,213.825,80,0,6.519,14.988,1013.032,340.382,0.01,0.029
1.43,1.973,11.897,36.867,12.08,37.436,0.348,0,0.348,0,2.098,6.501,22.175,120.893,9.788,28.385,0,0,0,2.716e4,1.266e4,19.639,0.105,NaN,2001.77,NaN,0.04,2.692e6,1280.14,1.766,0.623,0.715,0.288,0.215,0.12,NaN,NaN,NaN,NaN,NaN,NaN,NaN,NaN,0.002,165,213.825,80,0,6.528,14.987,1013.019,340.381,0.01,0.029
1.44,2.093,12.266,36.923,12.455,37.492,0.369,0,0.369,0,2.163,6.51,22.175,120.893,9.788,27.689,0,0,0,2.713e4,1.263e4,19.629,0.105,NaN,2001.252,NaN,0.041,2.758e6,1280.681,1.879,0.623,0.725,0.288,0.215,0.12,NaN,NaN,NaN,NaN,NaN,NaN,NaN,NaN,0.002,165,213.825,80,0,6.536,14.986,1013.004,340.381,0.01,0.029
1.45,2.218,12.636,37.03,12.831,37.601,0.391,0,0.391,0,2.228,6.529,22.175,120.893,9.788,27.024,0,0,0,2.711e4,1.261e4,19.62,0.105,NaN,2000.731,NaN,0.042,2.824e6,1282.653,1.995,0.623,0.735,0.288,0.215,0.12,NaN,NaN,NaN,NaN,NaN,NaN,NaN,NaN,0.002,165,213.825,80,0,6.544,14.986,1012.99,340.38,0.01,0.029
1.46,2.346,13.007,37.146,13.208,37.719,0.414,0,0.414,0,2.294,6.55,22.175,120.893,9.788,26.029,0,0,0,2.709e4,1.259e4,19.611,0.104,NaN,2000.209,NaN,0.043,2.882e6,1284.861,2.115,0.623,0.748,0.288,0.215,0.12,NaN,NaN,NaN,NaN,NaN,NaN,NaN,NaN,0.002,165,213.825,80,0,6.45,14.985,1012.975,340.38,0.01,0.029
1.47,2.478,13.379,37.198,13.585,37.772,0.437,0,0.437,0,2.359,6.559,22.175,120.893,9.788,25.073,0,0,0,2.706e4,1.256e4,19.602,0.104,NaN,1999.686,NaN,0.044,2.941e6,1285.292,2.237,0.623,0.759,0.288,0.215,0.12,NaN,NaN,NaN,NaN,NaN,NaN,NaN,NaN,0.002,165,213.825,80,0,6.356,14.984,1012.959,340.379,0.01,0.03
1.48,2.614,13.752,37.317,13.964,37.893,0.461,0,0.461,0,2.425,6.58,22.175,120.893,9.788,24.153,0,0,0,2.704e4,1.254e4,19.592,0.104,NaN,1999.161,NaN,0.045,3.001e6,1287.587,2.36,0.623,0.77,0.288,0.215,0.12,NaN,NaN,NaN,NaN,NaN,NaN,NaN,NaN,0.002,165,213.825,80,0,6.262,14.983,1012.943,340.379,0.01,0.03
1.49,2.753,14.125,37.362,14.343,37.939,0.485,0,0.485,0,2.491,6.588,22.175,120.893,9.788,23.268,0,0,0,2.702e4,1.252e4,19.583,0.104,NaN,1998.635,NaN,0.046,3.061e6,1287.832,2.485,0.623,0.779,0.288,0.215,0.12,NaN,NaN,NaN,NaN,NaN,NaN,NaN,NaN,0.002,165,213.825,80,0,6.168,14.982,1012.927,340.378,0.01,0.03
1.5,2.896,14.5,37.431,14.723,38.009,0.511,0,0.511,0,2.557,6.6,22.175,120.893,9.788,22.417,0,0,0,2.699e4,1.249e4,19.574,0.104,NaN,1998.108,NaN,0.047,3.123e6,1288.735,2.611,0.623,0.786,0.288,0.215,0.12,NaN,NaN,NaN,NaN,NaN,NaN,NaN,NaN,0.002,165,213.825,80,0,6.074,14.981,1012.91,340.377,0.01,0.03
1.51,3.043,14.875,37.511,15.104,38.09,0.537,0,0.537,0,2.623,6.614,22.175,120.893,9.788,21.809,0,0,0,2.697e4,1.247e4,19.564,0.104,NaN,1997.579,NaN,0.048,3.19e6,1289.948,2.741,0.623,0.791,0.288,0.215,0.12,NaN,NaN,NaN,NaN,NaN,NaN,NaN,NaN,0.002,165,213.825,80,0,6.044,14.98,1012.893,340.377,0.01,0.03
1.52,3.194,15.25,37.527,15.485,38.106,0.563,0,0.563,0,2.689,6.617,22.175,120.893,9.788,21.226,0,0,0,2.695e4,1.244e4,19.555,0.104,NaN,1997.049,NaN,0.049,3.257e6,1289.376,2.874,0.623,0.795,0.288,0.215,0.12,NaN,NaN,NaN,NaN,NaN,NaN,NaN,NaN,0.002,165,213.825,80,0,6.014,14.979,1012.875,340.376,0.01,0.03
1.53,3.348,15.626,37.665,15.867,38.246,0.59,0,0.59,0,2.755,6.641,22.175,120.893,9.788,20.664,0,0,0,2.692e4,1.242e4,19.546,0.104,NaN,1996.518,NaN,0.05,3.325e6,1292.164,3.008,0.623,0.799,0.288,0.215,0.12,NaN,NaN,NaN,NaN,NaN,NaN,NaN,NaN,0.002,165,213.825,80,0,5.984,14.978,1012.857,340.376,0.01,0.031
1.54,3.506,16.003,37.733,16.25,38.315,0.618,0,0.618,0,2.822,6.653,22.175,120.893,9.788,20.124,0,0,0,2.69e4,1.24e4,19.536,0.104,NaN,1995.985,NaN,0.051,3.393e6,1293.051,3.145,0.623,0.802,0.288,0.215,0.12,NaN,NaN,NaN,NaN,NaN,NaN,NaN,NaN,0.002,165,213.825,80,0,5.955,14.977,1012.839,340.375,0.01,0.031
1.55,3.668,16.381,37.837,16.634,38.421,0.647,0,0.647,0,2.888,6.672,22.175,120.893,9.788,19.605,0,0,0,2.687e4,1.237e4,19.527,0.104,NaN,1995.451,NaN,0.052,3.462e6,1294.89,3.285,0.623,0.805,0.288,0.215,0.12,NaN,NaN,NaN,NaN,NaN,NaN,NaN,NaN,0.002,165,213.825,80,0,5.925,14.976,1012.82,340.374,0.01,0.031
1.56,3.834,16.761,37.96,17.019,38.546,0.676,0,0.676,0,2.955,6.693,22.175,120.893,9.788,19.078,0,0,0,2.685e4,1.235e4,19.517,0.104,NaN,1994.914,NaN,0.053,3.531e6,1297.251,3.425,0.624,0.807,0.288,0.215,0.12,NaN,NaN,NaN,NaN,NaN,NaN,NaN,NaN,0.002,165,213.825,80,0,5.886,14.975,1012.8,340.374,0.01,0.031
1.57,4.003,17.14,37.979,17.405,38.565,0.706,0,0.706,0,3.022,6.697,22.175,120.893,9.788,18.571,0,0,0,2.683e4,1.233e4,19.508,0.104,NaN,1994.377,NaN,0.054,3.6e6,1296.778,3.568,0.624,0.808,0.288,0.215,0.12,NaN,NaN,NaN,NaN,NaN,NaN,NaN,NaN,0.002,165,213.825,80,0,5.848,14.974,1012.78,340.373,0.01,0.031
1.585,4.265,17.707,37.809,17.985,38.739,0.752,-1.06e-4,0.752,-0.008,3.148,8.439,22.175,120.893,9.788,17.804,0,-0.007,4.442e-6,2.679e4,1.229e4,19.493,0.104,1991.35,1993.568,-0.013,0.055,3.703e6,1298.654,3.784,0.624,0.81,0.288,0.215,0.12,5.405,-0.072,1.607e-4,0,0,0,0,-1.427e-7,0.002,165,213.825,80,-3.48e-4,5.79,14.972,1012.75,340.372,0.015,0.032
1.608,4.673,18.561,38.008,18.859,38.94,0.825,-6.625e-4,0.825,-0.046,3.337,8.468,22.175,120.893,9.788,16.842,0,-0.001,5.884e-5,2.674e4,1.224e4,19.472,0.104,2000.181,1992.348,0.047,0.058,3.863e6,1301.804,4.12,0.624,0.811,0.288,0.215,0.12,5.011,0.238,9.324e-5,0,0,0,0,0,0.003,165,213.825,80,-0.001,5.744,14.97,1012.702,340.37,0.023,0.032
1.641,5.321,19.853,38.341,20.181,39.276,0.943,-0.002,0.943,-0.146,3.623,8.521,22.175,120.893,9.788,15.855,0,0.034,-5.595e-5,2.666e4,1.216e4,19.439,0.104,2009.765,1990.501,0.117,0.062,4.113e6,1307.398,4.657,0.624,0.808,0.288,0.215,0.12,4.618,0.54,1.186e-4,0,0,0,0,3.012e-6,0.003,165,213.825,80,0.002,5.799,14.965,1012.626,340.368,0.034,0.032
1.691,6.362,21.786,38.759,22.159,39.697,1.134,-0.007,1.134,-0.357,4.05,8.578,22.175,120.893,9.788,13.975,0,0.153,-0.001,2.654e4,1.204e4,19.39,0.104,2029.552,1987.731,0.253,0.067,4.476e6,1313.533,5.428,0.624,0.795,0.288,0.215,0.121,3.901,0.988,-4.579e-4,0,0,0,0,5.129e-5,0.003,165,213.825,80,0.026,5.631,14.959,1012.504,340.364,0.05,0.032
1.741,7.5,23.747,39.332,24.167,40.276,1.348,-0.014,1.348,-0.606,4.481,8.667,22.175,120.893,9.788,12.956,0,0.355,-0.005,2.642e4,1.192e4,19.34,0.104,2041.239,1984.915,0.341,0.073,4.86e6,1323.765,6.313,0.624,0.784,0.288,0.216,0.121,3.53,1.205,-2.99e-4,0,0,0,0,2.355e-4,0.003,165,213.825,79.999,0.098,5.729,14.951,1012.37,340.359,0.05,0.032
1.791,8.737,25.74,39.953,26.206,40.903,1.582,-0.024,1.582,-0.873,4.917,8.767,22.175,120.893,9.788,12.333,0,0.627,-0.011,2.63e4,1.18e4,19.29,0.103,2048.744,1982.048,0.404,0.079,5.257e6,1335.184,7.315,0.624,0.777,0.288,0.216,0.121,3.31,1.337,-4.841e-4,0,0,0,0,6.271e-4,0.004,165,213.825,79.998,0.237,5.962,14.943,1012.225,340.354,0.05,0.032
1.841,10.075,27.766,40.624,28.279,41.58,1.839,-0.037,1.839,-1.146,5.359,8.862,22.175,120.893,9.788,11.123,0,0.979,-0.024,2.617e4,1.167e4,19.238,0.103,2064.1,1979.127,0.515,0.085,5.648e6,1347.677,8.261,0.624,0.76,0.288,0.216,0.121,2.896,1.49,1.347e-4,0,0,0,0,0.001,0.004,165,213.825,79.996,0.466,5.865,14.935,1012.068,340.349,0.05,0.033
1.891,11.515,29.832,41.424,30.392,42.387,2.118,-0.052,2.118,-1.414,5.806,8.985,22.175,120.893,9.788,10.441,-2.874e-7,1.42,-0.04,2.605e4,1.155e4,19.185,0.103,2073.295,1976.143,0.589,0.091,6.057e6,1363.475,9.372,0.625,0.75,0.288,0.216,0.121,2.67,1.57,4.369e-4,0,0,0,0,0.002,0.004,165,213.825,79.992,0.808,5.99,14.925,1011.899,340.344,0.05,0.033
1.941,13.059,31.931,42.081,32.539,43.05,2.419,-0.071,2.42,-1.673,6.259,9.082,22.175,120.893,9.788,9.933,-3.503e-7,1.947,-0.059,2.593e4,1.143e4,19.132,0.103,2080.407,1973.105,0.65,0.097,6.475e6,1375.364,10.6,0.625,0.742,0.288,0.216,0.121,2.507,1.627,4.187e-4,0,0,0,0,0.004,0.004,165,213.825,79.984,1.288,6.193,14.915,1011.718,340.337,0.05,0.033
1.991,14.709,34.067,42.829,34.723,43.804,2.742,-0.092,2.744,-1.92,6.717,9.188,22.175,120.893,9.788,9.22,0,2.568,-0.091,2.58e4,1.13e4,19.077,0.103,2090.756,1970.006,0.732,0.103,6.896e6,1389.417,11.84,0.625,0.731,0.288,0.216,0.121,2.283,1.664,-2.712e-4,0,0,0,0,0.006,0.005,165,213.825,79.972,1.932,6.258,14.904,1011.525,340.331,0.05,0.033
2.041,16.467,36.253,43.824,36.958,44.808,3.089,-0.116,3.091,-2.15,7.183,9.338,22.175,120.893,9.788,8.613,-6.025e-7,3.283,-0.128,2.567e4,1.117e4,19.021,0.102,2099.95,1966.831,0.807,0.11,7.329e6,1409.711,13.197,0.625,0.721,0.288,0.216,0.122,2.097,1.683,-1.268e-4,0,0,0,0,0.009,0.005,165,213.825,79.954,2.762,6.373,14.893,1011.319,340.324,0.05,0.033
2.091,18.335,38.482,44.7,39.237,45.692,3.459,-0.143,3.462,-2.36,7.656,9.473,22.175,120.893,9.788,8.235,-1.258e-6,4.1,-0.162,2.554e4,1.104e4,18.964,0.102,2105.892,1963.584,0.862,0.117,7.775e6,1426.753,14.733,0.625,0.715,0.287,0.216,0.122,1.984,1.699,-1.398e-4,0,0,0,0,0.012,0.005,165,213.825,79.925,3.805,6.642,14.881,1011.1,340.317,0.05,0.034
2.141,20.316,40.742,45.304,41.546,46.301,3.853,-0.171,3.856,-2.548,8.133,9.56,22.175,120.893,9.788,7.703,-1.24e-6,5.024,-0.215,2.541e4,1.091e4,18.906,0.102,2114.455,1960.282,0.934,0.123,8.225e6,1436.554,16.293,0.626,0.706,0.287,0.216,0.122,1.828,1.692,3.029e-4,0,0,0,0,0.016,0.006,165,213.825,79.884,5.083,6.811,14.868,1010.867,340.309,0.05,0.034
2.191,22.41,43.036,45.994,43.89,46.999,4.27,-0.202,4.275,-2.712,8.616,9.669,22.175,120.893,9.788,6.879,-1.658e-6,6.036,-0.319,2.528e4,1.078e4,18.847,0.102,2128.282,1956.918,1.039,0.13,8.675e6,1448.404,17.794,0.626,0.693,0.287,0.216,0.122,1.594,1.634,2.516e-4,0,0,0,0,0.021,0.006,165,213.825,79.825,6.616,6.754,14.854,1010.622,340.301,0.05,0.034
2.241,24.62,45.366,46.718,46.271,47.735,4.712,-0.234,4.718,-2.845,9.105,9.804,22.175,120.893,9.788,6.535,-2.741e-6,7.133,-0.364,2.515e4,1.065e4,18.787,0.102,2134.334,1953.489,1.096,0.137,9.144e6,1461.178,19.627,0.626,0.688,0.287,0.217,0.122,1.499,1.617,2.725e-4,0,0,0,0,0.027,0.006,165,213.825,79.743,8.414,7.084,14.84,1010.362,340.292,0.05,0.034
2.291,26.947,47.722,47.227,48.677,48.261,5.179,-0.266,5.185,-2.945,9.598,9.939,22.175,120.893,9.788,5.432,-4.129e-6,8.296,-0.619,2.501e4,1.051e4,18.726,0.101,2154.463,1950.006,1.239,0.144,9.602e6,1468.288,21.131,0.627,0.672,0.287,0.217,0.123,1.205,1.46,-4.547e-4,0,0,0,0,0.033,0.007,165,213.825,79.63,10.479,6.778,14.825,1010.09,340.283,0.05,0.034
2.341,29.392,50.081,47.305,51.088,48.363,5.67,-0.298,5.678,-3.005,10.092,10.065,22.175,120.893,9.788,4.193,-9.623e-6,9.366,-1.107,2.488e4,1.038e4,18.664,0.101,2178.907,1946.495,1.409,0.151,1.006e7,1464.702,22.631,0.627,0.656,0.287,0.217,0.123,0.894,1.221,-3.627e-6,0,0,0,0,0.038,0.007,165,213.825,79.481,12.786,6.295,14.809,1009.803,340.273,0.05,0.034
2.391,31.955,52.444,47.342,53.502,48.433,6.186,-0.326,6.195,-3.017,10.588,10.223,22.175,120.893,9.788,3.623,-6.15e-6,10.377,-1.386,2.475e4,1.025e4,18.602,0.101,2190.951,1942.956,1.503,0.158,1.053e7,1460.577,24.568,0.628,0.65,0.287,0.217,0.123,0.759,1.097,-2.607e-4,0,0,0,0,0.043,0.007,165,213.825,79.289,15.278,6.409,14.792,1009.502,340.263,0.05,0.035
2.441,34.637,54.81,47.414,55.92,48.552,6.727,-0.35,6.736,-2.979,11.089,10.451,22.175,120.893,9.788,3.118,-7.942e-6,11.384,-1.692,2.461e4,1.011e4,18.539,0.101,2202.018,1939.385,1.592,0.165,1.1e7,1457.734,26.635,0.628,0.645,0.287,0.217,0.124,0.642,0.975,3.41e-4,0,0,0,0,0.047,0.008,165,213.825,79.048,17.907,6.605,14.775,1009.188,340.252,0.05,0.035
2.491,37.436,57.159,47.054,58.322,48.257,7.294,-0.368,7.303,-2.89,11.592,10.706,22.175,120.893,9.788,2.393,-1.276e-5,12.211,-2.505,2.448e4,9982.7,18.477,0.101,2218.593,1935.809,1.714,0.172,1.147e7,1444.705,28.674,0.628,0.639,0.287,0.218,0.124,0.481,0.774,-3.165e-4,0,0,0,0,0.05,0.008,165,213.825,78.754,20.622,6.574,14.757,1008.859,340.241,0.05,0.035
2.541,40.352,59.502,46.93,60.72,48.235,7.886,-0.378,7.895,-2.747,12.102,11.145,22.175,120.893,9.788,1.475,-1.17e-5,12.223,-4.979,2.435e4,9851.919,18.414,0.1,2240.804,1932.21,1.87,0.179,1.193e7,1438.362,30.756,0.629,0.633,0.287,0.218,0.124,0.287,0.491,4.409e-4,0,0,0,0,0.046,0.008,165,213.825,78.405,23.348,6.267,14.738,1008.517,340.23,0.05,0.035
2.591,43.386,61.832,46.654,63.107,48.09,8.504,-0.378,8.513,-2.547,12.621,11.666,22.175,120.893,9.788,0.763,-2.157e-5,7.23,-11.493,2.422e4,9721.977,18.351,0.1,2259.125,1928.595,2.003,0.186,1.239e7,1429.136,33.047,0.629,0.63,0.287,0.218,0.125,0.145,0.275,4.403e-4,0,0,0,0,0.015,0.009,165,213.825,78.005,25.985,5.925,14.718,1008.162,340.218,0.05,0.035
2.641,46.536,64.171,46.815,65.506,48.407,9.148,-0.365,9.156,-2.287,13.156,12.312,22.175,120.893,9.788,0.705,-3.433e-5,-3.896,-13.044,2.409e4,9591.843,18.287,0.1,2260.794,1924.936,2.036,0.193,1.286e7,1431.244,35.619,0.63,0.631,0.287,0.218,0.125,0.133,0.276,4.278e-4,0,0,0,0,-0.004,0.009,165,213.825,77.565,28.439,5.927,14.698,1007.792,340.206,0.05,0.036
2.691,49.803,66.513,46.846,67.911,48.62,9.819,-0.337,9.825,-1.966,13.709,13.012,22.175,120.893,9.788,1.063,-3.96e-5,-9.768,-9.051,2.396e4,9461.748,18.222,0.1,2251.633,1921.238,2.002,0.201,1.333e7,1430.823,38.378,0.63,0.632,0.287,0.218,0.125,0.204,0.432,7.235e-6,0,0,0,0,-0.024,0.009,165,213.825,77.094,30.642,5.906,14.676,1007.409,340.193,0.05,0.036
2.741,53.187,68.862,47,70.328,48.984,10.518,-0.291,10.522,-1.586,14.287,13.8,22.175,120.893,9.788,1.51,-4.065e-5,-10.778,-6.574,2.383e4,9331.363,18.157,0.1,2240.523,1917.492,1.958,0.208,1.38e7,1433.995,41.325,0.631,0.635,0.287,0.219,0.126,0.294,0.603,-2.271e-4,0,0,0,0,-0.027,0.009,165,213.825,76.609,32.545,5.887,14.654,1007.012,340.179,0.05,0.036
2.791,56.689,71.227,47.304,72.768,49.53,11.244,-0.225,11.246,-1.146,14.894,14.681,22.175,120.893,9.788,1.987,-5.222e-5,-10.316,-5.218,2.37e4,9200.305,18.091,0.099,2229.045,1913.685,1.911,0.215,1.428e7,1441.415,44.471,0.631,0.638,0.287,0.219,0.126,0.394,0.777,-9.582e-5,0,0,0,0,-0.023,0.01,165,213.825,76.129,34.116,5.782,14.632,1006.601,340.166,0.05,0.036
2.841,60.31,73.605,47.55,75.226,50.015,11.999,-0.136,12,-0.65,15.533,15.508,22.175,120.893,9.788,2.301,-4.607e-5,-9.097,-4.479,2.357e4,9068.707,18.023,0.099,2221.775,1909.819,1.891,0.222,1.476e7,1447.346,47.743,0.632,0.641,0.286,0.219,0.126,0.462,0.89,-2.57e-4,0,0,0,0,-0.017,0.01,165,213.825,75.674,35.334,5.786,14.608,1006.177,340.151,0.05,0.036
2.891,64.05,75.974,47.39,77.682,50.064,12.784,-0.023,12.784,-0.101,16.201,16.142,22.175,120.893,9.788,2.455,-4.886e-5,-7.476,-3.999,2.344e4,8937.495,17.955,0.099,2218.371,1905.922,1.894,0.23,1.524e7,1443.113,51.072,0.633,0.643,0.286,0.219,0.127,0.496,0.949,1.228e-4,0,0,0,0,-0.011,0.01,165,213.825,75.262,36.199,5.885,14.584,1005.738,340.137,0.05,0.037
2.941,67.907,78.328,47.109,80.13,49.946,13.6,0.117,13.6,0.494,16.898,16.593,22.175,120.893,9.787,2.423,-5.456e-5,-5.621,-3.648,2.331e4,8806.998,17.887,0.099,2219.302,1902.002,1.923,0.237,1.573e7,1435.232,54.406,0.633,0.644,0.286,0.22,0.127,0.489,0.945,4.69e-4,0,0,0,0,-0.006,0.011,165,213.825,74.907,36.719,6.113,14.559,1005.286,340.121,0.05,0.037
2.991,71.883,80.69,47.288,82.593,50.262,14.446,0.285,14.449,1.129,17.626,17.031,22.175,120.893,9.787,2.293,-5.988e-5,-3.672,-3.395,2.318e4,8676.274,17.818,0.099,2222.534,1898.031,1.967,0.244,1.621e7,1437.734,57.803,0.634,0.643,0.286,0.22,0.128,0.46,0.908,-6.005e-5,0,0,0,0,-0.002,0.011,165,213.825,74.621,36.918,6.356,14.533,1004.819,340.106,0.05,0.037
