# Time (s),Altitude (m),Vertical velocity (m/s),Vertical acceleration (m/s²),Total velocity (m/s),Total acceleration (m/s²),Position East of launch (m),Position North of launch (m),Lateral distance (m),Lateral direction (°),Lateral velocity (m/s),Lateral acceleration (m/s²),Latitude (°),Longitude (°),Gravitational acceleration (m/s²),Angle of attack (°),Roll rate (°/s),Pitch rate (°/s),Yaw rate (°/s),Mass (g),Motor mass (g),Longitudinal moment of inertia (kg·m²),Rotational moment of inertia (kg·m²),CP location (mm),CG location (mm),Stability margin calibers (​),Mach number (​),Reynolds number (​),Thrust (N),Drag force (N),Drag coefficient (​),Axial drag coefficient (​),Friction drag coefficient (​),Pressure drag coefficient (​),Base drag coefficient (​),Normal force coefficient (​),Pitch moment coefficient (​),Yaw moment coefficient (​),Side force coefficient (​),Roll moment coefficient (​),Roll forcing coefficient (​),Roll damping coefficient (​),Pitch damping coefficient (​),Coriolis acceleration (m/s²),Reference length (mm),Reference area (cm²),Vertical orientation (zenith) (°),Lateral orientation (azimuth) (°),Wind velocity (m/s),Air temperature (°C),Air pressure (mbar),Speed of sound (m/s),Simulation time step (s),Computation time (s)
0.01,-4.757e-4,-0.095,-9.511,0.096,9.563,-5e-5,0,5e-5,180,0.01,1,22.175,120.893,9.788,97.205,0,0,0,2.8e4,1.35e4,19.963,0.106,NaN,2019.994,NaN,0.005,3.615e5,4.784,-1.557e-4,0.756,-0.003,0.421,0.215,0.12,NaN,NaN,NaN,NaN,NaN,NaN,NaN,NaN,1.293e-5,165,213.825,84,0,1.834,15,1013.25,340.389,0.01,0.002
0.02,-4.761e-4,-0.095,-9.522,0.096,9.575,-5.004e-5,0,5.004e-5,180,0.01,1.001,22.175,120.893,9.788,97.232,0,0,0,2.8e4,1.35e4,19.963,0.106,NaN,2019.992,NaN,0.005,3.586e5,4.461,-1.551e-4,0.757,-0.004,0.422,0.215,0.12,NaN,NaN,NaN,NaN,NaN,NaN,NaN,NaN,1.294e-5,165,213.825,84,0,1.819,15,1013.25,340.389,0.01,0.002
0.03,-4.763e-4,-0.095,-9.526,0.096,9.579,-5.006e-5,0,5.006e-5,180,0.01,1.001,22.175,120.893,9.788,97.258,0,0,0,2.8e4,1.35e4,19.963,0.106,NaN,2019.991,NaN,0.005,3.556e5,4.343,-1.543e-4,0.757,-0.004,0.422,0.215,0.12,NaN,NaN,NaN,NaN,NaN,NaN,NaN,NaN,1.295e-5,165,213.825,84,0,1.804,15,1013.25,340.389,0.01,0.003
0.04,-4.765e-4,-0.095,-9.53,0.096,9.582,-5.008e-5,0,5.008e-5,180,0.01,1.002,22.175,120.893,9.788,97.285,0,0,0,2.8e4,1.35e4,19.963,0.106,NaN,2019.989,NaN,0.005,3.527e5,4.249,-1.535e-4,0.758,-0.004,0.423,0.215,0.12,NaN,NaN,NaN,NaN,NaN,NaN,NaN,NaN,1.295e-5,165,213.825,84,0,1.789,15,1013.25,340.389,0.01,0.003
0.05,-4.761e-4,-0.095,-9.523,0.096,9.575,-5.005e-5,0,5.005e-5,180,0.01,1.001,22.175,120.893,9.788,97.308,0,0,0,2.8e4,1.35e4,19.963,0.106,NaN,2019.988,NaN,0.005,3.498e5,4.443,-1.526e-4,0.759,-0.004,0.424,0.215,0.12,NaN,NaN,NaN,NaN,NaN,NaN,NaN,NaN,1.294e-5,165,213.825,84,0,1.774,15,1013.25,340.389,0.01,0.004
0.06,-4.757e-4,-0.095,-9.514,0.096,9.567,-5e-5,0,5e-5,180,0.01,1,22.175,120.893,9.788,97.279,0,0,0,2.8e4,1.35e4,19.963,0.106,NaN,2019.986,NaN,0.005,3.528e5,4.681,-1.532e-4,0.758,-0.004,0.423,0.215,0.12,NaN,NaN,NaN,NaN,NaN,NaN,NaN,NaN,1.293e-5,165,213.825,84,0,1.789,15,1013.25,340.389,0.01,0.004
0.07,-4.762e-4,-0.095,-9.523,0.096,9.576,-5.005e-5,0,5.005e-5,180,0.01,1.001,22.175,120.893,9.788,97.256,0,0,0,2.8e4,1.35e4,19.963,0.106,NaN,2019.984,NaN,0.005,3.558e5,4.438,-1.543e-4,0.757,-0.004,0.422,0.215,0.12,NaN,NaN,NaN,NaN,NaN,NaN,NaN,NaN,1.294e-5,165,213.825,84,0,1.805,15,1013.25,340.389,0.01,0.005
0.08,-4.761e-4,-0.095,-9.522,0.096,9.574,-5.004e-5,0,5.004e-5,180,0.01,1.001,22.175,120.893,9.788,97.23,0,0,0,2.8e4,1.35e4,19.963,0.106,NaN,2019.982,NaN,0.005,3.588e5,4.479,-1.551e-4,0.757,-0.004,0.421,0.215,0.12,NaN,NaN,NaN,NaN,NaN,NaN,NaN,NaN,1.294e-5,165,213.825,84,0,1.82,15,1013.25,340.389,0.01,0.005
0.09,-4.759e-4,-0.095,-9.517,0.096,9.57,-5.002e-5,0,5.002e-5,180,0.01,1,22.175,120.893,9.788,97.204,0,0,0,2.8e4,1.35e4,19.963,0.106,NaN,2019.981,NaN,0.005,3.618e5,4.603,-1.559e-4,0.756,-0.003,0.421,0.215,0.12,NaN,NaN,NaN,NaN,NaN,NaN,NaN,NaN,1.294e-5,165,213.825,84,0,1.835,15,1013.25,340.389,0.01,0.006
0.1,-4.764e-4,-0.095,-9.527,0.096,9.58,-5.007e-5,0,5.007e-5,180,0.01,1.001,22.175,120.893,9.788,97.183,0,0,0,2.8e4,1.35e4,19.963,0.106,NaN,2019.979,NaN,0.005,3.648e5,4.315,-1.57e-4,0.755,-0.003,0.42,0.215,0.12,NaN,NaN,NaN,NaN,NaN,NaN,NaN,NaN,1.295e-5,165,213.825,84,0,1.85,15,1013.25,340.389,0.01,0.006
0.11,-4.762e-4,-0.095,-9.523,0.096,9.576,-5.005e-5,0,5.005e-5,180,0.01,1.001,22.175,120.893,9.788,97.147,0,0,0,2.8e4,1.35e4,19.963,0.106,NaN,2019.977,NaN,0.006,3.691e5,4.431,-1.582e-4,0.754,-0.003,0.419,0.215,0.12,NaN,NaN,NaN,NaN,NaN,NaN,NaN,NaN,1.294e-5,165,213.825,84,0,1.873,15,1013.25,340.389,0.01,0.007
0.12,-4.762e-4,-0.095,-9.523,0.096,9.576,-5.005e-5,0,5.005e-5,180,0.01,1.001,22.175,120.893,9.788,97.113,0,0,0,2.8e4,1.35e4,19.962,0.106,NaN,2019.976,NaN,0.006,3.735e5,4.436,-1.594e-4,0.753,-0.003,0.418,0.215,0.12,NaN,NaN,NaN,NaN,NaN,NaN,NaN,NaN,1.294e-5,165,213.825,84,0,1.895,15,1013.25,340.389,0.01,0.007
0.13,-4.758e-4,-0.095,-9.517,0.096,9.569,-5.001e-5,0,5.001e-5,180,0.01,1,22.175,120.893,9.788,97.078,0,0,0,2.8e4,1.35e4,19.962,0.106,NaN,2019.974,NaN,0.006,3.778e5,4.62,-1.606e-4,0.752,-0.003,0.417,0.215,0.12,NaN,NaN,NaN,NaN,NaN,NaN,NaN,NaN,1.294e-5,165,213.825,84,0,1.917,15,1013.25,340.389,0.01,0.007
0.14,-4.762e-4,-0.095,-9.524,0.096,9.577,-5.005e-5,0,5.005e-5,180,0.01,1.001,22.175,120.893,9.788,97.048,0,0,0,2.8e4,1.35e4,19.962,0.106,NaN,2019.972,NaN,0.006,3.822e5,4.404,-1.621e-4,0.751,-0.003,0.416,0.215,0.12,NaN,NaN,NaN,NaN,NaN,NaN,NaN,NaN,1.295e-5,165,213.825,84,0,1.939,15,1013.25,340.389,0.01,0.008
0.15,-4.761e-4,-0.095,-9.523,0.096,9.575,-5.004e-5,0,5.004e-5,180,0.01,1.001,22.175,120.893,9.788,97.016,0,0,0,2.8e4,1.35e4,19.962,0.106,NaN,2019.97,NaN,0.006,3.865e5,4.444,-1.634e-4,0.75,-0.003,0.415,0.215,0.12,NaN,NaN,NaN,NaN,NaN,NaN,NaN,NaN,1.294e-5,165,213.825,84,0,1.962,15,1013.25,340.389,0.01,0.008
0.16,-4.758e-4,-0.095,-9.516,0.096,9.568,-5.001e-5,0,5.001e-5,180,0.01,1,22.175,120.893,9.788,97.027,0,0,0,2.8e4,1.35e4,19.962,0.106,NaN,2019.969,NaN,0.006,3.847e5,4.651,-1.627e-4,0.75,-0.003,0.415,0.215,0.12,NaN,NaN,NaN,NaN,NaN,NaN,NaN,NaN,1.293e-5,165,213.825,84,0,1.952,15,1013.25,340.389,0.01,0.009
0.17,-4.765e-4,-0.095,-9.531,0.096,9.583,-5.009e-5,0,5.009e-5,180,0.01,1.002,22.175,120.893,9.788,97.044,0,0,0,2.8e4,1.35e4,19.962,0.106,NaN,2019.967,NaN,0.006,3.829e5,4.218,-1.624e-4,0.751,-0.003,0.415,0.215,0.12,NaN,NaN,NaN,NaN,NaN,NaN,NaN,NaN,1.295e-5,165,213.825,84,0,1.943,15,1013.25,340.389,0.01,0.009
0.18,-4.765e-4,-0.095,-9.531,0.096,9.583,-5.009e-5,0,5.009e-5,180,0.01,1.002,22.175,120.893,9.788,97.058,0,0,0,2.8e4,1.35e4,19.962,0.106,NaN,2019.965,NaN,0.006,3.811e5,4.225,-1.619e-4,0.751,-0.003,0.416,0.215,0.12,NaN,NaN,NaN,NaN,NaN,NaN,NaN,NaN,1.295e-5,165,213.825,84,0,1.934,15,1013.25,340.389,0.01,0.009
0.19,-4.764e-4,-0.095,-9.527,0.096,9.58,-5.007e-5,0,5.007e-5,180,0.01,1.001,22.175,120.893,9.788,97.07,0,0,0,2.8e4,1.35e4,19.962,0.106,NaN,2019.964,NaN,0.006,3.793e5,4.321,-1.613e-4,0.751,-0.003,0.416,0.215,0.12,NaN,NaN,NaN,NaN,NaN,NaN,NaN,NaN,1.295e-5,165,213.825,84,0,1.925,15,1013.25,340.389,0.01,0.01
0.2,-4.766e-4,-0.095,-9.532,0.096,9.585,-5.01e-5,0,5.01e-5,180,0.01,1.002,22.175,120.893,9.788,97.085,0,0,0,2.8e4,1.35e4,19.962,0.106,NaN,2019.962,NaN,0.006,3.775e5,4.174,-1.608e-4,0.752,-0.003,0.417,0.215,0.12,NaN,NaN,NaN,NaN,NaN,NaN,NaN,NaN,1.296e-5,165,213.825,84,0,1.915,15,1013.25,340.389,0.01,0.01
0.21,-4.763e-4,-0.095,-9.525,0.096,9.578,-5.006e-5,0,5.006e-5,180,0.01,1.001,22.175,120.893,9.788,97.066,0,0,0,2.8e4,1.35e4,19.962,0.106,NaN,2019.961,NaN,0.006,3.798e5,4.381,-1.614e-4,0.751,-0.003,0.416,0.215,0.12,NaN,NaN,NaN,NaN,NaN,NaN,NaN,NaN,1.295e-5,165,213.825,84,0,1.927,15,1013.25,340.389,0.01,0.011
0.22,-4.758e-4,-0.095,-9.515,0.096,9.568,-5.001e-5,0,5.001e-5,180,0.01,1,22.175,120.893,9.788,97.046,0,0,0,2.8e4,1.35e4,19.962,0.106,NaN,2019.959,NaN,0.006,3.821e5,4.657,-1.619e-4,0.751,-0.003,0.416,0.215,0.12,NaN,NaN,NaN,NaN,NaN,NaN,NaN,NaN,1.293e-5,165,213.825,84,0,1.939,15,1013.25,340.389,0.01,0.011
0.23,-4.762e-4,-0.095,-9.525,0.096,9.577,-5.005e-5,0,5.005e-5,180,0.01,1.001,22.175,120.893,9.788,97.032,0,0,0,2.8e4,1.35e4,19.962,0.106,NaN,2019.957,NaN,0.006,3.844e5,4.392,-1.628e-4,0.75,-0.003,0.415,0.215,0.12,NaN,NaN,NaN,NaN,NaN,NaN,NaN,NaN,1.295e-5,165,213.825,84,0,1.951,15,1013.25,340.389,0.01,0.011
0.24,-4.76e-4,-0.095,-9.52,0.096,9.573,-5.003e-5,0,5.003e-5,180,0.01,1.001,22.175,120.893,9.788,97.014,0,0,0,2.8e4,1.35e4,19.962,0.106,NaN,2019.955,NaN,0.006,3.867e5,4.513,-1.634e-4,0.75,-0.003,0.415,0.215,0.12,NaN,NaN,NaN,NaN,NaN,NaN,NaN,NaN,1.294e-5,165,213.825,84,0,1.962,15,1013.25,340.389,0.01,0.012
0.25,-4.759e-4,-0.095,-9.518,0.096,9.57,-5.002e-5,0,5.002e-5,180,0.01,1,22.175,120.893,9.788,96.997,0,0,0,2.8e4,1.35e4,19.962,0.106,NaN,2019.954,NaN,0.006,3.89e5,4.587,-1.64e-4,0.749,-0.003,0.414,0.215,0.12,NaN,NaN,NaN,NaN,NaN,NaN,NaN,NaN,1.294e-5,165,213.825,84,0,1.974,15,1013.25,340.389,0.01,0.012
0.26,-4.762e-4,-0.095,-9.523,0.096,9.576,-5.005e-5,0,5.005e-5,180,0.01,1.001,22.175,120.893,9.788,96.993,0,0,0,2.8e4,1.35e4,19.962,0.106,NaN,2019.952,NaN,0.006,3.897e5,4.429,-1.644e-4,0.749,-0.003,0.414,0.215,0.12,NaN,NaN,NaN,NaN,NaN,NaN,NaN,NaN,1.294e-5,165,213.825,84,0,1.978,15,1013.25,340.389,0.01,0.013
0.27,-4.76e-4,-0.095,-9.52,0.096,9.572,-5.003e-5,0,5.003e-5,180,0.01,1.001,22.175,120.893,9.788,96.987,0,0,0,2.8e4,1.35e4,19.962,0.106,NaN,2019.95,NaN,0.006,3.905e5,4.527,-1.645e-4,0.749,-0.003,0.414,0.215,0.12,NaN,NaN,NaN,NaN,NaN,NaN,NaN,NaN,1.294e-5,165,213.825,84,0,1.982,15,1013.25,340.389,0.01,0.013
0.28,-4.761e-4,-0.095,-9.521,0.096,9.574,-5.004e-5,0,5.004e-5,180,0.01,1.001,22.175,120.893,9.788,96.982,0,0,0,2.8e4,1.35e4,19.962,0.106,NaN,2019.949,NaN,0.006,3.912e5,4.488,-1.648e-4,0.749,-0.003,0.414,0.215,0.12,NaN,NaN,NaN,NaN,NaN,NaN,NaN,NaN,1.294e-5,165,213.825,84,0,1.985,15,1013.25,340.389,0.01,0.013
0.29,-4.758e-4,-0.095,-9.517,0.096,9.569,-5.001e-5,0,5.001e-5,180,0.01,1,22.175,120.893,9.788,96.976,0,0,0,2.8e4,1.35e4,19.962,0.106,NaN,2019.947,NaN,0.006,3.92e5,4.616,-1.649e-4,0.748,-0.003,0.413,0.215,0.12,NaN,NaN,NaN,NaN,NaN,NaN,NaN,NaN,1.294e-5,165,213.825,84,0,1.989,15,1013.25,340.389,0.01,0.013
0.3,-4.76e-4,-0.095,-9.519,0.096,9.572,-5.003e-5,0,5.003e-5,180,0.01,1.001,22.175,120.893,9.788,96.971,0,0,0,2.8e4,1.35e4,19.962,0.106,NaN,2019.945,NaN,0.006,3.927e5,4.548,-1.652e-4,0.748,-0.003,0.413,0.215,0.12,NaN,NaN,NaN,NaN,NaN,NaN,NaN,NaN,1.294e-5,165,213.825,84,0,1.993,15,1013.25,340.389,0.01,0.014
0.31,-4.757e-4,-0.095,-9.514,0.096,9.566,-5e-5,0,5e-5,180,0.01,1,22.175,120.893,9.788,96.981,0,0,0,2.8e4,1.35e4,19.962,0.106,NaN,2019.943,NaN,0.006,3.911e5,4.706,-1.646e-4,0.749,-0.003,0.414,0.215,0.12,NaN,NaN,NaN,NaN,NaN,NaN,NaN,NaN,1.293e-5,165,213.825,84,0,1.985,15,1013.25,340.389,0.01,0.014
0.32,-4.763e-4,-0.095,-9.527,0.096,9.579,-5.007e-5,0,5.007e-5,180,0.01,1.001,22.175,120.893,9.788,96.996,0,0,0,2.8e4,1.35e4,19.962,0.106,NaN,2019.942,NaN,0.006,3.894e5,4.332,-1.643e-4,0.749,-0.003,0.414,0.215,0.12,NaN,NaN,NaN,NaN,NaN,NaN,NaN,NaN,1.295e-5,165,213.825,84,0,1.976,15,1013.25,340.389,0.01,0.014
0.33,-4.761e-4,-0.095,-9.521,0.096,9.574,-5.004e-5,0,5.004e-5,180,0.01,1.001,22.175,120.893,9.788,97.007,0,0,0,2.8e4,1.35e4,19.962,0.106,NaN,2019.94,NaN,0.006,3.877e5,4.483,-1.637e-4,0.749,-0.003,0.414,0.215,0.12,NaN,NaN,NaN,NaN,NaN,NaN,NaN,NaN,1.294e-5,165,213.825,84,0,1.968,15,1013.25,340.389,0.01,0.014
0.34,-4.759e-4,-0.095,-9.518,0.096,9.571,-5.002e-5,0,5.002e-5,180,0.01,1,22.175,120.893,9.788,97.018,0,0,0,2.8e4,1.35e4,19.962,0.106,NaN,2019.938,NaN,0.006,3.861e5,4.57,-1.631e-4,0.75,-0.003,0.415,0.215,0.12,NaN,NaN,NaN,NaN,NaN,NaN,NaN,NaN,1.294e-5,165,213.825,84,0,1.959,15,1013.25,340.389,0.01,0.015
0.35,-4.762e-4,-0.095,-9.524,0.096,9.576,-5.005e-5,0,5.005e-5,180,0.01,1.001,22.175,120.893,9.788,97.031,0,0,0,2.8e4,1.35e4,19.962,0.106,NaN,2019.936,NaN,0.006,3.844e5,4.419,-1.627e-4,0.75,-0.003,0.415,0.215,0.12,NaN,NaN,NaN,NaN,NaN,NaN,NaN,NaN,1.294e-5,165,213.825,84,0,1.951,15,1013.25,340.389,0.01,0.015
0.36,-4.764e-4,-0.095,-9.527,0.096,9.58,-5.007e-5,0,5.007e-5,180,0.01,1.001,22.175,120.893,9.788,97.016,0,0,0,2.8e4,1.35e4,19.962,0.106,NaN,2019.935,NaN,0.006,3.868e5,4.317,-1.635e-4,0.75,-0.003,0.415,0.215,0.12,NaN,NaN,NaN,NaN,NaN,NaN,NaN,NaN,1.295e-5,165,213.825,84,0,1.963,15,1013.25,340.389,0.01,0.015
0.37,-4.76e-4,-0.095,-9.52,0.096,9.573,-5.003e-5,0,5.003e-5,180,0.01,1.001,22.175,120.893,9.788,96.997,0,0,0,2.8e4,1.35e4,19.962,0.106,NaN,2019.933,NaN,0.006,3.891e5,4.522,-1.641e-4,0.749,-0.003,0.414,0.215,0.12,NaN,NaN,NaN,NaN,NaN,NaN,NaN,NaN,1.294e-5,165,213.825,84,0,1.974,15,1013.25,340.389,0.01,0.015
0.38,-4.762e-4,-0.095,-9.523,0.096,9.576,-5.005e-5,0,5.005e-5,180,0.01,1.001,22.175,120.893,9.788,96.981,0,0,0,2.8e4,1.35e4,19.962,0.106,NaN,2019.931,NaN,0.006,3.914e5,4.433,-1.649e-4,0.749,-0.003,0.413,0.215,0.12,NaN,NaN,NaN,NaN,NaN,NaN,NaN,NaN,1.294e-5,165,213.825,84,0,1.986,15,1013.25,340.389,0.01,0.016
0.39,-4.757e-4,-0.095,-9.515,0.096,9.567,-5e-5,0,5e-5,180,0.01,1,22.175,120.893,9.788,96.963,0,0,0,2.8e4,1.35e4,19.962,0.106,NaN,2019.93,NaN,0.006,3.937e5,4.673,-1.654e-4,0.748,-0.003,0.413,0.215,0.12,NaN,NaN,NaN,NaN,NaN,NaN,NaN,NaN,1.293e-5,165,213.825,84,0,1.998,15,1013.25,340.389,0.01,0.016
0.4,-4.755e-4,-0.095,-9.51,0.096,9.562,-4.998e-5,0,4.998e-5,180,0.01,1,22.175,120.893,9.788,96.946,0,0,0,2.8e4,1.35e4,19.962,0.106,NaN,2019.928,NaN,0.006,3.96e5,4.812,-1.66e-4,0.748,-0.003,0.412,0.215,0.12,NaN,NaN,NaN,NaN,NaN,NaN,NaN,NaN,1.293e-5,165,213.825,84,0,2.01,15,1013.25,340.389,0.01,0.016
0.41,-4.759e-4,-0.095,-9.518,0.096,9.57,-5.002e-5,0,5.002e-5,180,0.01,1,22.175,120.893,9.788,96.951,0,0,0,2.8e4,1.35e4,19.962,0.106,NaN,2019.926,NaN,0.006,3.955e5,4.595,-1.66e-4,0.748,-0.003,0.413,0.215,0.12,NaN,NaN,NaN,NaN,NaN,NaN,NaN,NaN,1.294e-5,165,213.825,84,0,2.008,15,1013.25,340.389,0.01,0.016
0.42,-4.758e-4,-0.095,-9.516,0.096,9.568,-5.001e-5,0,5.001e-5,180,0.01,1,22.175,120.893,9.788,96.954,0,0,0,2.8e4,1.35e4,19.962,0.106,NaN,2019.924,NaN,0.006,3.951e5,4.638,-1.659e-4,0.748,-0.003,0.413,0.215,0.12,NaN,NaN,NaN,NaN,NaN,NaN,NaN,NaN,1.293e-5,165,213.825,84,0,2.005,15,1013.25,340.389,0.01,0.017
0.43,-4.755e-4,-0.095,-9.51,0.096,9.562,-4.998e-5,0,4.998e-5,180,0.01,1,22.175,120.893,9.788,96.955,0,0,0,2.8e4,1.35e4,19.962,0.106,NaN,2019.922,NaN,0.006,3.946e5,4.811,-1.656e-4,0.748,-0.003,0.413,0.215,0.12,NaN,NaN,NaN,NaN,NaN,NaN,NaN,NaN,1.293e-5,165,213.825,84,0,2.003,15,1013.25,340.389,0.01,0.017
0.44,-4.753e-4,-0.095,-9.506,0.096,9.558,-4.996e-5,0,4.996e-5,180,0.01,0.999,22.175,120.893,9.788,96.957,0,0,0,2.8e4,1.35e4,19.962,0.106,NaN,2019.921,NaN,0.006,3.941e5,4.919,-1.654e-4,0.748,-0.003,0.413,0.215,0.12,NaN,NaN,NaN,NaN,NaN,NaN,NaN,NaN,1.292e-5,165,213.825,84,0,2,15,1013.25,340.389,0.01,0.017
0.45,-4.759e-4,-0.095,-9.518,0.096,9.57,-5.002e-5,0,5.002e-5,180,0.01,1,22.175,120.893,9.788,96.964,0,0,0,2.8e4,1.35e4,19.961,0.106,NaN,2019.919,NaN,0.006,3.937e5,4.583,-1.655e-4,0.748,-0.003,0.413,0.215,0.12,NaN,NaN,NaN,NaN,NaN,NaN,NaN,NaN,1.294e-5,165,213.825,84,0,1.998,15,1013.25,340.389,0.01,0.017
0.46,-4.762e-4,-0.095,-9.523,0.096,9.576,-5.005e-5,0,5.005e-5,180,0.01,1.001,22.175,120.893,9.788,96.98,0,0,0,2.8e4,1.35e4,19.961,0.106,NaN,2019.917,NaN,0.006,3.916e5,4.429,-1.649e-4,0.749,-0.003,0.413,0.215,0.12,NaN,NaN,NaN,NaN,NaN,NaN,NaN,NaN,1.294e-5,165,213.825,84,0,1.987,15,1013.25,340.389,0.01,0.017
0.47,-4.761e-4,-0.095,-9.523,0.096,9.575,-5.004e-5,0,5.004e-5,180,0.01,1.001,22.175,120.893,9.788,96.995,0,0,0,2.8e4,1.35e4,19.961,0.106,NaN,2019.915,NaN,0.006,3.894e5,4.45,-1.643e-4,0.749,-0.003,0.414,0.215,0.12,NaN,NaN,NaN,NaN,NaN,NaN,NaN,NaN,1.294e-5,165,213.825,84,0,1.976,15,1013.25,340.389,0.01,0.018
0.48,-4.753e-4,-0.095,-9.507,0.096,9.559,-4.996e-5,0,4.996e-5,180,0.01,0.999,22.175,120.893,9.788,97.005,0,0,0,2.8e4,1.35e4,19.961,0.106,NaN,2019.914,NaN,0.006,3.873e5,4.905,-1.633e-4,0.75,-0.003,0.414,0.215,0.12,NaN,NaN,NaN,NaN,NaN,NaN,NaN,NaN,1.292e-5,165,213.825,84,0,1.966,15,1013.25,340.389,0.01,0.018
0.49,-4.756e-4,-0.095,-9.512,0.096,9.565,-4.999e-5,0,4.999e-5,180,0.01,1,22.175,120.893,9.788,97.022,0,0,0,2.8e4,1.35e4,19.961,0.106,NaN,2019.912,NaN,0.006,3.852e5,4.746,-1.628e-4,0.75,-0.003,0.415,0.215,0.12,NaN,NaN,NaN,NaN,NaN,NaN,NaN,NaN,1.293e-5,165,213.825,84,0,1.955,15,1013.25,340.389,0.01,0.018
0.5,-4.761e-4,-0.095,-9.522,0.096,9.574,-5.004e-5,0,5.004e-5,180,0.01,1.001,22.175,120.893,9.788,97.04,0,0,0,2.8e4,1.35e4,19.961,0.106,NaN,2019.91,NaN,0.006,3.831e5,4.47,-1.623e-4,0.751,-0.003,0.415,0.215,0.12,NaN,NaN,NaN,NaN,NaN,NaN,NaN,NaN,1.294e-5,165,213.825,84,0,1.944,15,1013.25,340.389,0.01,0.018
0.51,-4.758e-4,-0.095,-9.515,0.096,9.568,-5.001e-5,0,5.001e-5,180,0.01,1,22.175,120.893,9.788,97.016,0,0,0,2.8e4,1.35e4,19.961,0.106,NaN,2019.908,NaN,0.006,3.862e5,4.657,-1.631e-4,0.75,-0.003,0.415,0.215,0.12,NaN,NaN,NaN,NaN,NaN,NaN,NaN,NaN,1.293e-5,165,213.825,84,0,1.96,15,1013.25,340.389,0.01,0.019
0.52,-4.75e-4,-0.095,-9.499,0.096,9.551,-4.992e-5,0,4.992e-5,180,0.01,0.998,22.175,120.893,9.788,96.989,0,0,0,2.8e4,1.35e4,19.961,0.106,NaN,2019.906,NaN,0.006,3.893e5,5.115,-1.638e-4,0.749,-0.003,0.414,0.215,0.12,NaN,NaN,NaN,NaN,NaN,NaN,NaN,NaN,1.291e-5,165,213.825,84,0,1.976,15,1013.25,340.389,0.01,0.019
0.53,-4.746e-4,-0.095,-9.491,0.095,9.543,-4.988e-5,0,4.988e-5,180,0.01,0.998,22.175,120.893,9.788,96.965,0,0,0,2.8e4,1.35e4,19.961,0.106,NaN,2019.904,NaN,0.006,3.924e5,5.339,-1.645e-4,0.748,-0.003,0.413,0.215,0.12,NaN,NaN,NaN,NaN,NaN,NaN,NaN,NaN,1.29e-5,165,213.825,84,0,1.992,15,1013.25,340.389,0.01,0.019
0.54,-4.758e-4,-0.095,-9.516,0.096,9.568,-5.001e-5,0,5.001e-5,180,0.01,1,22.175,120.893,9.788,96.95,0,0,0,2.8e4,1.35e4,19.961,0.106,NaN,2019.903,NaN,0.006,3.956e5,4.638,-1.66e-4,0.748,-0.003,0.413,0.215,0.12,NaN,NaN,NaN,NaN,NaN,NaN,NaN,NaN,1.293e-5,165,213.825,84,0,2.008,15,1013.25,340.389,0.01,0.019
0.55,-4.755e-4,-0.095,-9.509,0.096,9.562,-4.997e-5,0,4.997e-5,180,0.01,0.999,22.175,120.893,9.788,96.927,0,0,0,2.8e4,1.35e4,19.961,0.106,NaN,2019.901,NaN,0.006,3.987e5,4.82,-1.668e-4,0.747,-0.003,0.412,0.215,0.12,NaN,NaN,NaN,NaN,NaN,NaN,NaN,NaN,1.293e-5,165,213.825,84,0,2.024,15,1013.25,340.389,0.01,0.019
0.56,-4.749e-4,-0.095,-9.498,0.096,9.55,-4.991e-5,0,4.991e-5,180,0.01,0.998,22.175,120.893,9.788,96.935,0,0,0,2.8e4,1.35e4,19.961,0.106,NaN,2019.899,NaN,0.006,3.971e5,5.14,-1.661e-4,0.747,-0.003,0.412,0.215,0.12,NaN,NaN,NaN,NaN,NaN,NaN,NaN,NaN,1.291e-5,165,213.825,84,0,2.016,15,1013.25,340.389,0.01,0.02
0.57,-4.749e-4,-0.095,-9.497,0.095,9.55,-4.991e-5,0,4.991e-5,180,0.01,0.998,22.175,120.893,9.788,96.945,0,0,0,2.8e4,1.35e4,19.961,0.106,NaN,2019.897,NaN,0.006,3.956e5,5.164,-1.656e-4,0.748,-0.003,0.413,0.215,0.12,NaN,NaN,NaN,NaN,NaN,NaN,NaN,NaN,1.291e-5,165,213.825,84,0,2.008,15,1013.25,340.389,0.01,0.02
0.58,-4.749e-4,-0.095,-9.499,0.096,9.551,-4.992e-5,0,4.992e-5,180,0.01,0.998,22.175,120.893,9.788,96.956,0,0,0,2.8e4,1.35e4,19.961,0.106,NaN,2019.895,NaN,0.006,3.94e5,5.125,-1.652e-4,0.748,-0.003,0.413,0.215,0.12,NaN,NaN,NaN,NaN,NaN,NaN,NaN,NaN,1.291e-5,165,213.825,84,0,2,15,1013.25,340.389,0.01,0.02
0.59,-4.746e-4,-0.095,-9.493,0.095,9.545,-4.989e-5,0,4.989e-5,180,0.01,0.998,22.175,120.893,9.788,96.965,0,0,0,2.8e4,1.35e4,19.961,0.106,NaN,2019.893,NaN,0.006,3.925e5,5.296,-1.646e-4,0.748,-0.003,0.413,0.215,0.12,NaN,NaN,NaN,NaN,NaN,NaN,NaN,NaN,1.29e-5,165,213.825,84,0,1.992,15,1013.25,340.389,0.01,0.02
0.6,-4.741e-4,-0.095,-9.483,0.095,9.535,-4.984e-5,0,4.984e-5,180,0.01,0.997,22.175,120.893,9.788,96.973,0,0,0,2.8e4,1.349e4,19.961,0.106,NaN,2019.891,NaN,0.006,3.909e5,5.567,-1.639e-4,0.749,-0.003,0.414,0.215,0.12,NaN,NaN,NaN,NaN,NaN,NaN,NaN,NaN,1.289e-5,165,213.825,84,0,1.984,15,1013.25,340.389,0.01,0.021
0.61,-4.739e-4,-0.095,-9.478,0.095,9.53,-4.981e-5,0,4.981e-5,180,0.01,0.996,22.175,120.893,9.788,97.005,0,0,0,2.8e4,1.349e4,19.961,0.106,NaN,2019.889,NaN,0.006,3.863e5,5.717,-1.624e-4,0.75,-0.003,0.415,0.215,0.12,NaN,NaN,NaN,NaN,NaN,NaN,NaN,NaN,1.288e-5,165,213.825,84,0,1.96,15,1013.25,340.389,0.01,0.021
0.62,-4.745e-4,-0.095,-9.49,0.095,9.542,-4.987e-5,0,4.987e-5,180,0.01,0.997,22.175,120.893,9.788,97.042,0,0,0,2.8e4,1.349e4,19.961,0.106,NaN,2019.887,NaN,0.006,3.816e5,5.366,-1.612e-4,0.751,-0.003,0.416,0.215,0.12,NaN,NaN,NaN,NaN,NaN,NaN,NaN,NaN,1.29e-5,165,213.825,84,0,1.936,15,1013.25,340.389,0.01,0.021
0.63,-4.737e-4,-0.095,-9.473,0.095,9.525,-4.978e-5,0,4.978e-5,180,0.01,0.996,22.175,120.893,9.788,97.072,0,0,0,2.799e4,1.349e4,19.961,0.106,NaN,2019.884,NaN,0.006,3.769e5,5.844,-1.595e-4,0.752,-0.003,0.417,0.215,0.12,NaN,NaN,NaN,NaN,NaN,NaN,NaN,NaN,1.288e-5,165,213.825,84,0,1.912,15,1013.25,340.389,0.01,0.021
0.64,-4.738e-4,-0.095,-9.475,0.095,9.527,-4.979e-5,0,4.979e-5,180,0.01,0.996,22.175,120.893,9.788,97.108,0,0,0,2.799e4,1.349e4,19.961,0.106,NaN,2019.882,NaN,0.006,3.722e5,5.786,-1.581e-4,0.753,-0.003,0.418,0.215,0.12,NaN,NaN,NaN,NaN,NaN,NaN,NaN,NaN,1.288e-5,165,213.825,84,0,1.889,15,1013.25,340.389,0.01,0.021
0.65,-4.734e-4,-0.095,-9.469,0.095,9.521,-4.976e-5,0,4.976e-5,180,0.01,0.995,22.175,120.893,9.788,97.143,0,0,0,2.799e4,1.349e4,19.961,0.106,NaN,2019.88,NaN,0.006,3.676e5,5.968,-1.566e-4,0.754,-0.003,0.419,0.215,0.12,NaN,NaN,NaN,NaN,NaN,NaN,NaN,NaN,1.287e-5,165,213.825,84,0,1.865,15,1013.25,340.389,0.01,0.022
0.66,-4.724e-4,-0.094,-9.448,0.095,9.5,-4.965e-5,0,4.965e-5,180,0.01,0.993,22.175,120.893,9.788,97.128,0,0,0,2.799e4,1.349e4,19.961,0.106,NaN,2019.877,NaN,0.006,3.686e5,6.551,-1.565e-4,0.754,-0.003,0.419,0.215,0.12,NaN,NaN,NaN,NaN,NaN,NaN,NaN,NaN,1.284e-5,165,213.825,84,0,1.87,15,1013.25,340.389,0.01,0.022
0.67,-4.721e-4,-0.094,-9.442,0.095,9.494,-4.962e-5,0,4.962e-5,180,0.01,0.992,22.175,120.893,9.788,97.118,0,0,0,2.799e4,1.349e4,19.961,0.106,NaN,2019.875,NaN,0.006,3.696e5,6.72,-1.567e-4,0.754,-0.003,0.419,0.215,0.12,NaN,NaN,NaN,NaN,NaN,NaN,NaN,NaN,1.283e-5,165,213.825,84,0,1.875,15,1013.25,340.389,0.01,0.022
0.68,-4.711e-4,-0.094,-9.421,0.095,9.473,-4.951e-5,0,4.951e-5,180,0.01,0.99,22.175,120.893,9.788,97.104,0,0,0,2.799e4,1.349e4,19.961,0.106,NaN,2019.872,NaN,0.006,3.707e5,7.299,-1.566e-4,0.754,-0.003,0.418,0.215,0.12,NaN,NaN,NaN,NaN,NaN,NaN,NaN,NaN,1.281e-5,165,213.825,84,0,1.881,15,1013.25,340.389,0.01,0.022
0.69,-4.708e-4,-0.094,-9.415,0.095,9.467,-4.948e-5,0,4.948e-5,180,0.01,0.99,22.175,120.893,9.788,97.094,0,0,0,2.799e4,1.349e4,19.961,0.106,NaN,2019.869,NaN,0.006,3.717e5,7.467,-1.568e-4,0.753,-0.003,0.418,0.215,0.12,NaN,NaN,NaN,NaN,NaN,NaN,NaN,NaN,1.28e-5,165,213.825,84,0,1.886,15,1013.25,340.389,0.01,0.023
0.7,-4.699e-4,-0.094,-9.398,0.095,9.45,-4.939e-5,0,4.939e-5,180,0.01,0.988,22.175,120.893,9.788,97.081,0,0,0,2.799e4,1.349e4,19.961,0.106,NaN,2019.866,NaN,0.006,3.728e5,7.951,-1.568e-4,0.753,-0.003,0.418,0.215,0.12,NaN,NaN,NaN,NaN,NaN,NaN,NaN,NaN,1.277e-5,165,213.825,84,0,1.891,15,1013.25,340.389,0.01,0.023
0.71,-4.682e-4,-0.094,-9.363,0.094,9.415,-4.921e-5,0,4.921e-5,180,0.01,0.984,22.175,120.893,9.788,97.067,0,0,0,2.799e4,1.349e4,19.96,0.106,NaN,2019.863,NaN,0.006,3.731e5,8.938,-1.562e-4,0.753,-0.003,0.418,0.215,0.12,NaN,NaN,NaN,NaN,NaN,NaN,NaN,NaN,1.273e-5,165,213.825,84,0,1.893,15,1013.25,340.389,0.01,0.023
0.72,-4.676e-4,-0.094,-9.352,0.094,9.403,-4.915e-5,0,4.915e-5,180,0.01,0.983,22.175,120.893,9.788,97.061,0,0,0,2.799e4,1.349e4,19.96,0.106,NaN,2019.859,NaN,0.006,3.735e5,9.255,-1.561e-4,0.753,-0.003,0.418,0.215,0.12,NaN,NaN,NaN,NaN,NaN,NaN,NaN,NaN,1.271e-5,165,213.825,84,0,1.895,15,1013.25,340.389,0.01,0.023
0.73,-4.659e-4,-0.093,-9.319,0.094,9.37,-4.897e-5,0,4.897e-5,180,0.01,0.979,22.175,120.893,9.788,97.048,0,0,0,2.799e4,1.349e4,19.96,0.106,NaN,2019.855,NaN,0.006,3.739e5,10.185,-1.556e-4,0.753,-0.003,0.418,0.215,0.12,NaN,NaN,NaN,NaN,NaN,NaN,NaN,NaN,1.267e-5,165,213.825,84,0,1.897,15,1013.25,340.389,0.01,0.023
0.74,-4.64e-4,-0.093,-9.28,0.093,9.331,-4.877e-5,0,4.877e-5,180,0.01,0.975,22.175,120.893,9.788,97.034,0,0,0,2.799e4,1.349e4,19.96,0.106,NaN,2019.851,NaN,0.006,3.742e5,11.275,-1.549e-4,0.753,-0.003,0.418,0.215,0.12,NaN,NaN,NaN,NaN,NaN,NaN,NaN,NaN,1.261e-5,165,213.825,84,0,1.899,15,1013.25,340.389,0.01,0.024
0.75,-4.621e-4,-0.092,-9.243,0.093,9.294,-4.857e-5,0,4.857e-5,180,0.01,0.971,22.175,120.893,9.788,97.02,0,0,0,2.799e4,1.349e4,19.96,0.106,NaN,2019.846,NaN,0.006,3.746e5,12.322,-1.543e-4,0.753,-0.003,0.417,0.215,0.12,NaN,NaN,NaN,NaN,NaN,NaN,NaN,NaN,1.256e-5,165,213.825,84,0,1.901,15,1013.25,340.389,0.01,0.024
0.76,-4.598e-4,-0.092,-9.195,0.092,9.246,-4.832e-5,0,4.832e-5,180,0.01,0.966,22.175,120.893,9.788,96.995,0,0,0,2.799e4,1.349e4,19.96,0.106,NaN,2019.841,NaN,0.006,3.761e5,13.663,-1.538e-4,0.752,-0.003,0.417,0.215,0.12,NaN,NaN,NaN,NaN,NaN,NaN,NaN,NaN,1.25e-5,165,213.825,84,0,1.908,15,1013.25,340.389,0.01,0.024
0.77,-4.586e-4,-0.092,-9.173,0.092,9.223,-4.82e-5,0,4.82e-5,180,0.01,0.964,22.175,120.893,9.788,96.977,0,0,0,2.799e4,1.349e4,19.96,0.106,NaN,2019.836,NaN,0.006,3.775e5,14.302,-1.538e-4,0.752,-0.003,0.417,0.215,0.12,NaN,NaN,NaN,NaN,NaN,NaN,NaN,NaN,1.247e-5,165,213.825,84,0,1.916,15,1013.25,340.389,0.01,0.024
0.78,-4.56e-4,-0.091,-9.12,0.092,9.171,-4.793e-5,0,4.793e-5,180,0.01,0.959,22.175,120.893,9.788,96.951,0,0,0,2.799e4,1.349e4,19.96,0.106,NaN,2019.83,NaN,0.006,3.79e5,15.77,-1.532e-4,0.751,-0.003,0.416,0.215,0.12,NaN,NaN,NaN,NaN,NaN,NaN,NaN,NaN,1.24e-5,165,213.825,84,0,1.924,15,1013.25,340.389,0.01,0.024
0.79,-4.54e-4,-0.091,-9.079,0.091,9.129,-4.771e-5,0,4.771e-5,180,0.01,0.954,22.175,120.893,9.788,96.929,0,0,0,2.799e4,1.349e4,19.96,0.106,NaN,2019.823,NaN,0.006,3.805e5,16.927,-1.529e-4,0.751,-0.003,0.416,0.215,0.12,NaN,NaN,NaN,NaN,NaN,NaN,NaN,NaN,1.234e-5,165,213.825,84,0,1.931,15,1013.25,340.389,0.01,0.025
0.8,-4.518e-4,-0.09,-9.037,0.091,9.087,-4.749e-5,0,4.749e-5,180,0.009,0.95,22.175,120.893,9.788,96.906,0,0,0,2.799e4,1.349e4,19.96,0.106,NaN,2019.816,NaN,0.006,3.819e5,18.121,-1.525e-4,0.751,-0.003,0.416,0.215,0.12,NaN,NaN,NaN,NaN,NaN,NaN,NaN,NaN,1.228e-5,165,213.825,84,0,1.939,15,1013.25,340.389,0.01,0.025
0.81,-4.495e-4,-0.09,-8.99,0.09,9.04,-4.725e-5,0,4.725e-5,180,0.009,0.945,22.175,120.893,9.788,96.895,0,0,0,2.799e4,1.349e4,19.96,0.106,NaN,2019.809,NaN,0.006,3.815e5,19.438,-1.515e-4,0.751,-0.003,0.416,0.215,0.12,NaN,NaN,NaN,NaN,NaN,NaN,NaN,NaN,1.222e-5,165,213.825,84,0,1.937,15,1013.25,340.389,0.01,0.025
0.82,-4.482e-4,-0.09,-8.965,0.09,9.014,-4.711e-5,0,4.711e-5,180,0.009,0.942,22.175,120.893,9.788,96.89,0,0,0,2.799e4,1.349e4,19.959,0.106,NaN,2019.801,NaN,0.006,3.811e5,20.155,-1.509e-4,0.751,-0.003,0.416,0.215,0.12,NaN,NaN,NaN,NaN,NaN,NaN,NaN,NaN,1.218e-5,165,213.825,84,0,1.934,15,1013.25,340.389,0.01,0.025
0.83,-4.434e-4,-0.089,-8.867,0.089,8.916,-4.66e-5,0,4.66e-5,180,0.009,0.932,22.175,120.893,9.788,96.864,0,0,0,2.799e4,1.349e4,19.959,0.106,NaN,2019.793,NaN,0.006,3.807e5,22.899,-1.489e-4,0.751,-0.003,0.416,0.215,0.12,NaN,NaN,NaN,NaN,NaN,NaN,NaN,NaN,1.205e-5,165,213.825,84,0,1.932,15,1013.25,340.389,0.01,0.025
0.84,-4.345e-4,-0.087,-8.69,0.087,8.738,-4.567e-5,0,4.567e-5,180,0.009,0.913,22.175,120.893,9.788,96.815,0,0,0,2.799e4,1.349e4,19.959,0.106,NaN,2019.782,NaN,0.006,3.802e5,27.886,-1.455e-4,0.751,-0.003,0.416,0.215,0.12,NaN,NaN,NaN,NaN,NaN,NaN,NaN,NaN,1.181e-5,165,213.825,84,0,1.93,15,1013.25,340.389,0.01,0.025
0.85,-4.271e-4,-0.085,-8.542,0.086,8.589,-4.489e-5,0,4.489e-5,180,0.009,0.898,22.175,120.893,9.788,96.774,0,0,0,2.799e4,1.349e4,19.959,0.106,NaN,2019.77,NaN,0.006,3.798e5,32.036,-1.426e-4,0.751,-0.003,0.416,0.215,0.12,NaN,NaN,NaN,NaN,NaN,NaN,NaN,NaN,1.161e-5,165,213.825,84,0,1.928,15,1013.25,340.389,0.01,0.026
0.86,-4.194e-4,-0.084,-8.388,0.084,8.434,-4.408e-5,0,4.408e-5,180,0.009,0.882,22.175,120.893,9.788,96.7,0,0,0,2.799e4,1.349e4,19.959,0.106,NaN,2019.756,NaN,0.006,3.841e5,36.392,-1.411e-4,0.75,-0.003,0.415,0.215,0.12,NaN,NaN,NaN,NaN,NaN,NaN,NaN,NaN,1.14e-5,165,213.825,84,0,1.951,15,1013.25,340.389,0.01,0.026
0.87,-4.119e-4,-0.082,-8.239,0.083,8.284,-4.33e-5,0,4.33e-5,180,0.009,0.866,22.175,120.893,9.788,96.629,0,0,0,2.799e4,1.349e4,19.958,0.106,NaN,2019.74,NaN,0.006,3.885e5,40.581,-1.397e-4,0.749,-0.003,0.414,0.215,0.12,NaN,NaN,NaN,NaN,NaN,NaN,NaN,NaN,1.12e-5,165,213.825,84,0,1.973,15,1013.25,340.389,0.01,0.026
0.88,-4.047e-4,-0.081,-8.093,0.081,8.138,-4.253e-5,0,4.253e-5,180,0.009,0.851,22.175,120.893,9.788,96.561,0,0,0,2.799e4,1.349e4,19.958,0.106,NaN,2019.723,NaN,0.006,3.928e5,44.682,-1.384e-4,0.748,-0.003,0.413,0.215,0.12,NaN,NaN,NaN,NaN,NaN,NaN,NaN,NaN,1.1e-5,165,213.825,84,0,1.995,15,1013.25,340.389,0.01,0.026
0.89,-3.982e-4,-0.08,-7.965,0.08,8.008,-4.186e-5,0,4.186e-5,180,0.008,0.837,22.175,120.893,9.788,96.499,0,0,0,2.799e4,1.349e4,19.958,0.106,NaN,2019.705,NaN,0.006,3.972e5,48.294,-1.374e-4,0.747,-0.003,0.412,0.215,0.12,NaN,NaN,NaN,NaN,NaN,NaN,NaN,NaN,1.083e-5,165,213.825,84,0,2.018,15,1013.25,340.389,0.01,0.026
0.9,-3.921e-4,-0.078,-7.842,0.079,7.885,-4.121e-5,0,4.121e-5,180,0.008,0.824,22.175,120.893,9.788,96.44,0,0,0,2.799e4,1.349e4,19.957,0.106,NaN,2019.685,NaN,0.006,4.015e5,51.752,-1.366e-4,0.746,-0.002,0.411,0.215,0.12,NaN,NaN,NaN,NaN,NaN,NaN,NaN,NaN,1.066e-5,165,213.825,84,0,2.04,15,1013.25,340.389,0.01,0.027
0.91,-3.84e-4,-0.077,-7.679,0.077,7.722,-4.036e-5,0,4.036e-5,180,0.008,0.807,22.175,120.893,9.788,96.416,0,0,0,2.798e4,1.348e4,19.957,0.106,NaN,2019.664,NaN,0.006,3.976e5,56.319,-1.326e-4,0.747,-0.002,0.412,0.215,0.12,NaN,NaN,NaN,NaN,NaN,NaN,NaN,NaN,1.044e-5,165,213.825,84,0,2.02,15,1013.25,340.389,0.01,0.027
0.92,-3.761e-4,-0.075,-7.522,0.076,7.563,-3.953e-5,0,3.953e-5,180,0.008,0.791,22.175,120.893,9.788,96.392,0,0,0,2.798e4,1.348e4,19.957,0.106,NaN,2019.641,NaN,0.006,3.936e5,60.748,-1.288e-4,0.748,-0.002,0.413,0.215,0.12,NaN,NaN,NaN,NaN,NaN,NaN,NaN,NaN,1.022e-5,165,213.825,84,0,2,15,1013.25,340.389,0.01,0.027
0.93,-3.643e-4,-0.073,-7.286,0.073,7.326,-3.829e-5,0,3.829e-5,180,0.008,0.766,22.175,120.893,9.788,96.346,0,0,0,2.798e4,1.348e4,19.956,0.106,NaN,2019.615,NaN,0.006,3.897e5,67.387,-1.237e-4,0.749,-0.002,0.414,0.215,0.12,NaN,NaN,NaN,NaN,NaN,NaN,NaN,NaN,9.903e-6,165,213.825,84,0,1.98,15,1013.25,340.389,0.01,0.027
0.94,-3.499e-4,-0.07,-6.999,0.07,7.037,-3.678e-5,0,3.678e-5,180,0.007,0.736,22.175,120.893,9.788,96.284,0,0,0,2.798e4,1.348e4,19.956,0.106,NaN,2019.586,NaN,0.006,3.857e5,75.455,-1.179e-4,0.75,-0.002,0.415,0.215,0.12,NaN,NaN,NaN,NaN,NaN,NaN,NaN,NaN,9.513e-6,165,213.825,84,0,1.96,15,1013.25,340.389,0.01,0.027
0.95,-3.337e-4,-0.067,-6.674,0.067,6.71,-3.507e-5,0,3.507e-5,180,0.007,0.701,22.175,120.893,9.788,96.209,0,0,0,2.798e4,1.348e4,19.955,0.106,NaN,2019.554,NaN,0.006,3.818e5,84.603,-1.116e-4,0.751,-0.002,0.416,0.215,0.12,NaN,NaN,NaN,NaN,NaN,NaN,NaN,NaN,9.071e-6,165,213.825,84,0,1.941,15,1013.25,340.389,0.01,0.028
0.96,-3.135e-4,-0.063,-6.271,0.063,6.305,-3.295e-5,0,3.295e-5,180,0.007,0.659,22.175,120.893,9.788,96.1,0,0,0,2.798e4,1.348e4,19.954,0.106,NaN,2019.517,NaN,0.006,3.797e5,95.934,-1.049e-4,0.751,-0.002,0.416,0.215,0.12,NaN,NaN,NaN,NaN,NaN,NaN,NaN,NaN,8.523e-6,165,213.825,84,0,1.931,15,1013.25,340.389,0.01,0.028
0.97,-2.933e-4,-0.059,-5.865,0.059,5.898,-3.082e-5,0,3.082e-5,180,0.006,0.616,22.175,120.893,9.788,95.989,0,0,0,2.798e4,1.348e4,19.954,0.106,NaN,2019.476,NaN,0.006,3.777e5,107.326,-9.84e-5,0.752,-0.002,0.417,0.215,0.12,NaN,NaN,NaN,NaN,NaN,NaN,NaN,NaN,7.972e-6,165,213.825,84,0,1.921,15,1013.25,340.389,0.01,0.028
0.98,-2.671e-4,-0.053,-5.342,0.054,5.372,-2.808e-5,0,2.808e-5,180,0.006,0.561,22.175,120.893,9.788,95.841,0,0,0,2.797e4,1.347e4,19.953,0.106,NaN,2019.43,NaN,0.006,3.756e5,122.033,-9.053e-5,0.752,-0.002,0.417,0.215,0.12,NaN,NaN,NaN,NaN,NaN,NaN,NaN,NaN,7.261e-6,165,213.825,84,0,1.911,15,1013.25,340.389,0.01,0.028
0.99,-2.333e-4,-0.047,-4.667,0.047,4.692,-2.453e-5,0,2.453e-5,180,0.005,0.49,22.175,120.893,9.788,95.647,0,0,0,2.797e4,1.347e4,19.952,0.106,NaN,2019.376,NaN,0.006,3.736e5,141.022,-8.109e-5,0.753,-0.002,0.418,0.215,0.12,NaN,NaN,NaN,NaN,NaN,NaN,NaN,NaN,6.343e-6,165,213.825,84,0,1.901,15,1013.25,340.389,0.01,0.028
1,-1.839e-4,-0.037,-3.678,0.037,3.699,-1.933e-5,0,1.933e-5,180,0.004,0.387,22.175,120.893,9.788,95.355,0,0,0,2.797e4,1.347e4,19.951,0.106,NaN,2019.312,NaN,0.006,3.714e5,168.795,-6.863e-5,0.753,-0.001,0.418,0.215,0.12,NaN,NaN,NaN,NaN,NaN,NaN,NaN,NaN,5e-6,165,213.825,84,0,1.891,15,1013.25,340.389,0.01,0.028
1.01,-1.138e-4,-0.023,-2.275,0.023,2.288,-1.196e-5,0,1.196e-5,180,0.002,0.239,22.175,120.893,9.788,94.938,0,0,0,2.796e4,1.346e4,19.949,0.106,NaN,2019.232,NaN,0.005,3.665e5,208.221,-5.275e-5,0.755,-0.001,0.419,0.215,0.12,NaN,NaN,NaN,NaN,NaN,NaN,NaN,NaN,3.094e-6,165,213.825,84,0,1.867,15,1013.25,340.389,0.01,0.029
1.02,-4.855e-5,-0.01,-0.97,0.01,0.975,-5.103e-6,0,5.103e-6,180,0.001,0.102,22.175,120.893,9.788,94.541,0,0,0,2.796e4,1.346e4,19.948,0.106,NaN,2019.139,NaN,0.005,3.617e5,244.886,-4.018e-5,0.756,-9.02e-4,0.421,0.215,0.12,NaN,NaN,NaN,NaN,NaN,NaN,NaN,NaN,1.32e-6,165,213.825,84,0,1.844,15,1013.25,340.389,0.01,0.029
1.03,2.205e-5,0.004,0.442,0.004,0.445,2.317e-6,0,2.317e-6,0,4.638e-4,0.046,22.175,120.893,9.788,94.099,0,0,0,2.795e4,1.345e4,19.946,0.106,NaN,2019.03,NaN,0.005,3.569e5,284.538,-2.896e-5,0.757,-6.678e-4,0.422,0.215,0.12,NaN,NaN,NaN,NaN,NaN,NaN,NaN,NaN,5.998e-7,165,213.825,84,0,1.82,15,1013.25,340.389,0.01,0.029
1.04,1.641e-4,0.024,1.96,0.024,1.971,1.725e-5,0,1.725e-5,0,0.003,0.206,22.175,120.893,9.788,93.47,0,0,0,2.795e4,1.345e4,19.943,0.106,NaN,2018.905,NaN,0.005,3.52e5,327.142,-1.723e-5,0.758,-4.085e-4,0.423,0.215,0.12,NaN,NaN,NaN,NaN,NaN,NaN,NaN,NaN,3.263e-6,165,213.825,84,0,1.796,15,1013.25,340.389,0.01,0.029
1.05,5.833e-4,0.06,3.585,0.06,3.604,6.13e-5,0,6.13e-5,0,0.006,0.377,22.175,120.893,9.788,92.295,0,0,0,2.794e4,1.344e4,19.941,0.106,NaN,2018.763,NaN,0.005,3.47e5,372.693,-4.917e-6,0.76,-1.199e-4,0.425,0.215,0.12,NaN,NaN,NaN,NaN,NaN,NaN,NaN,NaN,8.133e-6,165,213.825,84,0,1.773,15,1013.25,340.389,0.01,0.029
1.06,0.001,0.115,5.563,0.116,5.594,1.534e-4,0,1.534e-4,0,0.012,0.585,22.175,120.893,9.788,90.496,0,0,0,2.793e4,1.343e4,19.938,0.106,NaN,2018.599,NaN,0.005,3.478e5,428.171,-5.069e-8,0.759,-1.231e-6,0.424,0.215,0.12,NaN,NaN,NaN,NaN,NaN,NaN,NaN,NaN,1.569e-5,165,213.825,84,0,1.778,15,1013.25,340.389,0.01,0.03
1.07,0.003,0.191,7.517,0.192,7.558,3.142e-4,0,3.142e-4,0,0.02,0.79,22.175,120.893,9.788,88.074,0,0,0,2.792e4,1.342e4,19.935,0.106,NaN,2018.415,NaN,0.005,3.49e5,482.882,2.948e-6,0.759,7.107e-5,0.424,0.215,0.12,NaN,NaN,NaN,NaN,NaN,NaN,NaN,NaN,2.59e-5,165,213.825,84,0,1.783,15,1013.25,340.389,0.01,0.037
1.08,0.005,0.288,9.758,0.29,9.812,5.658e-4,0,5.658e-4,0,0.03,1.026,22.175,120.893,9.788,84.955,0,0,0,2.791e4,1.341e4,19.931,0.106,NaN,2018.206,NaN,0.005,3.512e5,545.617,5.186e-5,0.759,0.001,0.423,0.215,0.12,NaN,NaN,NaN,NaN,NaN,NaN,NaN,NaN,3.916e-5,165,213.825,84,0,1.789,15,1013.249,340.389,0.01,0.038
1.09,0.009,0.411,12.305,0.413,12.373,9.333e-4,0,9.333e-4,0,0.043,1.293,22.175,120.893,9.788,81.082,0,0,0,2.79e4,1.34e4,19.927,0.106,NaN,2017.969,NaN,0.005,3.552e5,616.859,2.803e-4,0.757,0.007,0.422,0.215,0.12,NaN,NaN,NaN,NaN,NaN,NaN,NaN,NaN,5.588e-5,165,213.825,84,0,1.794,15,1013.249,340.389,0.01,0.038
1.1,0.014,0.563,15.219,0.566,15.303,0.001,0,0.001,0,0.059,1.6,22.175,120.893,9.788,76.425,0,0,0,2.789e4,1.339e4,19.922,0.106,NaN,2017.702,NaN,0.005,3.621e5,698.307,9.708e-4,0.756,0.022,0.421,0.215,0.12,NaN,NaN,NaN,NaN,NaN,NaN,NaN,NaN,7.656e-5,165,213.825,84,0,1.8,15,1013.248,340.389,0.01,0.038
1.11,0.02,0.746,18.29,0.75,18.39,0.002,0,0.002,0,0.078,1.922,22.175,120.893,9.788,71.049,0,0,0,2.788e4,1.338e4,19.917,0.106,NaN,2017.401,NaN,0.006,3.726e5,784.022,0.003,0.753,0.055,0.418,0.215,0.12,NaN,NaN,NaN,NaN,NaN,NaN,NaN,NaN,1.014e-4,165,213.825,84,0,1.802,15,1013.248,340.389,0.01,0.038
1.12,0.029,0.96,21.44,0.966,21.559,0.003,0,0.003,0,0.101,2.253,22.175,120.893,9.788,65.174,0,0,0,2.786e4,1.336e4,19.911,0.106,NaN,2017.066,NaN,0.006,3.888e5,871.849,0.006,0.749,0.114,0.414,0.215,0.12,NaN,NaN,NaN,NaN,NaN,NaN,NaN,NaN,1.305e-4,165,213.825,84,0,1.804,15,1013.247,340.389,0.01,0.038
1.13,0.04,1.207,24.646,1.213,24.782,0.004,0,0.004,0,0.127,2.59,22.175,120.893,9.788,59.06,0,0,0,2.784e4,1.334e4,19.904,0.106,NaN,2016.696,NaN,0.006,4.119e5,961.049,0.012,0.744,0.201,0.409,0.215,0.12,NaN,NaN,NaN,NaN,NaN,NaN,NaN,NaN,1.64e-4,165,213.825,84,0,1.806,15,1013.245,340.389,0.01,0.039
1.14,0.053,1.482,27.565,1.49,27.717,0.006,0,0.006,0,0.156,2.897,22.175,120.893,9.788,53.05,0,0,0,2.782e4,1.332e4,19.897,0.106,NaN,2016.295,NaN,0.007,4.426e5,1042.073,0.021,0.738,0.309,0.403,0.215,0.12,NaN,NaN,NaN,NaN,NaN,NaN,NaN,NaN,2.015e-4,165,213.825,84,0,1.809,15,1013.244,340.389,0.01,0.039
1.15,0.069,1.783,30.094,1.793,30.26,0.007,0,0.007,0,0.187,3.163,22.175,120.893,9.788,47.429,0,0,0,2.78e4,1.33e4,19.889,0.106,NaN,2015.866,NaN,0.007,4.809e5,1112.029,0.033,0.731,0.424,0.395,0.215,0.12,NaN,NaN,NaN,NaN,NaN,NaN,NaN,NaN,2.424e-4,165,213.825,84,0,1.811,15,1013.242,340.389,0.01,0.039
1.16,0.089,2.106,32.29,2.117,32.468,0.009,0,0.009,0,0.221,3.394,22.175,120.893,9.788,42.268,0,0,0,2.778e4,1.328e4,19.881,0.106,NaN,2015.413,NaN,0.008,5.257e5,1172.553,0.05,0.723,0.536,0.388,0.215,0.12,NaN,NaN,NaN,NaN,NaN,NaN,NaN,NaN,2.862e-4,165,213.825,84,0,1.808,14.999,1013.24,340.389,0.01,0.039
1.17,0.112,2.446,34.029,2.459,34.217,0.012,0,0.012,0,0.257,3.577,22.175,120.893,9.788,37.738,0,0,0,2.776e4,1.326e4,19.873,0.105,NaN,2014.941,NaN,0.009,5.768e5,1220.187,0.072,0.716,0.632,0.381,0.215,0.12,NaN,NaN,NaN,NaN,NaN,NaN,NaN,NaN,3.325e-4,165,213.825,84,0,1.805,14.999,1013.237,340.388,0.01,0.039
1.18,0.138,2.799,35.306,2.814,35.501,0.014,0,0.014,0,0.294,3.711,22.175,120.893,9.788,33.836,0,0,0,2.774e4,1.324e4,19.864,0.105,NaN,2014.455,NaN,0.009,6.33e5,1254.818,0.097,0.708,0.709,0.373,0.215,0.12,NaN,NaN,NaN,NaN,NaN,NaN,NaN,NaN,3.804e-4,165,213.825,84,0,1.802,14.999,1013.234,340.388,0.01,0.04
1.19,0.168,3.16,36.108,3.177,36.307,0.018,0,0.018,0,0.332,3.795,22.175,120.893,9.788,30.517,0,0,0,2.771e4,1.321e4,19.855,0.105,NaN,2013.959,NaN,0.01,6.93e5,1276.135,0.125,0.701,0.767,0.366,0.215,0.12,NaN,NaN,NaN,NaN,NaN,NaN,NaN,NaN,4.295e-4,165,213.825,84,0,1.799,14.999,1013.23,340.388,0.01,0.04
1.2,0.201,3.526,36.661,3.546,36.862,0.021,0,0.021,0,0.371,3.853,22.175,120.893,9.788,27.696,0,0,0,2.769e4,1.319e4,19.846,0.105,NaN,2013.458,NaN,0.011,7.559e5,1290.479,0.157,0.695,0.809,0.36,0.215,0.12,NaN,NaN,NaN,NaN,NaN,NaN,NaN,NaN,4.793e-4,165,213.825,84,0,1.796,14.999,1013.226,340.388,0.01,0.04
1.21,0.238,3.896,36.967,3.917,37.17,0.025,0,0.025,0,0.409,3.885,22.175,120.893,9.788,25.295,0,0,0,2.767e4,1.317e4,19.837,0.105,NaN,2012.952,NaN,0.012,8.209e5,1297.933,0.192,0.689,0.836,0.354,0.215,0.12,NaN,NaN,NaN,NaN,NaN,NaN,NaN,NaN,5.295e-4,165,213.825,84,0,1.793,14.998,1013.222,340.388,0.01,0.04
1.22,0.279,4.266,37.026,4.289,37.23,0.029,0,0.029,0,0.448,3.892,22.175,120.893,9.788,23.246,0,0,0,2.764e4,1.314e4,19.828,0.105,NaN,2012.446,NaN,0.013,8.872e5,1298.512,0.229,0.683,0.854,0.348,0.215,0.12,NaN,NaN,NaN,NaN,NaN,NaN,NaN,NaN,5.798e-4,165,213.825,84,0,1.791,14.998,1013.217,340.388,0.01,0.04
1.23,0.324,4.636,37.069,4.662,37.273,0.034,0,0.034,0,0.487,3.896,22.175,120.893,9.788,21.483,0,0,0,2.762e4,1.312e4,19.819,0.105,NaN,2011.938,NaN,0.014,9.546e5,1298.633,0.268,0.678,0.864,0.343,0.215,0.12,NaN,NaN,NaN,NaN,NaN,NaN,NaN,NaN,6.302e-4,165,213.825,84,0,1.788,14.998,1013.212,340.388,0.01,0.041
1.24,0.372,5.006,36.975,5.033,37.179,0.039,0,0.039,0,0.526,3.886,22.175,120.893,9.788,19.957,0,0,0,2.76e4,1.31e4,19.81,0.105,NaN,2011.431,NaN,0.015,1.023e6,1294.965,0.309,0.674,0.868,0.339,0.215,0.12,NaN,NaN,NaN,NaN,NaN,NaN,NaN,NaN,6.804e-4,165,213.825,84,0,1.785,14.998,1013.206,340.387,0.01,0.041
1.25,0.424,5.374,36.889,5.404,37.093,0.045,0,0.045,0,0.565,3.877,22.175,120.893,9.788,18.625,0,0,0,2.757e4,1.307e4,19.801,0.105,NaN,2010.925,NaN,0.016,1.091e6,1291.53,0.352,0.669,0.868,0.334,0.215,0.12,NaN,NaN,NaN,NaN,NaN,NaN,NaN,NaN,7.305e-4,165,213.825,84,0,1.782,14.997,1013.2,340.387,0.01,0.041
1.26,0.479,5.742,36.802,5.774,37.005,0.05,0,0.05,0,0.604,3.868,22.175,120.893,9.788,17.358,0,0,0,2.755e4,1.305e4,19.792,0.105,NaN,2010.419,NaN,0.017,1.159e6,1288.052,0.396,0.666,0.865,0.33,0.215,0.12,NaN,NaN,NaN,NaN,NaN,NaN,NaN,NaN,7.805e-4,165,213.825,84,0,1.769,14.997,1013.194,340.387,0.01,0.041
1.27,0.538,6.109,36.69,6.143,36.892,0.057,0,0.057,0,0.642,3.856,22.175,120.893,9.788,16.236,0,0,0,2.753e4,1.303e4,19.783,0.105,NaN,2009.914,NaN,0.018,1.228e6,1283.912,0.441,0.662,0.859,0.327,0.215,0.12,NaN,NaN,NaN,NaN,NaN,NaN,NaN,NaN,8.303e-4,165,213.825,84,0,1.756,14.997,1013.187,340.387,0.01,0.041
1.28,0.601,6.475,36.657,6.511,36.859,0.063,0,0.063,0,0.681,3.853,22.175,120.893,9.788,15.234,0,0,0,2.75e4,1.3e4,19.774,0.105,NaN,2009.409,NaN,0.019,1.297e6,1281.967,0.487,0.658,0.85,0.323,0.215,0.12,NaN,NaN,NaN,NaN,NaN,NaN,NaN,NaN,8.801e-4,165,213.825,84,0,1.743,14.996,1013.179,340.387,0.01,0.042
1.29,0.668,6.841,36.575,6.879,36.776,0.07,0,0.07,0,0.719,3.844,22.175,120.893,9.788,14.335,0,0,0,2.748e4,1.298e4,19.765,0.105,NaN,2008.904,NaN,0.02,1.366e6,1278.651,0.533,0.655,0.839,0.32,0.215,0.12,NaN,NaN,NaN,NaN,NaN,NaN,NaN,NaN,9.298e-4,165,213.825,84,0,1.73,14.996,1013.172,340.386,0.01,0.042
1.3,0.738,7.206,36.534,7.246,36.735,0.078,0,0.078,0,0.757,3.84,22.175,120.893,9.788,13.524,0,0,0,2.746e4,1.296e4,19.756,0.105,NaN,2008.399,NaN,0.022,1.436e6,1276.485,0.58,0.652,0.827,0.317,0.215,0.12,NaN,NaN,NaN,NaN,NaN,NaN,NaN,NaN,9.795e-4,165,213.825,84,0,1.717,14.995,1013.163,340.386,0.01,0.042
1.31,0.812,7.571,36.529,7.613,36.73,0.085,0,0.085,0,0.796,3.839,22.175,120.893,9.788,12.856,0,0,0,2.743e4,1.293e4,19.747,0.105,NaN,2007.894,NaN,0.023,1.506e6,1275.318,0.629,0.649,0.815,0.314,0.215,0.12,NaN,NaN,NaN,NaN,NaN,NaN,NaN,NaN,0.001,165,213.825,84,0,1.713,14.995,1013.155,340.386,0.01,0.042
1.32,0.89,7.936,36.501,7.98,36.702,0.094,0,0.094,0,0.834,3.836,22.175,120.893,9.788,12.247,0,0,0,2.741e4,1.291e4,19.738,0.105,NaN,2007.388,NaN,0.024,1.576e6,1273.528,0.68,0.647,0.804,0.311,0.215,0.12,NaN,NaN,NaN,NaN,NaN,NaN,NaN,NaN,0.001,165,213.825,84,0,1.709,14.994,1013.146,340.385,0.01,0.042
1.33,0.971,8.301,36.551,8.347,36.753,0.102,0,0.102,0,0.873,3.842,22.175,120.893,9.788,11.69,0,0,0,2.739e4,1.289e4,19.729,0.105,NaN,2006.882,NaN,0.025,1.646e6,1273.891,0.731,0.644,0.792,0.309,0.215,0.12,NaN,NaN,NaN,NaN,NaN,NaN,NaN,NaN,0.001,165,213.825,84,0,1.706,14.994,1013.136,340.385,0.01,0.042
1.34,1.056,8.666,36.529,8.714,36.73,0.111,0,0.111,0,0.911,3.839,22.175,120.893,9.788,11.179,0,0,0,2.736e4,1.286e4,19.72,0.105,NaN,2006.376,NaN,0.026,1.717e6,1272.247,0.785,0.642,0.782,0.306,0.215,0.12,NaN,NaN,NaN,NaN,NaN,NaN,NaN,NaN,0.001,165,213.825,84,0,1.702,14.993,1013.126,340.385,0.01,0.043
1.35,1.144,9.032,36.539,9.081,36.741,0.12,0,0.12,0,0.949,3.84,22.175,120.893,9.788,10.708,0,0,0,2.734e4,1.284e4,19.711,0.105,NaN,2005.868,NaN,0.027,1.787e6,1271.517,0.84,0.639,0.772,0.304,0.215,0.12,NaN,NaN,NaN,NaN,NaN,NaN,NaN,NaN,0.001,165,213.825,84,0,1.698,14.993,1013.116,340.384,0.01,0.043
1.36,1.236,9.397,36.577,9.449,36.778,0.13,0,0.13,0,0.988,3.844,22.175,120.893,9.788,10.508,0,0,0,2.732e4,1.282e4,19.702,0.105,NaN,2005.361,NaN,0.028,1.859e6,1271.539,0.901,0.637,0.766,0.302,0.215,0.12,NaN,NaN,NaN,NaN,NaN,NaN,NaN,NaN,0.001,165,213.825,84,0,1.734,14.992,1013.105,340.384,0.01,0.043
1.37,1.332,9.763,36.594,9.817,36.795,0.14,0,0.14,0,1.026,3.846,22.175,120.893,9.788,10.322,0,0,0,2.729e4,1.279e4,19.693,0.105,NaN,2004.852,NaN,0.029,1.931e6,1270.983,0.965,0.635,0.76,0.3,0.215,0.12,NaN,NaN,NaN,NaN,NaN,NaN,NaN,NaN,0.001,165,213.825,84,0,1.769,14.991,1013.094,340.384,0.01,0.043
1.38,1.432,10.13,36.71,10.186,36.912,0.15,0,0.15,0,1.065,3.858,22.175,120.893,9.788,10.148,0,0,0,2.727e4,1.277e4,19.684,0.105,NaN,2004.342,NaN,0.03,2.003e6,1273.167,1.031,0.633,0.755,0.298,0.215,0.12,NaN,NaN,NaN,NaN,NaN,NaN,NaN,NaN,0.001,165,213.825,84,0,1.804,14.991,1013.082,340.383,0.01,0.043
1.39,1.535,10.497,36.751,10.555,36.954,0.161,0,0.161,0,1.103,3.863,22.175,120.893,9.788,9.986,0,0,0,2.725e4,1.275e4,19.675,0.105,NaN,2003.83,NaN,0.031,2.075e6,1273.278,1.1,0.631,0.75,0.296,0.215,0.12,NaN,NaN,NaN,NaN,NaN,NaN,NaN,NaN,0.001,165,213.825,84,0,1.84,14.99,1013.07,340.383,0.01,0.044
1.4,1.641,10.865,36.839,10.925,37.042,0.173,0,0.173,0,1.142,3.872,22.175,120.893,9.788,9.834,0,0,0,2.723e4,1.273e4,19.666,0.105,NaN,2003.318,NaN,0.032,2.147e6,1274.663,1.17,0.629,0.746,0.294,0.215,0.12,NaN,NaN,NaN,NaN,NaN,NaN,NaN,NaN,0.001,165,213.825,84,0,1.875,14.989,1013.057,340.382,0.01,0.044
1.41,1.752,11.235,36.946,11.297,37.15,0.184,0,0.184,0,1.181,3.883,22.175,120.893,9.788,9.577,0,0,0,2.72e4,1.27e4,19.657,0.105,NaN,2002.803,NaN,0.033,2.219e6,1276.588,1.239,0.627,0.739,0.292,0.215,0.12,NaN,NaN,NaN,NaN,NaN,NaN,NaN,NaN,0.002,165,213.825,84,0,1.888,14.989,1013.045,340.382,0.01,0.044
1.42,1.866,11.605,37.015,11.669,37.219,0.196,0,0.196,0,1.22,3.89,22.175,120.893,9.788,9.336,0,0,0,2.718e4,1.268e4,19.648,0.105,NaN,2002.288,NaN,0.034,2.291e6,1277.444,1.311,0.626,0.733,0.29,0.215,0.12,NaN,NaN,NaN,NaN,NaN,NaN,NaN,NaN,0.002,165,213.825,84,0,1.9,14.988,1013.031,340.382,0.01,0.044
1.43,1.984,11.976,37.151,12.042,37.355,0.209,0,0.209,0,1.259,3.905,22.175,120.893,9.788,9.108,0,0,0,2.716e4,1.266e4,19.639,0.105,NaN,2001.77,NaN,0.035,2.363e6,1280.14,1.384,0.624,0.728,0.289,0.215,0.12,NaN,NaN,NaN,NaN,NaN,NaN,NaN,NaN,0.002,165,213.825,84,0,1.913,14.987,1013.017,340.381,0.01,0.044
1.44,2.106,12.348,37.208,12.416,37.413,0.221,0,0.221,0,1.298,3.911,22.175,120.893,9.788,8.894,0,0,0,2.713e4,1.263e4,19.629,0.105,NaN,2001.252,NaN,0.036,2.436e6,1280.681,1.461,0.623,0.723,0.288,0.215,0.12,NaN,NaN,NaN,NaN,NaN,NaN,NaN,NaN,0.002,165,213.825,84,0,1.926,14.986,1013.003,340.381,0.01,0.044
1.45,2.231,12.721,37.318,12.791,37.523,0.234,0,0.234,0,1.337,3.922,22.175,120.893,9.788,8.691,0,0,0,2.711e4,1.261e4,19.62,0.105,NaN,2000.731,NaN,0.038,2.509e6,1282.653,1.543,0.623,0.72,0.288,0.215,0.12,NaN,NaN,NaN,NaN,NaN,NaN,NaN,NaN,0.002,165,213.825,84,0,1.939,14.985,1012.988,340.38,0.01,0.045
1.46,2.36,13.095,37.436,13.167,37.643,0.248,0,0.248,0,1.376,3.935,22.175,120.893,9.788,8.359,0,0,0,2.709e4,1.259e4,19.611,0.104,NaN,2000.209,NaN,0.039,2.581e6,1284.861,1.621,0.623,0.714,0.288,0.215,0.12,NaN,NaN,NaN,NaN,NaN,NaN,NaN,NaN,0.002,165,213.825,84,0,1.919,14.985,1012.973,340.38,0.01,0.045
1.47,2.493,13.47,37.49,13.544,37.696,0.262,0,0.262,0,1.416,3.94,22.175,120.893,9.788,8.045,0,0,0,2.706e4,1.256e4,19.602,0.104,NaN,1999.686,NaN,0.04,2.654e6,1285.292,1.702,0.623,0.709,0.288,0.215,0.12,NaN,NaN,NaN,NaN,NaN,NaN,NaN,NaN,0.002,165,213.825,84,0,1.9,14.984,1012.958,340.379,0.01,0.045
1.48,2.63,13.846,37.612,13.922,37.819,0.276,0,0.276,0,1.455,3.953,22.175,120.893,9.788,7.747,0,0,0,2.704e4,1.254e4,19.592,0.104,NaN,1999.161,NaN,0.041,2.727e6,1287.587,1.785,0.623,0.704,0.288,0.215,0.12,NaN,NaN,NaN,NaN,NaN,NaN,NaN,NaN,0.002,165,213.825,84,0,1.88,14.983,1012.942,340.379,0.01,0.045
1.49,2.77,14.222,37.659,14.3,37.866,0.291,0,0.291,0,1.495,3.958,22.175,120.893,9.788,7.465,0,0,0,2.702e4,1.252e4,19.583,0.104,NaN,1998.635,NaN,0.042,2.801e6,1287.832,1.87,0.623,0.7,0.288,0.215,0.12,NaN,NaN,NaN,NaN,NaN,NaN,NaN,NaN,0.002,165,213.825,84,0,1.861,14.982,1012.925,340.378,0.01,0.045
1.5,2.914,14.599,37.73,14.68,37.938,0.306,0,0.306,0,1.534,3.966,22.175,120.893,9.788,7.196,0,0,0,2.699e4,1.249e4,19.574,0.104,NaN,1998.108,NaN,0.043,2.874e6,1288.735,1.957,0.623,0.695,0.288,0.215,0.12,NaN,NaN,NaN,NaN,NaN,NaN,NaN,NaN,0.002,165,213.825,84,0,1.841,14.981,1012.908,340.377,0.01,0.046
1.51,3.062,14.977,37.813,15.06,38.021,0.322,0,0.322,0,1.574,3.974,22.175,120.893,9.788,7.105,0,0,0,2.697e4,1.247e4,19.564,0.104,NaN,1997.579,NaN,0.044,2.948e6,1289.948,2.055,0.623,0.694,0.288,0.215,0.12,NaN,NaN,NaN,NaN,NaN,NaN,NaN,NaN,0.002,165,213.825,84,0,1.865,14.98,1012.891,340.377,0.01,0.046
1.52,3.214,15.355,37.829,15.44,38.037,0.338,0,0.338,0,1.614,3.976,22.175,120.893,9.788,7.019,0,0,0,2.695e4,1.244e4,19.555,0.104,NaN,1997.049,NaN,0.045,3.023e6,1289.376,2.155,0.623,0.693,0.288,0.215,0.12,NaN,NaN,NaN,NaN,NaN,NaN,NaN,NaN,0.002,165,213.825,84,0,1.889,14.979,1012.873,340.376,0.01,0.046
1.53,3.369,15.735,37.97,15.821,38.179,0.354,0,0.354,0,1.654,3.991,22.175,120.893,9.788,6.936,0,0,0,2.692e4,1.242e4,19.546,0.104,NaN,1996.518,NaN,0.046,3.097e6,1292.164,2.258,0.623,0.691,0.288,0.215,0.12,NaN,NaN,NaN,NaN,NaN,NaN,NaN,NaN,0.002,165,213.825,84,0,1.913,14.978,1012.855,340.376,0.01,0.046
1.54,3.528,16.115,38.04,16.204,38.25,0.371,0,0.371,0,1.694,3.998,22.175,120.893,9.788,6.856,0,0,0,2.69e4,1.24e4,19.536,0.104,NaN,1995.985,NaN,0.048,3.172e6,1293.051,2.364,0.623,0.69,0.288,0.215,0.12,NaN,NaN,NaN,NaN,NaN,NaN,NaN,NaN,0.002,165,213.825,84,0,1.936,14.977,1012.836,340.375,0.01,0.046
1.55,3.691,16.496,38.146,16.587,38.356,0.388,0,0.388,0,1.734,4.009,22.175,120.893,9.788,6.78,0,0,0,2.687e4,1.237e4,19.527,0.104,NaN,1995.451,NaN,0.049,3.246e6,1294.89,2.473,0.623,0.689,0.288,0.215,0.12,NaN,NaN,NaN,NaN,NaN,NaN,NaN,NaN,0.002,165,213.825,84,0,1.96,14.976,1012.817,340.374,0.01,0.046
1.56,3.858,16.879,38.271,16.972,38.482,0.406,0,0.406,0,1.774,4.022,22.175,120.893,9.788,6.654,0,0,0,2.685e4,1.235e4,19.517,0.104,NaN,1994.914,NaN,0.05,3.321e6,1297.251,2.581,0.623,0.687,0.288,0.215,0.12,NaN,NaN,NaN,NaN,NaN,NaN,NaN,NaN,0.002,165,213.825,84,0,1.968,14.975,1012.798,340.374,0.01,0.047
1.57,4.029,17.261,38.292,17.357,38.503,0.423,0,0.423,0,1.814,4.025,22.175,120.893,9.788,6.534,0,0,0,2.683e4,1.233e4,19.508,0.104,NaN,1994.377,NaN,0.051,3.396e6,1296.778,2.692,0.623,0.685,0.288,0.215,0.12,NaN,NaN,NaN,NaN,NaN,NaN,NaN,NaN,0.002,165,213.825,84,0,1.977,14.974,1012.777,340.373,0.01,0.047
1.585,4.292,17.836,38.296,17.936,38.649,0.451,-1.766e-5,0.451,-0.002,1.892,5.212,22.175,120.893,9.788,6.318,0,0.037,-1.048e-4,2.679e4,1.229e4,19.493,0.104,2137.294,1993.568,0.871,0.053,3.509e6,1298.654,2.859,0.623,0.682,0.288,0.215,0.12,1.438,1.253,3.411e-4,0,0,0,0,4.945e-6,0.002,165,213.825,84,0.002,1.989,14.972,1012.747,340.372,0.015,0.047
1.608,4.703,18.701,38.499,18.808,38.853,0.495,-1.12e-4,0.495,-0.013,2.01,5.235,22.175,120.893,9.788,5.947,0,0.097,-6.533e-4,2.674e4,1.224e4,19.472,0.104,2143.974,1992.348,0.919,0.055,3.678e6,1301.804,3.116,0.624,0.676,0.288,0.215,0.12,1.338,1.23,-7.526e-5,0,0,0,0,3.063e-5,0.003,165,213.825,84.001,0.012,1.985,14.969,1012.698,340.37,0.023,0.047
1.641,5.356,20.009,38.839,20.128,39.194,0.566,-4.094e-4,0.566,-0.041,2.187,5.264,22.175,120.893,9.788,5.253,0,0.194,-0.003,2.666e4,1.216e4,19.439,0.104,2156.932,1990.501,1.009,0.059,3.935e6,1307.398,3.513,0.624,0.666,0.288,0.215,0.12,1.157,1.167,1.535e-4,0,0,0,0,1.072e-4,0.003,165,213.825,84.005,0.046,1.912,14.965,1012.622,340.368,0.034,0.047
1.691,6.406,21.967,39.263,22.103,39.62,0.682,-0.001,0.682,-0.1,2.452,5.303,22.175,120.893,9.788,4.613,0,0.353,-0.009,2.654e4,1.204e4,19.39,0.104,2169.426,1987.731,1.101,0.065,4.319e6,1313.533,4.179,0.624,0.658,0.288,0.215,0.121,0.996,1.096,-4.121e-4,0,0,0,0,2.949e-4,0.003,165,213.825,84.014,0.14,1.897,14.958,1012.499,340.364,0.05,0.048
1.741,7.554,23.954,39.845,24.108,40.203,0.811,-0.002,0.811,-0.168,2.72,5.356,22.175,120.893,9.788,4.141,0,0.533,-0.018,2.642e4,1.192e4,19.34,0.104,2179.023,1984.915,1.176,0.071,4.71e6,1323.765,4.926,0.624,0.652,0.288,0.216,0.121,0.88,1.035,-3.272e-4,0,0,0,0,5.661e-4,0.003,165,213.825,84.029,0.295,1.915,14.951,1012.364,340.359,0.05,0.048
1.791,8.802,25.973,40.473,26.144,40.835,0.954,-0.004,0.954,-0.24,2.99,5.423,22.175,120.893,9.788,4.031,0,0.739,-0.027,2.63e4,1.18e4,19.29,0.103,2181.331,1982.048,1.208,0.077,5.107e6,1335.184,5.781,0.624,0.651,0.288,0.216,0.121,0.854,1.03,2.865e-4,0,0,0,0,9.246e-4,0.004,165,213.825,84.05,0.523,2.073,14.943,1012.218,340.354,0.05,0.048
1.841,10.152,28.025,41.15,28.215,41.513,1.11,-0.006,1.11,-0.311,3.264,5.479,22.175,120.893,9.788,3.77,0,0.979,-0.043,2.617e4,1.167e4,19.238,0.103,2186.841,1979.127,1.259,0.083,5.51e6,1347.677,6.701,0.624,0.648,0.288,0.216,0.121,0.792,0.996,4.534e-4,0,0,0,0,0.001,0.004,165,213.825,84.078,0.835,2.157,14.934,1012.059,340.349,0.05,0.048
1.891,11.605,30.118,41.961,30.325,42.324,1.28,-0.008,1.28,-0.379,3.541,5.532,22.175,120.893,9.788,3.422,0,1.243,-0.066,2.605e4,1.155e4,19.185,0.103,2194.351,1976.143,1.322,0.089,5.922e6,1363.475,7.696,0.624,0.644,0.288,0.216,0.121,0.711,0.938,3.833e-5,0,0,0,0,0.002,0.004,165,213.825,84.114,1.248,2.187,14.925,1011.889,340.343,0.05,0.048
1.941,13.164,32.244,42.631,32.47,42.991,1.464,-0.011,1.464,-0.44,3.819,5.556,22.175,120.893,9.788,3.062,0,1.526,-0.098,2.593e4,1.143e4,19.132,0.103,2202.289,1973.105,1.389,0.095,6.34e6,1375.364,8.775,0.625,0.641,0.288,0.216,0.121,0.628,0.87,4.879e-4,0,0,0,0,0.003,0.004,165,213.825,84.158,1.776,2.195,14.914,1011.706,340.337,0.05,0.048
1.991,14.83,34.408,43.389,34.651,43.747,1.662,-0.014,1.662,-0.493,4.099,5.579,22.175,120.893,9.788,2.754,0,1.827,-0.139,2.58e4,1.13e4,19.077,0.103,2209.258,1970.006,1.45,0.101,6.765e6,1389.417,9.952,0.625,0.638,0.288,0.216,0.121,0.559,0.808,-6.392e-5,0,0,0,0,0.003,0.005,165,213.825,84.209,2.432,2.219,14.904,1011.511,340.33,0.05,0.049
2.041,16.606,36.622,44.4,36.883,44.752,1.874,-0.017,1.874,-0.533,4.381,5.602,22.175,120.893,9.788,2.335,-4.081e-7,2.135,-0.213,2.567e4,1.117e4,19.021,0.102,2218.969,1966.831,1.528,0.108,7.201e6,1409.711,11.218,0.625,0.635,0.288,0.216,0.122,0.468,0.71,2.394e-4,0,0,0,0,0.004,0.005,165,213.825,84.268,3.232,2.16,14.892,1011.302,340.323,0.05,0.049
2.091,18.494,38.881,45.294,39.16,45.64,2.1,-0.02,2.1,-0.559,4.662,5.611,22.175,120.893,9.788,2.042,-5.121e-7,2.439,-0.29,2.554e4,1.104e4,18.964,0.102,2225.975,1963.584,1.59,0.115,7.645e6,1426.753,12.607,0.625,0.633,0.287,0.216,0.122,0.405,0.639,-2.405e-4,0,0,0,0,0.004,0.005,165,213.825,84.333,4.186,2.167,14.88,1011.081,340.316,0.05,0.049
2.141,20.495,41.171,45.911,41.467,46.249,2.34,-0.023,2.341,-0.568,4.943,5.583,22.175,120.893,9.788,1.774,-8.935e-7,2.745,-0.39,2.541e4,1.091e4,18.906,0.102,2232.534,1960.282,1.65,0.121,8.095e6,1436.554,14.103,0.626,0.631,0.287,0.216,0.122,0.348,0.57,-4.166e-5,0,0,0,0,0.005,0.006,165,213.825,84.403,5.309,2.183,14.867,1010.846,340.308,0.05,0.049
2.191,22.612,43.496,46.615,43.808,46.943,2.595,-0.025,2.595,-0.559,5.222,5.548,22.175,120.893,9.788,1.482,-5.676e-7,3.033,-0.545,2.528e4,1.078e4,18.847,0.102,2239.815,1956.918,1.715,0.128,8.551e6,1448.404,15.708,0.626,0.63,0.287,0.216,0.122,0.288,0.488,1.229e-4,0,0,0,0,0.006,0.006,165,213.825,84.477,6.612,2.172,14.853,1010.598,340.3,0.05,0.049
2.241,24.845,45.858,47.361,46.186,47.68,2.863,-0.026,2.863,-0.53,5.498,5.505,22.175,120.893,9.788,1.174,-8.765e-7,3.27,-0.804,2.515e4,1.065e4,18.787,0.102,2247.639,1953.489,1.783,0.135,9.015e6,1461.178,17.43,0.626,0.629,0.287,0.217,0.122,0.226,0.397,-2.142e-4,0,0,0,0,0.006,0.006,165,213.825,84.553,8.102,2.133,14.839,1010.336,340.291,0.05,0.05
2.291,27.198,48.246,47.886,48.59,48.194,3.144,-0.026,3.145,-0.48,5.771,5.439,22.175,120.893,9.788,0.906,0,3.417,-1.185,2.501e4,1.051e4,18.726,0.101,2254.656,1950.006,1.846,0.142,9.484e6,1468.288,19.272,0.627,0.628,0.287,0.217,0.123,0.172,0.312,-3.42e-4,0,0,0,0,0.006,0.007,165,213.825,84.628,9.777,2.11,14.823,1010.06,340.282,0.05,0.05
2.341,29.67,50.639,47.979,50.998,48.28,3.44,-0.024,3.44,-0.406,6.038,5.38,22.175,120.893,9.788,0.918,0,3.707,-1.05,2.488e4,1.038e4,18.664,0.101,2254.439,1946.495,1.866,0.149,9.951e6,1464.702,21.235,0.627,0.629,0.287,0.217,0.123,0.175,0.32,1.407e-4,0,0,0,0,0.006,0.007,165,213.825,84.699,11.634,2.36,14.807,1009.77,340.272,0.05,0.05
2.391,32.262,53.036,48.051,53.408,48.34,3.748,-0.02,3.748,-0.31,6.301,5.28,22.175,120.893,9.788,0.687,-2.131e-6,3.79,-1.581,2.475e4,1.025e4,18.602,0.101,2260.599,1942.956,1.925,0.157,1.042e7,1460.577,23.279,0.627,0.628,0.287,0.217,0.123,0.13,0.244,-2.685e-4,0,0,0,0,0.006,0.007,165,213.825,84.764,13.682,2.367,14.79,1009.466,340.262,0.05,0.05
2.441,34.974,55.438,48.17,55.825,48.448,4.069,-0.013,4.07,-0.19,6.556,5.183,22.175,120.893,9.788,0.443,-2.134e-6,3.177,-2.857,2.461e4,1.011e4,18.539,0.101,2267.22,1939.385,1.987,0.164,1.089e7,1457.734,25.43,0.628,0.628,0.287,0.217,0.123,0.083,0.161,-1.071e-4,0,0,0,0,0.004,0.008,165,213.825,84.822,15.904,2.308,14.773,1009.148,340.251,0.05,0.05
2.491,37.805,57.826,47.866,58.225,48.135,4.403,-0.003,4.403,-0.045,6.804,5.077,22.175,120.893,9.788,0.332,-3.209e-6,1.617,-4.046,2.448e4,9982.7,18.477,0.101,2270.329,1935.809,2.027,0.171,1.136e7,1444.705,27.673,0.628,0.628,0.287,0.217,0.124,0.062,0.125,1.981e-4,0,0,0,0,8.898e-4,0.008,165,213.825,84.867,18.255,2.332,14.754,1008.816,340.24,0.05,0.051
2.541,40.756,60.212,47.826,60.622,48.087,4.749,0.01,4.749,0.125,7.044,5.002,22.175,120.893,9.788,0.39,-5.35e-6,-1.804,-3.963,2.435e4,9851.919,18.414,0.1,2268.898,1932.21,2.041,0.178,1.183e7,1438.362,30.026,0.629,0.629,0.287,0.218,0.124,0.073,0.149,-1.787e-4,0,0,0,0,-0.001,0.008,165,213.825,84.897,20.678,2.253,14.735,1008.47,340.228,0.05,0.051
2.591,43.826,62.59,47.659,63.011,47.914,5.107,0.029,5.107,0.322,7.276,4.939,22.175,120.893,9.788,0.616,-4.344e-6,-3.048,-2.89,2.422e4,9721.977,18.351,0.1,2262.973,1928.595,2.027,0.185,1.229e7,1429.136,32.488,0.629,0.63,0.287,0.218,0.124,0.116,0.239,-3.113e-4,0,0,0,0,-0.003,0.008,165,213.825,84.91,23.087,2.134,14.715,1008.11,340.216,0.05,0.051
2.641,47.015,64.982,47.951,65.414,48.206,5.476,0.052,5.476,0.548,7.503,4.958,22.175,120.893,9.788,0.825,-5.731e-6,-3.105,-2.358,2.409e4,9591.843,18.287,0.1,2257.615,1924.936,2.016,0.192,1.276e7,1431.244,35.072,0.63,0.631,0.287,0.218,0.125,0.157,0.319,-1.432e-4,0,0,0,0,-0.003,0.009,165,213.825,84.903,25.371,2.052,14.694,1007.736,340.204,0.05,0.051
2.691,50.324,67.384,48.133,67.825,48.393,5.855,0.082,5.856,0.802,7.727,5.011,22.175,120.893,9.788,0.938,-7.716e-6,-2.787,-2.096,2.396e4,9461.748,18.222,0.1,2254.811,1921.238,2.022,0.199,1.323e7,1430.823,37.754,0.63,0.632,0.287,0.218,0.125,0.179,0.364,-6.622e-5,0,0,0,0,-0.002,0.009,165,213.825,84.877,27.427,2.055,14.673,1007.348,340.191,0.05,0.051
2.741,53.754,69.802,48.46,70.253,48.729,6.245,0.118,6.246,1.085,7.95,5.11,22.175,120.893,9.788,0.992,-6.054e-6,-2.311,-1.928,2.383e4,9331.363,18.157,0.1,2253.568,1917.492,2.037,0.206,1.37e7,1433.995,40.544,0.631,0.633,0.287,0.219,0.126,0.19,0.389,-3.889e-4,0,0,0,0,-0.001,0.009,165,213.825,84.833,29.171,2.095,14.651,1006.946,340.177,0.05,0.051
2.791,57.305,72.245,48.964,72.706,49.244,6.646,0.162,6.648,1.395,8.176,5.246,22.175,120.893,9.788,1.03,-7.526e-6,-1.732,-1.81,2.37e4,9200.305,18.091,0.099,2252.749,1913.685,2.055,0.213,1.417e7,1441.415,43.465,0.631,0.633,0.287,0.219,0.126,0.198,0.407,-3.786e-4,0,0,0,0,-6.541e-4,0.01,165,213.825,84.774,30.546,2.117,14.628,1006.529,340.163,0.05,0.052
2.841,60.979,74.711,49.404,75.182,49.697,7.057,0.213,7.061,1.731,8.406,5.392,22.175,120.893,9.788,1.073,-9.679e-6,-1.048,-1.736,2.357e4,9068.707,18.023,0.099,2251.814,1909.819,2.073,0.221,1.465e7,1447.346,46.523,0.632,0.634,0.286,0.219,0.126,0.206,0.428,-3.106e-4,0,0,0,0,-2.237e-4,0.01,165,213.825,84.704,31.504,2.085,14.604,1006.098,340.149,0.05,0.052
2.891,64.776,77.177,49.411,77.659,49.718,7.479,0.273,7.484,2.09,8.64,5.512,22.175,120.893,9.787,1.043,-9.681e-6,-0.281,-1.704,2.344e4,8937.495,17.955,0.099,2252.757,1905.922,2.102,0.228,1.513e7,1443.113,49.666,0.632,0.634,0.286,0.219,0.127,0.2,0.421,2.912e-4,0,0,0,0,-1.507e-5,0.01,165,213.825,84.625,32.008,2.098,14.579,1005.653,340.134,0.05,0.052
2.941,68.696,79.635,49.257,80.128,49.576,7.912,0.341,7.919,2.47,8.88,5.62,22.175,120.893,9.787,0.986,-1.097e-5,0.511,-1.709,2.331e4,8806.998,17.887,0.099,2254.413,1902.002,2.136,0.235,1.561e7,1435.232,52.897,0.633,0.635,0.286,0.22,0.127,0.189,0.404,2.9e-4,0,0,0,0,4.674e-5,0.011,165,213.825,84.54,32.045,2.096,14.553,1005.193,340.118,0.05,0.052
2.991,72.74,82.108,49.541,82.614,49.877,8.356,0.418,8.366,2.867,9.131,5.779,22.175,120.893,9.787,0.794,-1.179e-5,1.216,-1.786,2.318e4,8676.274,17.818,0.099,2259.59,1898.031,2.191,0.243,1.609e7,1437.734,56.207,0.634,0.635,0.286,0.22,0.128,0.151,0.331,-2.37e-4,0,0,0,0,2.496e-4,0.011,165,213.825,84.451,31.631,2.241,14.527,1004.719,340.102,0.05,0.052
3.041,76.908,84.606,50.058,85.126,50.412,8.811,0.504,8.825,3.277,9.396,5.962,22.175,120.893,9.787,0.612,-1.283e-5,1.712,-1.954,2.305e4,8544.831,17.748,0.098,2264.567,1893.993,2.246,0.25,1.658e7,1445.651,59.673,0.634,0.635,0.286,0.22,0.128,0.116,0.26,-4.125e-4,0,0,0,0,4.655e-4,0.011,165,213.825,84.361,30.834,2.343,14.5,1004.23,340.086,0.05,0.053
3.091,81.201,87.123,50.431,87.659,50.803,9.278,0.599,9.297,3.695,9.675,6.132,22.175,120.893,9.787,0.433,-1.315e-5,1.881,-2.306,2.291e4,8412.968,17.677,0.098,2269.552,1889.896,2.301,0.257,1.706e7,1450.255,63.287,0.635,0.635,0.286,0.22,0.129,0.081,0.187,-3.993e-4,0,0,0,0,5.303e-4,0.012,165,213.825,84.273,29.74,2.43,14.472,1003.726,340.069,0.05,0.053
