# Time (s),Altitude (m),Vertical velocity (m/s),Vertical acceleration (m/s²),Total velocity (m/s),Total acceleration (m/s²),Position East of launch (m),Position North of launch (m),Lateral distance (m),Lateral direction (°),Lateral velocity (m/s),Lateral acceleration (m/s²),Latitude (°),Longitude (°),Gravitational acceleration (m/s²),Angle of attack (°),Roll rate (°/s),Pitch rate (°/s),Yaw rate (°/s),Mass (g),Motor mass (g),Longitudinal moment of inertia (kg·m²),Rotational moment of inertia (kg·m²),CP location (mm),CG location (mm),Stability margin calibers (​),Mach number (​),Reynolds number (​),Thrust (N),Drag force (N),Drag coefficient (​),Axial drag coefficient (​),Friction drag coefficient (​),Pressure drag coefficient (​),Base drag coefficient (​),Normal force coefficient (​),Pitch moment coefficient (​),Yaw moment coefficient (​),Side force coefficient (​),Roll moment coefficient (​),Roll forcing coefficient (​),Roll damping coefficient (​),Pitch damping coefficient (​),Coriolis acceleration (m/s²),Reference length (mm),Reference area (cm²),Vertical orientation (zenith) (°),Lateral orientation (azimuth) (°),Wind velocity (m/s),Air temperature (°C),Air pressure (mbar),Speed of sound (m/s),Simulation time step (s),Computation time (s)
0.01,-4.757e-4,-0.095,-9.511,0.096,9.563,-5e-5,0,5e-5,180,0.01,1,22.175,120.893,9.788,95.558,0,0,0,2.8e4,1.35e4,19.963,0.106,NaN,2019.994,NaN,0.012,8.126e5,4.784,-3.355e-4,0.69,-0.001,0.355,0.215,0.12,NaN,NaN,NaN,NaN,NaN,NaN,NaN,NaN,1.293e-5,165,213.825,84,0,4.135,15,1013.25,340.389,0.01,0.002
0.02,-4.761e-4,-0.095,-9.522,0.096,9.575,-5.004e-5,0,5.004e-5,180,0.01,1.001,22.175,120.893,9.788,95.569,0,0,0,2.8e4,1.35e4,19.963,0.106,NaN,2019.992,NaN,0.012,8.069e5,4.461,-3.33e-4,0.69,-0.002,0.355,0.215,0.12,NaN,NaN,NaN,NaN,NaN,NaN,NaN,NaN,1.294e-5,165,213.825,84,0,4.106,15,1013.25,340.389,0.01,0.002
0.03,-4.763e-4,-0.095,-9.526,0.096,9.579,-5.006e-5,0,5.006e-5,180,0.01,1.001,22.175,120.893,9.788,95.579,0,0,0,2.8e4,1.35e4,19.963,0.106,NaN,2019.991,NaN,0.012,8.011e5,4.343,-3.302e-4,0.691,-0.002,0.356,0.215,0.12,NaN,NaN,NaN,NaN,NaN,NaN,NaN,NaN,1.295e-5,165,213.825,84,0,4.076,15,1013.25,340.389,0.01,0.003
0.04,-4.765e-4,-0.095,-9.53,0.096,9.582,-5.008e-5,0,5.008e-5,180,0.01,1.002,22.175,120.893,9.788,95.589,0,0,0,2.8e4,1.35e4,19.963,0.106,NaN,2019.989,NaN,0.012,7.953e5,4.249,-3.275e-4,0.691,-0.002,0.356,0.215,0.12,NaN,NaN,NaN,NaN,NaN,NaN,NaN,NaN,1.295e-5,165,213.825,84,0,4.047,15,1013.25,340.389,0.01,0.003
0.05,-4.761e-4,-0.095,-9.523,0.096,9.575,-5.005e-5,0,5.005e-5,180,0.01,1.001,22.175,120.893,9.788,95.598,0,0,0,2.8e4,1.35e4,19.963,0.106,NaN,2019.988,NaN,0.012,7.895e5,4.443,-3.245e-4,0.692,-0.002,0.357,0.215,0.12,NaN,NaN,NaN,NaN,NaN,NaN,NaN,NaN,1.294e-5,165,213.825,84,0,4.018,15,1013.25,340.389,0.01,0.004
0.06,-4.757e-4,-0.095,-9.514,0.096,9.567,-5e-5,0,5e-5,180,0.01,1,22.175,120.893,9.788,95.607,0,0,0,2.8e4,1.35e4,19.963,0.106,NaN,2019.986,NaN,0.012,7.835e5,4.681,-3.214e-4,0.692,-0.002,0.357,0.215,0.12,NaN,NaN,NaN,NaN,NaN,NaN,NaN,NaN,1.293e-5,165,213.825,84,0,3.987,15,1013.25,340.389,0.01,0.004
0.07,-4.762e-4,-0.095,-9.523,0.096,9.576,-5.005e-5,0,5.005e-5,180,0.01,1.001,22.175,120.893,9.788,95.619,0,0,0,2.8e4,1.35e4,19.963,0.106,NaN,2019.984,NaN,0.012,7.774e5,4.438,-3.186e-4,0.693,-0.002,0.358,0.215,0.12,NaN,NaN,NaN,NaN,NaN,NaN,NaN,NaN,1.294e-5,165,213.825,84,0,3.956,15,1013.25,340.389,0.01,0.005
0.08,-4.761e-4,-0.095,-9.522,0.096,9.574,-5.004e-5,0,5.004e-5,180,0.01,1.001,22.175,120.893,9.788,95.63,0,0,0,2.8e4,1.35e4,19.963,0.106,NaN,2019.982,NaN,0.012,7.713e5,4.479,-3.157e-4,0.693,-0.002,0.358,0.215,0.12,NaN,NaN,NaN,NaN,NaN,NaN,NaN,NaN,1.294e-5,165,213.825,84,0,3.925,15,1013.25,340.389,0.01,0.005
0.09,-4.759e-4,-0.095,-9.517,0.096,9.57,-5.002e-5,0,5.002e-5,180,0.01,1,22.175,120.893,9.788,95.64,0,0,0,2.8e4,1.35e4,19.963,0.106,NaN,2019.981,NaN,0.011,7.652e5,4.603,-3.127e-4,0.694,-0.002,0.359,0.215,0.12,NaN,NaN,NaN,NaN,NaN,NaN,NaN,NaN,1.294e-5,165,213.825,84,0,3.894,15,1013.25,340.389,0.01,0.006
0.1,-4.764e-4,-0.095,-9.527,0.096,9.58,-5.007e-5,0,5.007e-5,180,0.01,1.001,22.175,120.893,9.788,95.653,0,0,0,2.8e4,1.35e4,19.963,0.106,NaN,2019.979,NaN,0.011,7.592e5,4.315,-3.101e-4,0.695,-0.002,0.359,0.215,0.12,NaN,NaN,NaN,NaN,NaN,NaN,NaN,NaN,1.295e-5,165,213.825,84,0,3.863,15,1013.25,340.389,0.01,0.006
0.11,-4.762e-4,-0.095,-9.523,0.096,9.576,-5.005e-5,0,5.005e-5,180,0.01,1.001,22.175,120.893,9.788,95.628,0,0,0,2.8e4,1.35e4,19.963,0.106,NaN,2019.977,NaN,0.012,7.727e5,4.431,-3.164e-4,0.693,-0.002,0.358,0.215,0.12,NaN,NaN,NaN,NaN,NaN,NaN,NaN,NaN,1.294e-5,165,213.825,84,0,3.932,15,1013.25,340.389,0.01,0.006
0.12,-4.762e-4,-0.095,-9.523,0.096,9.576,-5.005e-5,0,5.005e-5,180,0.01,1.001,22.175,120.893,9.788,95.604,0,0,0,2.8e4,1.35e4,19.962,0.106,NaN,2019.976,NaN,0.012,7.862e5,4.436,-3.229e-4,0.692,-0.002,0.357,0.215,0.12,NaN,NaN,NaN,NaN,NaN,NaN,NaN,NaN,1.294e-5,165,213.825,84,0,4.001,15,1013.25,340.389,0.01,0.007
0.13,-4.758e-4,-0.095,-9.517,0.096,9.569,-5.001e-5,0,5.001e-5,180,0.01,1,22.175,120.893,9.788,95.58,0,0,0,2.8e4,1.35e4,19.962,0.106,NaN,2019.974,NaN,0.012,7.998e5,4.62,-3.293e-4,0.691,-0.002,0.356,0.215,0.12,NaN,NaN,NaN,NaN,NaN,NaN,NaN,NaN,1.294e-5,165,213.825,84,0,4.07,15,1013.25,340.389,0.01,0.007
0.14,-4.762e-4,-0.095,-9.524,0.096,9.577,-5.005e-5,0,5.005e-5,180,0.01,1.001,22.175,120.893,9.788,95.558,0,0,0,2.8e4,1.35e4,19.962,0.106,NaN,2019.972,NaN,0.012,8.133e5,4.404,-3.362e-4,0.69,-0.001,0.354,0.215,0.12,NaN,NaN,NaN,NaN,NaN,NaN,NaN,NaN,1.295e-5,165,213.825,84,0,4.139,15,1013.25,340.389,0.01,0.008
0.15,-4.761e-4,-0.095,-9.523,0.096,9.575,-5.004e-5,0,5.004e-5,180,0.01,1.001,22.175,120.893,9.788,95.537,0,0,0,2.8e4,1.35e4,19.962,0.106,NaN,2019.97,NaN,0.012,8.268e5,4.444,-3.429e-4,0.688,-0.001,0.353,0.215,0.12,NaN,NaN,NaN,NaN,NaN,NaN,NaN,NaN,1.294e-5,165,213.825,84,0,4.208,15,1013.25,340.389,0.01,0.008
0.16,-4.758e-4,-0.095,-9.516,0.096,9.568,-5.001e-5,0,5.001e-5,180,0.01,1,22.175,120.893,9.788,95.539,0,0,0,2.8e4,1.35e4,19.962,0.106,NaN,2019.969,NaN,0.012,8.249e5,4.651,-3.418e-4,0.689,-0.001,0.353,0.215,0.12,NaN,NaN,NaN,NaN,NaN,NaN,NaN,NaN,1.293e-5,165,213.825,84,0,4.198,15,1013.25,340.389,0.01,0.008
0.17,-4.765e-4,-0.095,-9.531,0.096,9.583,-5.009e-5,0,5.009e-5,180,0.01,1.002,22.175,120.893,9.788,95.544,0,0,0,2.8e4,1.35e4,19.962,0.106,NaN,2019.967,NaN,0.012,8.23e5,4.218,-3.412e-4,0.689,-0.001,0.354,0.215,0.12,NaN,NaN,NaN,NaN,NaN,NaN,NaN,NaN,1.295e-5,165,213.825,84,0,4.188,15,1013.25,340.389,0.01,0.009
0.18,-4.765e-4,-0.095,-9.531,0.096,9.583,-5.009e-5,0,5.009e-5,180,0.01,1.002,22.175,120.893,9.788,95.547,0,0,0,2.8e4,1.35e4,19.962,0.106,NaN,2019.965,NaN,0.012,8.211e5,4.225,-3.402e-4,0.689,-0.001,0.354,0.215,0.12,NaN,NaN,NaN,NaN,NaN,NaN,NaN,NaN,1.295e-5,165,213.825,84,0,4.179,15,1013.25,340.389,0.01,0.009
0.19,-4.764e-4,-0.095,-9.527,0.096,9.58,-5.007e-5,0,5.007e-5,180,0.01,1.001,22.175,120.893,9.788,95.549,0,0,0,2.8e4,1.35e4,19.962,0.106,NaN,2019.964,NaN,0.012,8.192e5,4.321,-3.392e-4,0.689,-0.001,0.354,0.215,0.12,NaN,NaN,NaN,NaN,NaN,NaN,NaN,NaN,1.295e-5,165,213.825,84,0,4.169,15,1013.25,340.389,0.01,0.01
0.2,-4.766e-4,-0.095,-9.532,0.096,9.585,-5.01e-5,0,5.01e-5,180,0.01,1.002,22.175,120.893,9.788,95.553,0,0,0,2.8e4,1.35e4,19.962,0.106,NaN,2019.962,NaN,0.012,8.173e5,4.174,-3.384e-4,0.689,-0.001,0.354,0.215,0.12,NaN,NaN,NaN,NaN,NaN,NaN,NaN,NaN,1.296e-5,165,213.825,84,0,4.159,15,1013.25,340.389,0.01,0.01
0.21,-4.763e-4,-0.095,-9.525,0.096,9.578,-5.006e-5,0,5.006e-5,180,0.01,1.001,22.175,120.893,9.788,95.553,0,0,0,2.8e4,1.35e4,19.962,0.106,NaN,2019.961,NaN,0.012,8.169e5,4.381,-3.38e-4,0.689,-0.001,0.354,0.215,0.12,NaN,NaN,NaN,NaN,NaN,NaN,NaN,NaN,1.295e-5,165,213.825,84,0,4.157,15,1013.25,340.389,0.01,0.01
0.22,-4.758e-4,-0.095,-9.515,0.096,9.568,-5.001e-5,0,5.001e-5,180,0.01,1,22.175,120.893,9.788,95.552,0,0,0,2.8e4,1.35e4,19.962,0.106,NaN,2019.959,NaN,0.012,8.166e5,4.657,-3.376e-4,0.689,-0.001,0.354,0.215,0.12,NaN,NaN,NaN,NaN,NaN,NaN,NaN,NaN,1.293e-5,165,213.825,84,0,4.156,15,1013.25,340.389,0.01,0.011
0.23,-4.762e-4,-0.095,-9.525,0.096,9.577,-5.005e-5,0,5.005e-5,180,0.01,1.001,22.175,120.893,9.788,95.554,0,0,0,2.8e4,1.35e4,19.962,0.106,NaN,2019.957,NaN,0.012,8.162e5,4.392,-3.377e-4,0.689,-0.001,0.354,0.215,0.12,NaN,NaN,NaN,NaN,NaN,NaN,NaN,NaN,1.295e-5,165,213.825,84,0,4.154,15,1013.25,340.389,0.01,0.011
0.24,-4.76e-4,-0.095,-9.52,0.096,9.573,-5.003e-5,0,5.003e-5,180,0.01,1.001,22.175,120.893,9.788,95.554,0,0,0,2.8e4,1.35e4,19.962,0.106,NaN,2019.955,NaN,0.012,8.159e5,4.513,-3.374e-4,0.689,-0.001,0.354,0.215,0.12,NaN,NaN,NaN,NaN,NaN,NaN,NaN,NaN,1.294e-5,165,213.825,84,0,4.152,15,1013.25,340.389,0.01,0.012
0.25,-4.759e-4,-0.095,-9.518,0.096,9.57,-5.002e-5,0,5.002e-5,180,0.01,1,22.175,120.893,9.788,95.554,0,0,0,2.8e4,1.35e4,19.962,0.106,NaN,2019.954,NaN,0.012,8.155e5,4.587,-3.371e-4,0.689,-0.001,0.354,0.215,0.12,NaN,NaN,NaN,NaN,NaN,NaN,NaN,NaN,1.294e-5,165,213.825,84,0,4.15,15,1013.25,340.389,0.01,0.012
0.26,-4.762e-4,-0.095,-9.523,0.096,9.576,-5.005e-5,0,5.005e-5,180,0.01,1.001,22.175,120.893,9.788,95.561,0,0,0,2.8e4,1.35e4,19.962,0.106,NaN,2019.952,NaN,0.012,8.118e5,4.429,-3.354e-4,0.69,-0.001,0.355,0.215,0.12,NaN,NaN,NaN,NaN,NaN,NaN,NaN,NaN,1.294e-5,165,213.825,84,0,4.131,15,1013.25,340.389,0.01,0.012
0.27,-4.76e-4,-0.095,-9.52,0.096,9.572,-5.003e-5,0,5.003e-5,180,0.01,1.001,22.175,120.893,9.788,95.566,0,0,0,2.8e4,1.35e4,19.962,0.106,NaN,2019.95,NaN,0.012,8.08e5,4.527,-3.335e-4,0.69,-0.001,0.355,0.215,0.12,NaN,NaN,NaN,NaN,NaN,NaN,NaN,NaN,1.294e-5,165,213.825,84,0,4.112,15,1013.25,340.389,0.01,0.012
0.28,-4.761e-4,-0.095,-9.521,0.096,9.574,-5.004e-5,0,5.004e-5,180,0.01,1.001,22.175,120.893,9.788,95.573,0,0,0,2.8e4,1.35e4,19.962,0.106,NaN,2019.949,NaN,0.012,8.043e5,4.488,-3.317e-4,0.69,-0.002,0.355,0.215,0.12,NaN,NaN,NaN,NaN,NaN,NaN,NaN,NaN,1.294e-5,165,213.825,84,0,4.093,15,1013.25,340.389,0.01,0.013
0.29,-4.758e-4,-0.095,-9.517,0.096,9.569,-5.001e-5,0,5.001e-5,180,0.01,1,22.175,120.893,9.788,95.578,0,0,0,2.8e4,1.35e4,19.962,0.106,NaN,2019.947,NaN,0.012,8.006e5,4.616,-3.297e-4,0.691,-0.002,0.356,0.215,0.12,NaN,NaN,NaN,NaN,NaN,NaN,NaN,NaN,1.294e-5,165,213.825,84,0,4.074,15,1013.25,340.389,0.01,0.013
0.3,-4.76e-4,-0.095,-9.519,0.096,9.572,-5.003e-5,0,5.003e-5,180,0.01,1.001,22.175,120.893,9.788,95.585,0,0,0,2.8e4,1.35e4,19.962,0.106,NaN,2019.945,NaN,0.012,7.968e5,4.548,-3.28e-4,0.691,-0.002,0.356,0.215,0.12,NaN,NaN,NaN,NaN,NaN,NaN,NaN,NaN,1.294e-5,165,213.825,84,0,4.055,15,1013.25,340.389,0.01,0.013
0.31,-4.757e-4,-0.095,-9.514,0.096,9.566,-5e-5,0,5e-5,180,0.01,1,22.175,120.893,9.788,95.572,0,0,0,2.8e4,1.35e4,19.962,0.106,NaN,2019.943,NaN,0.012,8.041e5,4.706,-3.314e-4,0.69,-0.002,0.355,0.215,0.12,NaN,NaN,NaN,NaN,NaN,NaN,NaN,NaN,1.293e-5,165,213.825,84,0,4.092,15,1013.25,340.389,0.01,0.013
0.32,-4.763e-4,-0.095,-9.527,0.096,9.579,-5.007e-5,0,5.007e-5,180,0.01,1.001,22.175,120.893,9.788,95.562,0,0,0,2.8e4,1.35e4,19.962,0.106,NaN,2019.942,NaN,0.012,8.113e5,4.332,-3.353e-4,0.69,-0.001,0.355,0.215,0.12,NaN,NaN,NaN,NaN,NaN,NaN,NaN,NaN,1.295e-5,165,213.825,84,0,4.129,15,1013.25,340.389,0.01,0.014
0.33,-4.761e-4,-0.095,-9.521,0.096,9.574,-5.004e-5,0,5.004e-5,180,0.01,1.001,22.175,120.893,9.788,95.549,0,0,0,2.8e4,1.35e4,19.962,0.106,NaN,2019.94,NaN,0.012,8.186e5,4.483,-3.387e-4,0.689,-0.001,0.354,0.215,0.12,NaN,NaN,NaN,NaN,NaN,NaN,NaN,NaN,1.294e-5,165,213.825,84,0,4.166,15,1013.25,340.389,0.01,0.014
0.34,-4.759e-4,-0.095,-9.518,0.096,9.571,-5.002e-5,0,5.002e-5,180,0.01,1,22.175,120.893,9.788,95.538,0,0,0,2.8e4,1.35e4,19.962,0.106,NaN,2019.938,NaN,0.012,8.258e5,4.57,-3.423e-4,0.689,-0.001,0.353,0.215,0.12,NaN,NaN,NaN,NaN,NaN,NaN,NaN,NaN,1.294e-5,165,213.825,84,0,4.203,15,1013.25,340.389,0.01,0.014
0.35,-4.762e-4,-0.095,-9.524,0.096,9.576,-5.005e-5,0,5.005e-5,180,0.01,1.001,22.175,120.893,9.788,95.527,0,0,0,2.8e4,1.35e4,19.962,0.106,NaN,2019.936,NaN,0.012,8.331e5,4.419,-3.461e-4,0.688,-0.001,0.353,0.215,0.12,NaN,NaN,NaN,NaN,NaN,NaN,NaN,NaN,1.294e-5,165,213.825,84,0,4.24,15,1013.25,340.389,0.01,0.014
0.36,-4.764e-4,-0.095,-9.527,0.096,9.58,-5.007e-5,0,5.007e-5,180,0.01,1.001,22.175,120.893,9.788,95.531,0,0,0,2.8e4,1.35e4,19.962,0.106,NaN,2019.935,NaN,0.012,8.305e5,4.317,-3.449e-4,0.688,-0.001,0.353,0.215,0.12,NaN,NaN,NaN,NaN,NaN,NaN,NaN,NaN,1.295e-5,165,213.825,84,0,4.227,15,1013.25,340.389,0.01,0.015
0.37,-4.76e-4,-0.095,-9.52,0.096,9.573,-5.003e-5,0,5.003e-5,180,0.01,1.001,22.175,120.893,9.788,95.535,0,0,0,2.8e4,1.35e4,19.962,0.106,NaN,2019.933,NaN,0.012,8.279e5,4.522,-3.434e-4,0.688,-0.001,0.353,0.215,0.12,NaN,NaN,NaN,NaN,NaN,NaN,NaN,NaN,1.294e-5,165,213.825,84,0,4.213,15,1013.25,340.389,0.01,0.015
0.38,-4.762e-4,-0.095,-9.523,0.096,9.576,-5.005e-5,0,5.005e-5,180,0.01,1.001,22.175,120.893,9.788,95.539,0,0,0,2.8e4,1.35e4,19.962,0.106,NaN,2019.931,NaN,0.012,8.253e5,4.433,-3.422e-4,0.689,-0.001,0.353,0.215,0.12,NaN,NaN,NaN,NaN,NaN,NaN,NaN,NaN,1.294e-5,165,213.825,84,0,4.2,15,1013.25,340.389,0.01,0.015
0.39,-4.757e-4,-0.095,-9.515,0.096,9.567,-5e-5,0,5e-5,180,0.01,1,22.175,120.893,9.788,95.542,0,0,0,2.8e4,1.35e4,19.962,0.106,NaN,2019.93,NaN,0.012,8.227e5,4.673,-3.406e-4,0.689,-0.001,0.354,0.215,0.12,NaN,NaN,NaN,NaN,NaN,NaN,NaN,NaN,1.293e-5,165,213.825,84,0,4.187,15,1013.25,340.389,0.01,0.015
0.4,-4.755e-4,-0.095,-9.51,0.096,9.562,-4.998e-5,0,4.998e-5,180,0.01,1,22.175,120.893,9.788,95.545,0,0,0,2.8e4,1.35e4,19.962,0.106,NaN,2019.928,NaN,0.012,8.201e5,4.812,-3.392e-4,0.689,-0.001,0.354,0.215,0.12,NaN,NaN,NaN,NaN,NaN,NaN,NaN,NaN,1.293e-5,165,213.825,84,0,4.174,15,1013.25,340.389,0.01,0.015
0.41,-4.759e-4,-0.095,-9.518,0.096,9.57,-5.002e-5,0,5.002e-5,180,0.01,1,22.175,120.893,9.788,95.555,0,0,0,2.8e4,1.35e4,19.962,0.106,NaN,2019.926,NaN,0.012,8.146e5,4.595,-3.367e-4,0.69,-0.001,0.354,0.215,0.12,NaN,NaN,NaN,NaN,NaN,NaN,NaN,NaN,1.294e-5,165,213.825,84,0,4.146,15,1013.25,340.389,0.01,0.016
0.42,-4.758e-4,-0.095,-9.516,0.096,9.568,-5.001e-5,0,5.001e-5,180,0.01,1,22.175,120.893,9.788,95.564,0,0,0,2.8e4,1.35e4,19.962,0.106,NaN,2019.924,NaN,0.012,8.091e5,4.638,-3.339e-4,0.69,-0.001,0.355,0.215,0.12,NaN,NaN,NaN,NaN,NaN,NaN,NaN,NaN,1.293e-5,165,213.825,84,0,4.117,15,1013.25,340.389,0.01,0.016
0.43,-4.755e-4,-0.095,-9.51,0.096,9.562,-4.998e-5,0,4.998e-5,180,0.01,1,22.175,120.893,9.788,95.572,0,0,0,2.8e4,1.35e4,19.962,0.106,NaN,2019.922,NaN,0.012,8.036e5,4.811,-3.31e-4,0.69,-0.002,0.355,0.215,0.12,NaN,NaN,NaN,NaN,NaN,NaN,NaN,NaN,1.293e-5,165,213.825,84,0,4.089,15,1013.25,340.389,0.01,0.016
0.44,-4.753e-4,-0.095,-9.506,0.096,9.558,-4.996e-5,0,4.996e-5,180,0.01,0.999,22.175,120.893,9.788,95.581,0,0,0,2.8e4,1.35e4,19.962,0.106,NaN,2019.921,NaN,0.012,7.981e5,4.919,-3.282e-4,0.691,-0.002,0.356,0.215,0.12,NaN,NaN,NaN,NaN,NaN,NaN,NaN,NaN,1.292e-5,165,213.825,84,0,4.061,15,1013.25,340.389,0.01,0.016
0.45,-4.759e-4,-0.095,-9.518,0.096,9.57,-5.002e-5,0,5.002e-5,180,0.01,1,22.175,120.893,9.788,95.592,0,0,0,2.8e4,1.35e4,19.961,0.106,NaN,2019.919,NaN,0.012,7.925e5,4.583,-3.258e-4,0.691,-0.002,0.356,0.215,0.12,NaN,NaN,NaN,NaN,NaN,NaN,NaN,NaN,1.294e-5,165,213.825,84,0,4.033,15,1013.25,340.389,0.01,0.017
0.46,-4.762e-4,-0.095,-9.523,0.096,9.576,-5.005e-5,0,5.005e-5,180,0.01,1.001,22.175,120.893,9.788,95.579,0,0,0,2.8e4,1.35e4,19.961,0.106,NaN,2019.917,NaN,0.012,8.005e5,4.429,-3.299e-4,0.691,-0.002,0.356,0.215,0.12,NaN,NaN,NaN,NaN,NaN,NaN,NaN,NaN,1.294e-5,165,213.825,84,0,4.074,15,1013.25,340.389,0.01,0.017
0.47,-4.761e-4,-0.095,-9.523,0.096,9.575,-5.004e-5,0,5.004e-5,180,0.01,1.001,22.175,120.893,9.788,95.566,0,0,0,2.8e4,1.35e4,19.961,0.106,NaN,2019.915,NaN,0.012,8.085e5,4.45,-3.338e-4,0.69,-0.001,0.355,0.215,0.12,NaN,NaN,NaN,NaN,NaN,NaN,NaN,NaN,1.294e-5,165,213.825,84,0,4.114,15,1013.25,340.389,0.01,0.017
0.48,-4.753e-4,-0.095,-9.506,0.096,9.559,-4.996e-5,0,4.996e-5,180,0.01,0.999,22.175,120.893,9.788,95.551,0,0,0,2.8e4,1.35e4,19.961,0.106,NaN,2019.914,NaN,0.012,8.165e5,4.905,-3.373e-4,0.689,-0.001,0.354,0.215,0.12,NaN,NaN,NaN,NaN,NaN,NaN,NaN,NaN,1.292e-5,165,213.825,84,0,4.155,15,1013.25,340.389,0.01,0.017
0.49,-4.756e-4,-0.095,-9.512,0.096,9.565,-4.999e-5,0,4.999e-5,180,0.01,1,22.175,120.893,9.788,95.539,0,0,0,2.8e4,1.35e4,19.961,0.106,NaN,2019.912,NaN,0.012,8.244e5,4.746,-3.414e-4,0.689,-0.001,0.354,0.215,0.12,NaN,NaN,NaN,NaN,NaN,NaN,NaN,NaN,1.293e-5,165,213.825,84,0,4.196,15,1013.25,340.389,0.01,0.017
0.5,-4.761e-4,-0.095,-9.522,0.096,9.574,-5.004e-5,0,5.004e-5,180,0.01,1.001,22.175,120.893,9.788,95.528,0,0,0,2.8e4,1.35e4,19.961,0.106,NaN,2019.91,NaN,0.012,8.324e5,4.47,-3.457e-4,0.688,-0.001,0.353,0.215,0.12,NaN,NaN,NaN,NaN,NaN,NaN,NaN,NaN,1.294e-5,165,213.825,84,0,4.236,15,1013.25,340.389,0.01,0.018
0.51,-4.758e-4,-0.095,-9.515,0.096,9.568,-5e-5,0,5e-5,180,0.01,1,22.175,120.893,9.788,95.536,0,0,0,2.8e4,1.35e4,19.961,0.106,NaN,2019.908,NaN,0.012,8.267e5,4.657,-3.427e-4,0.688,-0.001,0.353,0.215,0.12,NaN,NaN,NaN,NaN,NaN,NaN,NaN,NaN,1.293e-5,165,213.825,84,0,4.207,15,1013.25,340.389,0.01,0.018
0.52,-4.75e-4,-0.095,-9.499,0.096,9.551,-4.992e-5,0,4.992e-5,180,0.01,0.998,22.175,120.893,9.788,95.542,0,0,0,2.8e4,1.35e4,19.961,0.106,NaN,2019.906,NaN,0.012,8.21e5,5.115,-3.394e-4,0.689,-0.001,0.354,0.215,0.12,NaN,NaN,NaN,NaN,NaN,NaN,NaN,NaN,1.291e-5,165,213.825,84,0,4.178,15,1013.25,340.389,0.01,0.018
0.53,-4.746e-4,-0.095,-9.491,0.095,9.543,-4.988e-5,0,4.988e-5,180,0.01,0.998,22.175,120.893,9.788,95.551,0,0,0,2.8e4,1.35e4,19.961,0.106,NaN,2019.904,NaN,0.012,8.153e5,5.339,-3.364e-4,0.689,-0.001,0.354,0.215,0.12,NaN,NaN,NaN,NaN,NaN,NaN,NaN,NaN,1.29e-5,165,213.825,84,0,4.149,15,1013.25,340.389,0.01,0.018
0.54,-4.758e-4,-0.095,-9.516,0.096,9.568,-5.001e-5,0,5.001e-5,180,0.01,1,22.175,120.893,9.788,95.563,0,0,0,2.8e4,1.35e4,19.961,0.106,NaN,2019.903,NaN,0.012,8.096e5,4.638,-3.342e-4,0.69,-0.001,0.355,0.215,0.12,NaN,NaN,NaN,NaN,NaN,NaN,NaN,NaN,1.293e-5,165,213.825,84,0,4.12,15,1013.25,340.389,0.01,0.018
0.55,-4.755e-4,-0.095,-9.509,0.096,9.562,-4.997e-5,0,4.997e-5,180,0.01,0.999,22.175,120.893,9.788,95.572,0,0,0,2.8e4,1.35e4,19.961,0.106,NaN,2019.901,NaN,0.012,8.039e5,4.82,-3.312e-4,0.69,-0.002,0.355,0.215,0.12,NaN,NaN,NaN,NaN,NaN,NaN,NaN,NaN,1.293e-5,165,213.825,84,0,4.091,15,1013.25,340.389,0.01,0.019
0.56,-4.749e-4,-0.095,-9.498,0.096,9.55,-4.991e-5,0,4.991e-5,180,0.01,0.998,22.175,120.893,9.788,95.569,0,0,0,2.8e4,1.35e4,19.961,0.106,NaN,2019.899,NaN,0.012,8.045e5,5.14,-3.312e-4,0.69,-0.002,0.355,0.215,0.12,NaN,NaN,NaN,NaN,NaN,NaN,NaN,NaN,1.291e-5,165,213.825,84,0,4.094,15,1013.25,340.389,0.01,0.019
0.57,-4.749e-4,-0.095,-9.497,0.095,9.55,-4.991e-5,0,4.991e-5,180,0.01,0.998,22.175,120.893,9.788,95.568,0,0,0,2.8e4,1.35e4,19.961,0.106,NaN,2019.897,NaN,0.012,8.051e5,5.164,-3.315e-4,0.69,-0.002,0.355,0.215,0.12,NaN,NaN,NaN,NaN,NaN,NaN,NaN,NaN,1.291e-5,165,213.825,84,0,4.097,15,1013.25,340.389,0.01,0.019
0.58,-4.749e-4,-0.095,-9.499,0.096,9.551,-4.992e-5,0,4.992e-5,180,0.01,0.998,22.175,120.893,9.788,95.567,0,0,0,2.8e4,1.35e4,19.961,0.106,NaN,2019.895,NaN,0.012,8.056e5,5.125,-3.318e-4,0.69,-0.002,0.355,0.215,0.12,NaN,NaN,NaN,NaN,NaN,NaN,NaN,NaN,1.291e-5,165,213.825,84,0,4.1,15,1013.25,340.389,0.01,0.019
0.59,-4.746e-4,-0.095,-9.493,0.095,9.545,-4.989e-5,0,4.989e-5,180,0.01,0.998,22.175,120.893,9.788,95.566,0,0,0,2.8e4,1.35e4,19.961,0.106,NaN,2019.893,NaN,0.012,8.062e5,5.296,-3.319e-4,0.69,-0.001,0.355,0.215,0.12,NaN,NaN,NaN,NaN,NaN,NaN,NaN,NaN,1.29e-5,165,213.825,84,0,4.103,15,1013.25,340.389,0.01,0.02
0.6,-4.741e-4,-0.095,-9.483,0.095,9.535,-4.983e-5,0,4.983e-5,180,0.01,0.997,22.175,120.893,9.788,95.563,0,0,0,2.8e4,1.349e4,19.961,0.106,NaN,2019.891,NaN,0.012,8.067e5,5.567,-3.319e-4,0.69,-0.001,0.355,0.215,0.12,NaN,NaN,NaN,NaN,NaN,NaN,NaN,NaN,1.289e-5,165,213.825,84,0,4.105,15,1013.25,340.389,0.01,0.02
0.61,-4.739e-4,-0.095,-9.478,0.095,9.53,-4.981e-5,0,4.981e-5,180,0.01,0.996,22.175,120.893,9.788,95.562,0,0,0,2.8e4,1.349e4,19.961,0.106,NaN,2019.889,NaN,0.012,8.07e5,5.717,-3.319e-4,0.69,-0.001,0.355,0.215,0.12,NaN,NaN,NaN,NaN,NaN,NaN,NaN,NaN,1.288e-5,165,213.825,84,0,4.107,15,1013.25,340.389,0.01,0.02
0.62,-4.745e-4,-0.095,-9.49,0.095,9.542,-4.987e-5,0,4.987e-5,180,0.01,0.997,22.175,120.893,9.788,95.564,0,0,0,2.8e4,1.349e4,19.961,0.106,NaN,2019.887,NaN,0.012,8.072e5,5.366,-3.324e-4,0.69,-0.001,0.355,0.215,0.12,NaN,NaN,NaN,NaN,NaN,NaN,NaN,NaN,1.29e-5,165,213.825,84,0,4.108,15,1013.25,340.389,0.01,0.02
0.63,-4.737e-4,-0.095,-9.473,0.095,9.525,-4.978e-5,0,4.978e-5,180,0.01,0.996,22.175,120.893,9.788,95.561,0,0,0,2.799e4,1.349e4,19.961,0.106,NaN,2019.884,NaN,0.012,8.075e5,5.844,-3.321e-4,0.69,-0.001,0.355,0.215,0.12,NaN,NaN,NaN,NaN,NaN,NaN,NaN,NaN,1.288e-5,165,213.825,84,0,4.109,15,1013.25,340.389,0.01,0.02
0.64,-4.738e-4,-0.095,-9.475,0.095,9.527,-4.979e-5,0,4.979e-5,180,0.01,0.996,22.175,120.893,9.788,95.561,0,0,0,2.799e4,1.349e4,19.961,0.106,NaN,2019.882,NaN,0.012,8.077e5,5.786,-3.322e-4,0.69,-0.001,0.355,0.215,0.12,NaN,NaN,NaN,NaN,NaN,NaN,NaN,NaN,1.288e-5,165,213.825,84,0,4.11,15,1013.25,340.389,0.01,0.021
0.65,-4.734e-4,-0.095,-9.469,0.095,9.521,-4.976e-5,0,4.976e-5,180,0.01,0.995,22.175,120.893,9.788,95.559,0,0,0,2.799e4,1.349e4,19.961,0.106,NaN,2019.88,NaN,0.012,8.08e5,5.968,-3.322e-4,0.69,-0.001,0.355,0.215,0.12,NaN,NaN,NaN,NaN,NaN,NaN,NaN,NaN,1.287e-5,165,213.825,84,0,4.112,15,1013.25,340.389,0.01,0.021
0.66,-4.724e-4,-0.094,-9.448,0.095,9.5,-4.965e-5,0,4.965e-5,180,0.01,0.993,22.175,120.893,9.788,95.548,0,0,0,2.799e4,1.349e4,19.961,0.106,NaN,2019.877,NaN,0.012,8.134e5,6.551,-3.344e-4,0.69,-0.001,0.354,0.215,0.12,NaN,NaN,NaN,NaN,NaN,NaN,NaN,NaN,1.284e-5,165,213.825,84,0,4.14,15,1013.25,340.389,0.01,0.021
0.67,-4.721e-4,-0.094,-9.442,0.095,9.494,-4.962e-5,0,4.962e-5,180,0.01,0.992,22.175,120.893,9.788,95.538,0,0,0,2.799e4,1.349e4,19.961,0.106,NaN,2019.875,NaN,0.012,8.189e5,6.72,-3.37e-4,0.689,-0.001,0.354,0.215,0.12,NaN,NaN,NaN,NaN,NaN,NaN,NaN,NaN,1.283e-5,165,213.825,84,0,4.168,15,1013.25,340.389,0.01,0.022
0.68,-4.711e-4,-0.094,-9.421,0.095,9.473,-4.951e-5,0,4.951e-5,180,0.01,0.99,22.175,120.893,9.788,95.527,0,0,0,2.799e4,1.349e4,19.961,0.106,NaN,2019.872,NaN,0.012,8.244e5,7.299,-3.392e-4,0.689,-0.001,0.354,0.215,0.12,NaN,NaN,NaN,NaN,NaN,NaN,NaN,NaN,1.281e-5,165,213.825,84,0,4.196,15,1013.25,340.389,0.01,0.022
0.69,-4.708e-4,-0.094,-9.415,0.095,9.467,-4.948e-5,0,4.948e-5,180,0.01,0.99,22.175,120.893,9.788,95.517,0,0,0,2.799e4,1.349e4,19.961,0.106,NaN,2019.869,NaN,0.012,8.299e5,7.467,-3.418e-4,0.688,-0.001,0.353,0.215,0.12,NaN,NaN,NaN,NaN,NaN,NaN,NaN,NaN,1.28e-5,165,213.825,84,0,4.224,15,1013.25,340.389,0.01,0.022
0.7,-4.699e-4,-0.094,-9.398,0.095,9.45,-4.939e-5,0,4.939e-5,180,0.01,0.988,22.175,120.893,9.788,95.506,0,0,0,2.799e4,1.349e4,19.961,0.106,NaN,2019.866,NaN,0.013,8.354e5,7.951,-3.441e-4,0.688,-0.001,0.353,0.215,0.12,NaN,NaN,NaN,NaN,NaN,NaN,NaN,NaN,1.277e-5,165,213.825,84,0,4.252,15,1013.25,340.389,0.01,0.022
0.71,-4.682e-4,-0.094,-9.363,0.094,9.415,-4.921e-5,0,4.921e-5,180,0.01,0.984,22.175,120.893,9.788,95.487,0,0,0,2.799e4,1.349e4,19.96,0.106,NaN,2019.863,NaN,0.013,8.455e5,8.938,-3.483e-4,0.687,-0.001,0.352,0.215,0.12,NaN,NaN,NaN,NaN,NaN,NaN,NaN,NaN,1.273e-5,165,213.825,84,0,4.303,15,1013.25,340.389,0.01,0.022
0.72,-4.676e-4,-0.094,-9.352,0.094,9.403,-4.915e-5,0,4.915e-5,180,0.01,0.983,22.175,120.893,9.788,95.47,0,0,0,2.799e4,1.349e4,19.96,0.106,NaN,2019.859,NaN,0.013,8.556e5,9.255,-3.532e-4,0.686,-0.001,0.351,0.215,0.12,NaN,NaN,NaN,NaN,NaN,NaN,NaN,NaN,1.271e-5,165,213.825,84,0,4.355,15,1013.25,340.389,0.01,0.023
0.73,-4.659e-4,-0.093,-9.319,0.094,9.37,-4.897e-5,0,4.897e-5,180,0.01,0.979,22.175,120.893,9.788,95.452,0,0,0,2.799e4,1.349e4,19.96,0.106,NaN,2019.855,NaN,0.013,8.657e5,10.185,-3.575e-4,0.685,-0.001,0.35,0.215,0.12,NaN,NaN,NaN,NaN,NaN,NaN,NaN,NaN,1.267e-5,165,213.825,84,0,4.406,15,1013.25,340.389,0.01,0.023
0.74,-4.64e-4,-0.093,-9.28,0.093,9.331,-4.877e-5,0,4.877e-5,180,0.01,0.975,22.175,120.893,9.788,95.433,0,0,0,2.799e4,1.349e4,19.96,0.106,NaN,2019.851,NaN,0.013,8.758e5,11.275,-3.617e-4,0.684,-0.001,0.349,0.215,0.12,NaN,NaN,NaN,NaN,NaN,NaN,NaN,NaN,1.261e-5,165,213.825,84,0,4.458,15,1013.25,340.389,0.01,0.023
0.75,-4.621e-4,-0.092,-9.243,0.093,9.294,-4.857e-5,0,4.857e-5,180,0.01,0.971,22.175,120.893,9.788,95.415,0,0,0,2.799e4,1.349e4,19.96,0.106,NaN,2019.846,NaN,0.013,8.859e5,12.322,-3.66e-4,0.684,-0.001,0.348,0.215,0.12,NaN,NaN,NaN,NaN,NaN,NaN,NaN,NaN,1.256e-5,165,213.825,84,0,4.509,15,1013.25,340.389,0.01,0.023
0.76,-4.598e-4,-0.092,-9.195,0.092,9.246,-4.832e-5,0,4.832e-5,180,0.01,0.966,22.175,120.893,9.788,95.415,0,0,0,2.799e4,1.349e4,19.96,0.106,NaN,2019.841,NaN,0.013,8.81e5,13.663,-3.623e-4,0.684,-0.001,0.349,0.215,0.12,NaN,NaN,NaN,NaN,NaN,NaN,NaN,NaN,1.25e-5,165,213.825,84,0,4.485,15,1013.25,340.389,0.01,0.023
0.77,-4.586e-4,-0.092,-9.173,0.092,9.223,-4.82e-5,0,4.82e-5,180,0.01,0.964,22.175,120.893,9.788,95.418,0,0,0,2.799e4,1.349e4,19.96,0.106,NaN,2019.836,NaN,0.013,8.762e5,14.302,-3.593e-4,0.684,-0.001,0.349,0.215,0.12,NaN,NaN,NaN,NaN,NaN,NaN,NaN,NaN,1.247e-5,165,213.825,84,0,4.46,15,1013.25,340.389,0.01,0.024
0.78,-4.56e-4,-0.091,-9.12,0.092,9.171,-4.793e-5,0,4.793e-5,180,0.01,0.959,22.175,120.893,9.788,95.418,0,0,0,2.799e4,1.349e4,19.96,0.106,NaN,2019.83,NaN,0.013,8.714e5,15.77,-3.555e-4,0.685,-0.001,0.35,0.215,0.12,NaN,NaN,NaN,NaN,NaN,NaN,NaN,NaN,1.24e-5,165,213.825,84,0,4.436,15,1013.25,340.389,0.01,0.024
0.79,-4.54e-4,-0.091,-9.079,0.091,9.129,-4.771e-5,0,4.771e-5,180,0.01,0.954,22.175,120.893,9.788,95.419,0,0,0,2.799e4,1.349e4,19.96,0.106,NaN,2019.823,NaN,0.013,8.666e5,16.927,-3.52e-4,0.685,-0.001,0.35,0.215,0.12,NaN,NaN,NaN,NaN,NaN,NaN,NaN,NaN,1.234e-5,165,213.825,84,0,4.411,15,1013.25,340.389,0.01,0.024
0.8,-4.518e-4,-0.09,-9.037,0.091,9.087,-4.749e-5,0,4.749e-5,180,0.009,0.95,22.175,120.893,9.788,95.42,0,0,0,2.799e4,1.349e4,19.96,0.106,NaN,2019.816,NaN,0.013,8.618e5,18.121,-3.485e-4,0.686,-0.001,0.35,0.215,0.12,NaN,NaN,NaN,NaN,NaN,NaN,NaN,NaN,1.228e-5,165,213.825,84,0,4.387,15,1013.25,340.389,0.01,0.024
0.81,-4.495e-4,-0.09,-8.99,0.09,9.04,-4.725e-5,0,4.725e-5,180,0.009,0.945,22.175,120.893,9.788,95.42,0,0,0,2.799e4,1.349e4,19.96,0.106,NaN,2019.809,NaN,0.013,8.574e5,19.438,-3.451e-4,0.686,-0.001,0.351,0.215,0.12,NaN,NaN,NaN,NaN,NaN,NaN,NaN,NaN,1.222e-5,165,213.825,84,0,4.364,15,1013.25,340.389,0.01,0.024
0.82,-4.482e-4,-0.09,-8.965,0.09,9.014,-4.711e-5,0,4.711e-5,180,0.009,0.942,22.175,120.893,9.788,95.423,0,0,0,2.799e4,1.349e4,19.959,0.106,NaN,2019.801,NaN,0.013,8.53e5,20.155,-3.423e-4,0.686,-0.001,0.351,0.215,0.12,NaN,NaN,NaN,NaN,NaN,NaN,NaN,NaN,1.218e-5,165,213.825,84,0,4.342,15,1013.25,340.389,0.01,0.025
0.83,-4.434e-4,-0.089,-8.867,0.089,8.916,-4.66e-5,0,4.66e-5,180,0.009,0.932,22.175,120.893,9.788,95.416,0,0,0,2.799e4,1.349e4,19.959,0.106,NaN,2019.793,NaN,0.013,8.486e5,22.899,-3.377e-4,0.687,-0.001,0.351,0.215,0.12,NaN,NaN,NaN,NaN,NaN,NaN,NaN,NaN,1.205e-5,165,213.825,84,0,4.319,15,1013.25,340.389,0.01,0.025
0.84,-4.345e-4,-0.087,-8.69,0.087,8.738,-4.567e-5,0,4.567e-5,180,0.009,0.913,22.175,120.893,9.788,95.399,0,0,0,2.799e4,1.349e4,19.959,0.106,NaN,2019.782,NaN,0.013,8.441e5,27.886,-3.312e-4,0.687,-0.001,0.352,0.215,0.12,NaN,NaN,NaN,NaN,NaN,NaN,NaN,NaN,1.181e-5,165,213.825,84,0,4.297,15,1013.25,340.389,0.01,0.025
0.85,-4.271e-4,-0.085,-8.542,0.086,8.589,-4.489e-5,0,4.489e-5,180,0.009,0.898,22.175,120.893,9.788,95.385,0,0,0,2.799e4,1.349e4,19.959,0.106,NaN,2019.77,NaN,0.013,8.397e5,32.036,-3.254e-4,0.687,-0.001,0.352,0.215,0.12,NaN,NaN,NaN,NaN,NaN,NaN,NaN,NaN,1.161e-5,165,213.825,84,0,4.274,15,1013.25,340.389,0.01,0.025
0.86,-4.194e-4,-0.084,-8.388,0.084,8.434,-4.408e-5,0,4.408e-5,180,0.009,0.882,22.175,120.893,9.788,95.362,0,0,0,2.799e4,1.349e4,19.959,0.106,NaN,2019.756,NaN,0.013,8.414e5,36.392,-3.226e-4,0.687,-0.001,0.352,0.215,0.12,NaN,NaN,NaN,NaN,NaN,NaN,NaN,NaN,1.14e-5,165,213.825,84,0,4.283,15,1013.25,340.389,0.01,0.025
0.87,-4.119e-4,-0.082,-8.239,0.083,8.284,-4.33e-5,0,4.33e-5,180,0.009,0.866,22.175,120.893,9.788,95.34,0,0,0,2.799e4,1.349e4,19.958,0.106,NaN,2019.74,NaN,0.013,8.431e5,40.581,-3.199e-4,0.687,-0.001,0.352,0.215,0.12,NaN,NaN,NaN,NaN,NaN,NaN,NaN,NaN,1.12e-5,165,213.825,84,0,4.292,15,1013.25,340.389,0.01,0.026
0.88,-4.047e-4,-0.081,-8.093,0.081,8.138,-4.253e-5,0,4.253e-5,180,0.009,0.851,22.175,120.893,9.788,95.318,0,0,0,2.799e4,1.349e4,19.958,0.106,NaN,2019.723,NaN,0.013,8.448e5,44.682,-3.173e-4,0.687,-0.001,0.352,0.215,0.12,NaN,NaN,NaN,NaN,NaN,NaN,NaN,NaN,1.1e-5,165,213.825,84,0,4.301,15,1013.25,340.389,0.01,0.026
0.89,-3.982e-4,-0.08,-7.965,0.08,8.008,-4.186e-5,0,4.186e-5,180,0.008,0.837,22.175,120.893,9.788,95.299,0,0,0,2.799e4,1.349e4,19.958,0.106,NaN,2019.705,NaN,0.013,8.465e5,48.294,-3.152e-4,0.687,-0.001,0.352,0.215,0.12,NaN,NaN,NaN,NaN,NaN,NaN,NaN,NaN,1.083e-5,165,213.825,84,0,4.31,15,1013.25,340.389,0.01,0.026
0.9,-3.921e-4,-0.078,-7.842,0.079,7.885,-4.121e-5,0,4.121e-5,180,0.008,0.824,22.175,120.893,9.788,95.28,0,0,0,2.799e4,1.349e4,19.957,0.106,NaN,2019.685,NaN,0.013,8.483e5,51.752,-3.131e-4,0.687,-0.001,0.351,0.215,0.12,NaN,NaN,NaN,NaN,NaN,NaN,NaN,NaN,1.066e-5,165,213.825,84,0,4.319,15,1013.25,340.389,0.01,0.026
0.91,-3.84e-4,-0.077,-7.679,0.077,7.722,-4.036e-5,0,4.036e-5,180,0.008,0.807,22.175,120.893,9.788,95.262,0,0,0,2.798e4,1.348e4,19.957,0.106,NaN,2019.664,NaN,0.013,8.458e5,56.319,-3.082e-4,0.687,-0.001,0.352,0.215,0.12,NaN,NaN,NaN,NaN,NaN,NaN,NaN,NaN,1.044e-5,165,213.825,84,0,4.307,15,1013.25,340.389,0.01,0.026
0.92,-3.761e-4,-0.075,-7.522,0.076,7.563,-3.953e-5,0,3.953e-5,180,0.008,0.791,22.175,120.893,9.788,95.244,0,0,0,2.798e4,1.348e4,19.957,0.106,NaN,2019.641,NaN,0.013,8.434e5,60.748,-3.035e-4,0.687,-0.001,0.352,0.215,0.12,NaN,NaN,NaN,NaN,NaN,NaN,NaN,NaN,1.022e-5,165,213.825,84,0,4.294,15,1013.25,340.389,0.01,0.027
0.93,-3.643e-4,-0.073,-7.286,0.073,7.326,-3.829e-5,0,3.829e-5,180,0.008,0.766,22.175,120.893,9.788,95.215,0,0,0,2.798e4,1.348e4,19.956,0.106,NaN,2019.615,NaN,0.013,8.41e5,67.387,-2.97e-4,0.687,-0.001,0.352,0.215,0.12,NaN,NaN,NaN,NaN,NaN,NaN,NaN,NaN,9.903e-6,165,213.825,84,0,4.282,15,1013.25,340.389,0.01,0.027
0.94,-3.499e-4,-0.07,-6.999,0.07,7.037,-3.678e-5,0,3.678e-5,180,0.007,0.736,22.175,120.893,9.788,95.179,0,0,0,2.798e4,1.348e4,19.956,0.106,NaN,2019.586,NaN,0.013,8.386e5,75.455,-2.894e-4,0.687,-0.001,0.352,0.215,0.12,NaN,NaN,NaN,NaN,NaN,NaN,NaN,NaN,9.513e-6,165,213.825,84,0,4.27,15,1013.25,340.389,0.01,0.027
0.95,-3.337e-4,-0.067,-6.673,0.067,6.71,-3.507e-5,0,3.507e-5,180,0.007,0.701,22.175,120.893,9.788,95.138,0,0,0,2.798e4,1.348e4,19.955,0.106,NaN,2019.554,NaN,0.013,8.361e5,84.603,-2.811e-4,0.688,-0.001,0.353,0.215,0.12,NaN,NaN,NaN,NaN,NaN,NaN,NaN,NaN,9.071e-6,165,213.825,84,0,4.258,15,1013.25,340.389,0.01,0.027
0.96,-3.135e-4,-0.063,-6.271,0.063,6.305,-3.295e-5,0,3.295e-5,180,0.007,0.659,22.175,120.893,9.788,95.088,0,0,0,2.798e4,1.348e4,19.954,0.106,NaN,2019.517,NaN,0.012,8.316e5,95.934,-2.704e-4,0.688,-0.001,0.353,0.215,0.12,NaN,NaN,NaN,NaN,NaN,NaN,NaN,NaN,8.523e-6,165,213.825,84,0,4.235,15,1013.25,340.389,0.01,0.027
0.97,-2.933e-4,-0.059,-5.865,0.059,5.898,-3.082e-5,0,3.082e-5,180,0.006,0.616,22.175,120.893,9.788,95.038,0,0,0,2.798e4,1.348e4,19.954,0.106,NaN,2019.476,NaN,0.012,8.27e5,107.326,-2.599e-4,0.688,-0.001,0.353,0.215,0.12,NaN,NaN,NaN,NaN,NaN,NaN,NaN,NaN,7.972e-6,165,213.825,84,0,4.212,15,1013.25,340.389,0.01,0.027
0.98,-2.671e-4,-0.053,-5.342,0.054,5.372,-2.808e-5,0,2.808e-5,180,0.006,0.561,22.175,120.893,9.788,94.971,0,0,0,2.797e4,1.347e4,19.953,0.106,NaN,2019.43,NaN,0.012,8.225e5,122.033,-2.472e-4,0.689,-0.001,0.354,0.215,0.12,NaN,NaN,NaN,NaN,NaN,NaN,NaN,NaN,7.261e-6,165,213.825,84,0,4.189,15,1013.25,340.389,0.01,0.028
0.99,-2.333e-4,-0.047,-4.667,0.047,4.692,-2.453e-5,0,2.453e-5,180,0.005,0.49,22.175,120.893,9.788,94.882,0,0,0,2.797e4,1.347e4,19.952,0.106,NaN,2019.376,NaN,0.012,8.179e5,141.022,-2.319e-4,0.689,-0.001,0.354,0.215,0.12,NaN,NaN,NaN,NaN,NaN,NaN,NaN,NaN,6.343e-6,165,213.825,84,0,4.167,15,1013.25,340.389,0.01,0.028
1,-1.839e-4,-0.037,-3.678,0.037,3.699,-1.933e-5,0,1.933e-5,180,0.004,0.387,22.175,120.893,9.788,94.748,0,0,0,2.797e4,1.347e4,19.951,0.106,NaN,2019.312,NaN,0.012,8.132e5,168.795,-2.114e-4,0.69,-9.388e-4,0.355,0.215,0.12,NaN,NaN,NaN,NaN,NaN,NaN,NaN,NaN,5e-6,165,213.825,84,0,4.144,15,1013.25,340.389,0.01,0.028
1.01,-1.138e-4,-0.023,-2.275,0.023,2.288,-1.196e-5,0,1.196e-5,180,0.002,0.239,22.175,120.893,9.788,94.552,0,0,0,2.796e4,1.346e4,19.949,0.106,NaN,2019.232,NaN,0.012,8.2e5,208.221,-1.895e-4,0.689,-8.278e-4,0.354,0.215,0.12,NaN,NaN,NaN,NaN,NaN,NaN,NaN,NaN,3.094e-6,165,213.825,84,0,4.179,15,1013.25,340.389,0.01,0.028
1.02,-4.855e-5,-0.01,-0.97,0.01,0.975,-5.103e-6,0,5.103e-6,180,0.001,0.102,22.175,120.893,9.788,94.371,0,0,0,2.796e4,1.346e4,19.948,0.106,NaN,2019.139,NaN,0.012,8.267e5,244.886,-1.708e-4,0.688,-7.34e-4,0.353,0.215,0.12,NaN,NaN,NaN,NaN,NaN,NaN,NaN,NaN,1.32e-6,165,213.825,84,0,4.215,15,1013.25,340.389,0.01,0.028
1.03,2.205e-5,0.004,0.442,0.004,0.445,2.317e-6,0,2.317e-6,0,4.638e-4,0.046,22.175,120.893,9.788,94.179,0,0,0,2.795e4,1.345e4,19.946,0.106,NaN,2019.03,NaN,0.012,8.335e5,284.538,-1.519e-4,0.688,-6.423e-4,0.353,0.215,0.12,NaN,NaN,NaN,NaN,NaN,NaN,NaN,NaN,5.998e-7,165,213.825,84,0,4.25,15,1013.25,340.389,0.01,0.029
1.04,1.641e-4,0.024,1.96,0.024,1.971,1.725e-5,0,1.725e-5,0,0.003,0.206,22.175,120.893,9.788,93.917,0,0,0,2.795e4,1.345e4,19.943,0.106,NaN,2018.905,NaN,0.013,8.402e5,327.142,-1.274e-4,0.687,-5.298e-4,0.352,0.215,0.12,NaN,NaN,NaN,NaN,NaN,NaN,NaN,NaN,3.263e-6,165,213.825,84,0,4.286,15,1013.25,340.389,0.01,0.029
1.05,5.833e-4,0.06,3.585,0.06,3.604,6.13e-5,0,6.13e-5,0,0.006,0.377,22.175,120.893,9.788,93.443,0,0,0,2.794e4,1.344e4,19.941,0.106,NaN,2018.763,NaN,0.013,8.467e5,372.693,-8.82e-5,0.687,-3.613e-4,0.352,0.215,0.12,NaN,NaN,NaN,NaN,NaN,NaN,NaN,NaN,8.133e-6,165,213.825,84,0,4.322,15,1013.25,340.389,0.01,0.029
1.06,0.001,0.115,5.563,0.116,5.594,1.534e-4,0,1.534e-4,0,0.012,0.585,22.175,120.893,9.788,92.676,0,0,0,2.793e4,1.343e4,19.938,0.106,NaN,2018.599,NaN,0.012,8.323e5,428.171,-4.041e-5,0.688,-1.713e-4,0.353,0.215,0.12,NaN,NaN,NaN,NaN,NaN,NaN,NaN,NaN,1.569e-5,165,213.825,84,0,4.251,15,1013.25,340.389,0.01,0.029
1.07,0.003,0.191,7.517,0.192,7.558,3.142e-4,0,3.142e-4,0,0.02,0.79,22.175,120.893,9.788,91.612,0,0,0,2.792e4,1.342e4,19.935,0.106,NaN,2018.415,NaN,0.012,8.179e5,482.882,-8.649e-6,0.689,-3.797e-5,0.354,0.215,0.12,NaN,NaN,NaN,NaN,NaN,NaN,NaN,NaN,2.59e-5,165,213.825,84,0,4.18,15,1013.25,340.389,0.01,0.029
1.08,0.005,0.288,9.758,0.29,9.812,5.658e-4,0,5.658e-4,0,0.03,1.026,22.175,120.893,9.788,90.196,0,0,0,2.791e4,1.341e4,19.931,0.106,NaN,2018.206,NaN,0.012,8.037e5,545.617,-1.529e-8,0.69,-6.952e-8,0.355,0.215,0.12,NaN,NaN,NaN,NaN,NaN,NaN,NaN,NaN,3.916e-5,165,213.825,84,0,4.11,15,1013.249,340.389,0.01,0.029
1.09,0.009,0.411,12.305,0.413,12.373,9.333e-4,0,9.333e-4,0,0.043,1.293,22.175,120.893,9.788,88.366,0,0,0,2.79e4,1.34e4,19.927,0.106,NaN,2017.969,NaN,0.012,7.902e5,616.859,8.428e-6,0.692,3.963e-5,0.357,0.215,0.12,NaN,NaN,NaN,NaN,NaN,NaN,NaN,NaN,5.588e-5,165,213.825,84,0,4.039,15,1013.249,340.389,0.01,0.03
1.1,0.014,0.563,15.219,0.566,15.303,0.001,0,0.001,0,0.059,1.6,22.175,120.893,9.788,86.053,0,0,0,2.789e4,1.339e4,19.922,0.106,NaN,2017.702,NaN,0.012,7.779e5,698.307,1.126e-4,0.693,5.465e-4,0.358,0.215,0.12,NaN,NaN,NaN,NaN,NaN,NaN,NaN,NaN,7.656e-5,165,213.825,84,0,3.968,15,1013.248,340.389,0.01,0.03
1.11,0.02,0.746,18.29,0.75,18.39,0.002,0,0.002,0,0.078,1.922,22.175,120.893,9.788,83.358,0,0,0,2.788e4,1.338e4,19.917,0.106,NaN,2017.401,NaN,0.012,7.773e5,784.022,5.203e-4,0.693,0.003,0.358,0.215,0.12,NaN,NaN,NaN,NaN,NaN,NaN,NaN,NaN,1.014e-4,165,213.825,84,0,3.947,15,1013.248,340.389,0.01,0.03
1.12,0.029,0.96,21.441,0.966,21.559,0.003,0,0.003,0,0.101,2.253,22.175,120.893,9.788,80.214,0,0,0,2.786e4,1.336e4,19.911,0.106,NaN,2017.066,NaN,0.012,7.793e5,871.849,0.002,0.693,0.008,0.358,0.215,0.12,NaN,NaN,NaN,NaN,NaN,NaN,NaN,NaN,1.305e-4,165,213.825,84,0,3.927,15,1013.247,340.389,0.01,0.03
1.13,0.04,1.207,24.646,1.213,24.782,0.004,0,0.004,0,0.127,2.59,22.175,120.893,9.788,76.646,0,0,0,2.784e4,1.334e4,19.904,0.106,NaN,2016.696,NaN,0.012,7.852e5,961.049,0.004,0.692,0.019,0.357,0.215,0.12,NaN,NaN,NaN,NaN,NaN,NaN,NaN,NaN,1.64e-4,165,213.825,84,0,3.906,15,1013.245,340.389,0.01,0.03
1.14,0.053,1.482,27.565,1.49,27.717,0.006,0,0.006,0,0.156,2.897,22.175,120.893,9.788,72.748,0,0,0,2.782e4,1.332e4,19.897,0.106,NaN,2016.295,NaN,0.012,7.957e5,1042.073,0.008,0.691,0.039,0.356,0.215,0.12,NaN,NaN,NaN,NaN,NaN,NaN,NaN,NaN,2.015e-4,165,213.825,84,0,3.885,15,1013.244,340.389,0.01,0.031
1.15,0.069,1.783,30.094,1.793,30.26,0.007,0,0.007,0,0.187,3.163,22.175,120.893,9.788,68.641,0,0,0,2.78e4,1.33e4,19.889,0.106,NaN,2015.866,NaN,0.012,8.116e5,1112.029,0.016,0.69,0.07,0.355,0.215,0.12,NaN,NaN,NaN,NaN,NaN,NaN,NaN,NaN,2.424e-4,165,213.825,84,0,3.865,15,1013.242,340.389,0.01,0.031
1.16,0.089,2.106,32.291,2.117,32.469,0.009,0,0.009,0,0.221,3.394,22.175,120.893,9.788,64.823,0,0,0,2.778e4,1.328e4,19.881,0.106,NaN,2015.413,NaN,0.013,8.432e5,1172.553,0.026,0.687,0.109,0.352,0.215,0.12,NaN,NaN,NaN,NaN,NaN,NaN,NaN,NaN,2.862e-4,165,213.825,84,0,3.902,14.999,1013.24,340.389,0.01,0.031
1.17,0.112,2.446,34.031,2.459,34.218,0.012,0,0.012,0,0.257,3.577,22.175,120.893,9.788,61.101,0,0,0,2.776e4,1.326e4,19.873,0.105,NaN,2014.941,NaN,0.013,8.799e5,1220.187,0.041,0.684,0.155,0.349,0.215,0.12,NaN,NaN,NaN,NaN,NaN,NaN,NaN,NaN,3.325e-4,165,213.825,84,0,3.939,14.999,1013.237,340.388,0.01,0.031
1.18,0.138,2.799,35.307,2.814,35.502,0.014,0,0.014,0,0.294,3.711,22.175,120.893,9.788,57.557,0,0,0,2.774e4,1.324e4,19.864,0.105,NaN,2014.455,NaN,0.014,9.214e5,1254.818,0.06,0.681,0.207,0.346,0.215,0.12,NaN,NaN,NaN,NaN,NaN,NaN,NaN,NaN,3.804e-4,165,213.825,84,0,3.976,14.999,1013.234,340.388,0.01,0.031
1.19,0.168,3.16,36.109,3.177,36.308,0.018,0,0.018,0,0.332,3.795,22.175,120.893,9.788,54.254,0,0,0,2.771e4,1.321e4,19.855,0.105,NaN,2013.959,NaN,0.014,9.67e5,1276.135,0.083,0.678,0.262,0.342,0.215,0.12,NaN,NaN,NaN,NaN,NaN,NaN,NaN,NaN,4.295e-4,165,213.825,84,0,4.013,14.999,1013.23,340.388,0.01,0.031
1.2,0.201,3.526,36.662,3.546,36.864,0.021,0,0.021,0,0.371,3.853,22.175,120.893,9.788,51.209,0,0,0,2.769e4,1.319e4,19.846,0.105,NaN,2013.458,NaN,0.015,1.016e6,1290.479,0.111,0.674,0.316,0.339,0.215,0.12,NaN,NaN,NaN,NaN,NaN,NaN,NaN,NaN,4.793e-4,165,213.825,84,0,4.05,14.999,1013.226,340.388,0.01,0.032
1.21,0.238,3.896,36.968,3.917,37.172,0.025,0,0.025,0,0.409,3.886,22.175,120.893,9.788,48.485,0,0,0,2.767e4,1.317e4,19.837,0.105,NaN,2012.952,NaN,0.016,1.069e6,1297.933,0.143,0.671,0.368,0.336,0.215,0.12,NaN,NaN,NaN,NaN,NaN,NaN,NaN,NaN,5.295e-4,165,213.825,84,0,4.095,14.998,1013.222,340.388,0.01,0.032
1.22,0.279,4.266,37.028,4.289,37.232,0.029,0,0.029,0,0.448,3.892,22.175,120.893,9.788,46.02,0,0,0,2.764e4,1.314e4,19.828,0.105,NaN,2012.446,NaN,0.017,1.125e6,1298.512,0.179,0.667,0.416,0.332,0.215,0.12,NaN,NaN,NaN,NaN,NaN,NaN,NaN,NaN,5.798e-4,165,213.825,84,0,4.139,14.998,1013.217,340.388,0.01,0.032
1.23,0.324,4.636,37.071,4.662,37.275,0.034,0,0.034,0,0.487,3.896,22.175,120.893,9.788,43.788,0,0,0,2.762e4,1.312e4,19.819,0.105,NaN,2011.938,NaN,0.018,1.182e6,1298.633,0.219,0.664,0.46,0.329,0.215,0.12,NaN,NaN,NaN,NaN,NaN,NaN,NaN,NaN,6.302e-4,165,213.825,84,0,4.184,14.998,1013.212,340.388,0.01,0.032
1.24,0.372,5.006,36.977,5.033,37.181,0.039,0,0.039,0,0.526,3.886,22.175,120.893,9.788,41.77,0,0,0,2.76e4,1.31e4,19.81,0.105,NaN,2011.431,NaN,0.019,1.241e6,1294.965,0.262,0.661,0.5,0.326,0.215,0.12,NaN,NaN,NaN,NaN,NaN,NaN,NaN,NaN,6.804e-4,165,213.825,84,0,4.228,14.998,1013.206,340.387,0.01,0.032
1.25,0.424,5.375,36.891,5.404,37.094,0.045,0,0.045,0,0.565,3.877,22.175,120.893,9.788,39.943,0,0,0,2.757e4,1.307e4,19.801,0.105,NaN,2010.925,NaN,0.019,1.302e6,1291.53,0.309,0.658,0.536,0.323,0.215,0.12,NaN,NaN,NaN,NaN,NaN,NaN,NaN,NaN,7.305e-4,165,213.825,84,0,4.273,14.997,1013.2,340.387,0.01,0.033
1.26,0.479,5.742,36.803,5.774,37.006,0.05,0,0.05,0,0.604,3.868,22.175,120.893,9.788,37.632,0,0,0,2.755e4,1.305e4,19.792,0.105,NaN,2010.419,NaN,0.02,1.353e6,1288.052,0.362,0.656,0.582,0.321,0.215,0.12,NaN,NaN,NaN,NaN,NaN,NaN,NaN,NaN,7.805e-4,165,213.825,84,0,4.223,14.997,1013.194,340.387,0.01,0.033
1.27,0.538,6.109,36.691,6.143,36.893,0.057,0,0.057,0,0.642,3.856,22.175,120.893,9.788,35.498,0,0,0,2.753e4,1.303e4,19.783,0.105,NaN,2009.914,NaN,0.021,1.405e6,1283.912,0.419,0.653,0.622,0.318,0.215,0.12,NaN,NaN,NaN,NaN,NaN,NaN,NaN,NaN,8.304e-4,165,213.825,84,0,4.173,14.996,1013.187,340.387,0.01,0.033
1.28,0.601,6.476,36.658,6.511,36.86,0.063,0,0.063,0,0.681,3.853,22.175,120.893,9.788,33.522,0,0,0,2.75e4,1.3e4,19.774,0.105,NaN,2009.409,NaN,0.022,1.46e6,1281.967,0.478,0.651,0.658,0.316,0.215,0.12,NaN,NaN,NaN,NaN,NaN,NaN,NaN,NaN,8.802e-4,165,213.825,84,0,4.123,14.996,1013.179,340.387,0.01,0.033
1.29,0.668,6.841,36.575,6.879,36.776,0.07,0,0.07,0,0.719,3.844,22.175,120.893,9.788,31.694,0,0,0,2.748e4,1.298e4,19.765,0.105,NaN,2008.904,NaN,0.023,1.516e6,1278.651,0.54,0.649,0.689,0.314,0.215,0.12,NaN,NaN,NaN,NaN,NaN,NaN,NaN,NaN,9.299e-4,165,213.825,84,0,4.073,14.996,1013.172,340.386,0.01,0.033
1.3,0.738,7.206,36.533,7.246,36.734,0.078,0,0.078,0,0.757,3.84,22.175,120.893,9.788,29.999,0,0,0,2.746e4,1.296e4,19.756,0.105,NaN,2008.399,NaN,0.024,1.573e6,1276.485,0.604,0.647,0.716,0.311,0.215,0.12,NaN,NaN,NaN,NaN,NaN,NaN,NaN,NaN,9.795e-4,165,213.825,84,0,4.023,14.995,1013.163,340.386,0.01,0.033
1.31,0.812,7.571,36.527,7.613,36.729,0.085,0,0.085,0,0.796,3.839,22.175,120.893,9.788,29.01,0,0,0,2.743e4,1.293e4,19.747,0.105,NaN,2007.894,NaN,0.025,1.64e6,1275.318,0.668,0.644,0.73,0.309,0.215,0.12,NaN,NaN,NaN,NaN,NaN,NaN,NaN,NaN,0.001,165,213.825,84,0,4.066,14.995,1013.155,340.386,0.01,0.034
1.32,0.89,7.936,36.499,7.98,36.7,0.094,0,0.094,0,0.834,3.836,22.175,120.893,9.788,28.099,0,0,0,2.741e4,1.291e4,19.738,0.105,NaN,2007.388,NaN,0.026,1.706e6,1273.528,0.735,0.642,0.741,0.307,0.215,0.12,NaN,NaN,NaN,NaN,NaN,NaN,NaN,NaN,0.001,165,213.825,84,0,4.11,14.994,1013.146,340.385,0.01,0.034
1.33,0.971,8.301,36.549,8.347,36.75,0.102,0,0.102,0,0.873,3.841,22.175,120.893,9.788,27.255,0,0,0,2.739e4,1.289e4,19.729,0.105,NaN,2006.882,NaN,0.027,1.774e6,1273.891,0.804,0.64,0.751,0.304,0.215,0.12,NaN,NaN,NaN,NaN,NaN,NaN,NaN,NaN,0.001,165,213.825,84,0,4.153,14.994,1013.136,340.385,0.01,0.034
1.34,1.056,8.667,36.526,8.714,36.727,0.111,0,0.111,0,0.911,3.839,22.175,120.893,9.788,26.474,0,0,0,2.736e4,1.286e4,19.72,0.105,NaN,2006.376,NaN,0.028,1.841e6,1272.247,0.876,0.638,0.759,0.302,0.215,0.12,NaN,NaN,NaN,NaN,NaN,NaN,NaN,NaN,0.001,165,213.825,84,0,4.197,14.993,1013.126,340.385,0.01,0.034
1.35,1.144,9.032,36.535,9.081,36.737,0.12,0,0.12,0,0.949,3.84,22.175,120.893,9.788,25.748,0,0,0,2.734e4,1.284e4,19.711,0.105,NaN,2005.868,NaN,0.029,1.909e6,1271.517,0.951,0.636,0.766,0.3,0.215,0.12,NaN,NaN,NaN,NaN,NaN,NaN,NaN,NaN,0.001,165,213.825,84,0,4.24,14.993,1013.116,340.384,0.01,0.034
1.36,1.236,9.397,36.572,9.449,36.774,0.13,0,0.13,0,0.988,3.844,22.175,120.893,9.788,24.413,0,0,0,2.732e4,1.282e4,19.702,0.105,NaN,2005.361,NaN,0.029,1.969e6,1271.539,1.029,0.634,0.78,0.299,0.215,0.12,NaN,NaN,NaN,NaN,NaN,NaN,NaN,NaN,0.001,165,213.825,84,0,4.161,14.992,1013.105,340.384,0.01,0.035
1.37,1.332,9.763,36.588,9.817,36.79,0.14,0,0.14,0,1.026,3.846,22.175,120.893,9.788,23.156,0,0,0,2.729e4,1.279e4,19.693,0.105,NaN,2004.852,NaN,0.03,2.029e6,1270.983,1.109,0.632,0.791,0.297,0.215,0.12,NaN,NaN,NaN,NaN,NaN,NaN,NaN,NaN,0.001,165,213.825,84,0,4.081,14.991,1013.094,340.384,0.01,0.035
1.38,1.432,10.13,36.704,10.186,36.907,0.15,0,0.15,0,1.065,3.858,22.175,120.893,9.788,21.971,0,0,0,2.727e4,1.277e4,19.684,0.105,NaN,2004.342,NaN,0.031,2.091e6,1273.167,1.19,0.631,0.799,0.295,0.215,0.12,NaN,NaN,NaN,NaN,NaN,NaN,NaN,NaN,0.001,165,213.825,84,0,4.001,14.991,1013.082,340.383,0.01,0.035
1.39,1.535,10.497,36.745,10.555,36.947,0.161,0,0.161,0,1.103,3.862,22.175,120.893,9.788,20.854,0,0,0,2.725e4,1.275e4,19.675,0.105,NaN,2003.83,NaN,0.032,2.154e6,1273.278,1.272,0.629,0.805,0.294,0.215,0.12,NaN,NaN,NaN,NaN,NaN,NaN,NaN,NaN,0.001,165,213.825,84,0,3.921,14.99,1013.07,340.383,0.01,0.035
1.4,1.642,10.865,36.832,10.925,37.035,0.173,0,0.173,0,1.142,3.871,22.175,120.893,9.788,19.799,0,0,0,2.723e4,1.273e4,19.666,0.105,NaN,2003.318,NaN,0.033,2.218e6,1274.663,1.355,0.627,0.809,0.292,0.215,0.12,NaN,NaN,NaN,NaN,NaN,NaN,NaN,NaN,0.001,165,213.825,84,0,3.841,14.989,1013.057,340.382,0.01,0.035
1.41,1.752,11.234,36.939,11.296,37.142,0.184,0,0.184,0,1.181,3.882,22.175,120.893,9.788,19.349,0,0,0,2.72e4,1.27e4,19.657,0.105,NaN,2002.803,NaN,0.034,2.288e6,1276.588,1.442,0.626,0.809,0.29,0.215,0.12,NaN,NaN,NaN,NaN,NaN,NaN,NaN,NaN,0.002,165,213.825,84,0,3.877,14.989,1013.045,340.382,0.01,0.035
1.42,1.866,11.604,37.007,11.668,37.21,0.196,0,0.196,0,1.22,3.89,22.175,120.893,9.788,18.925,0,0,0,2.718e4,1.268e4,19.648,0.105,NaN,2002.288,NaN,0.035,2.359e6,1277.444,1.531,0.624,0.808,0.289,0.215,0.12,NaN,NaN,NaN,NaN,NaN,NaN,NaN,NaN,0.002,165,213.825,84,0,3.912,14.988,1013.031,340.382,0.01,0.036
1.43,1.984,11.976,37.142,12.041,37.347,0.209,0,0.209,0,1.259,3.904,22.175,120.893,9.788,18.524,0,0,0,2.716e4,1.266e4,19.639,0.105,NaN,2001.77,NaN,0.036,2.43e6,1280.14,1.625,0.623,0.808,0.288,0.215,0.12,NaN,NaN,NaN,NaN,NaN,NaN,NaN,NaN,0.002,165,213.825,84,0,3.948,14.987,1013.017,340.381,0.01,0.036
1.44,2.106,12.347,37.198,12.415,37.403,0.221,0,0.221,0,1.298,3.91,22.175,120.893,9.788,18.144,0,0,0,2.713e4,1.263e4,19.629,0.105,NaN,2001.252,NaN,0.037,2.501e6,1280.681,1.724,0.623,0.809,0.288,0.215,0.12,NaN,NaN,NaN,NaN,NaN,NaN,NaN,NaN,0.002,165,213.825,84,0,3.983,14.986,1013.003,340.381,0.01,0.036
1.45,2.231,12.72,37.307,12.79,37.513,0.234,0,0.234,0,1.337,3.921,22.175,120.893,9.788,17.785,0,0,0,2.711e4,1.261e4,19.62,0.105,NaN,2000.731,NaN,0.039,2.573e6,1282.653,1.825,0.623,0.81,0.288,0.215,0.12,NaN,NaN,NaN,NaN,NaN,NaN,NaN,NaN,0.002,165,213.825,84,0,4.018,14.985,1012.988,340.38,0.01,0.036
1.46,2.36,13.094,37.425,13.166,37.631,0.248,0,0.248,0,1.376,3.934,22.175,120.893,9.788,17.131,0,0,0,2.709e4,1.259e4,19.611,0.104,NaN,2000.209,NaN,0.04,2.641e6,1284.861,1.925,0.623,0.81,0.288,0.215,0.12,NaN,NaN,NaN,NaN,NaN,NaN,NaN,NaN,0.002,165,213.825,84,0,3.978,14.985,1012.973,340.38,0.01,0.036
1.47,2.493,13.469,37.478,13.543,37.684,0.262,0,0.262,0,1.416,3.939,22.175,120.893,9.788,16.509,0,0,0,2.706e4,1.256e4,19.602,0.104,NaN,1999.686,NaN,0.041,2.71e6,1285.292,2.026,0.623,0.81,0.288,0.215,0.12,NaN,NaN,NaN,NaN,NaN,NaN,NaN,NaN,0.002,165,213.825,84,0,3.939,14.984,1012.958,340.379,0.01,0.036
1.48,2.63,13.845,37.6,13.921,37.807,0.276,0,0.276,0,1.455,3.952,22.175,120.893,9.788,15.917,0,0,0,2.704e4,1.254e4,19.592,0.104,NaN,1999.161,NaN,0.042,2.78e6,1287.587,2.126,0.623,0.808,0.288,0.215,0.12,NaN,NaN,NaN,NaN,NaN,NaN,NaN,NaN,0.002,165,213.825,84,0,3.899,14.983,1012.942,340.379,0.01,0.037
1.49,2.77,14.221,37.646,14.299,37.853,0.291,0,0.291,0,1.495,3.957,22.175,120.893,9.788,15.354,0,0,0,2.702e4,1.252e4,19.583,0.104,NaN,1998.635,NaN,0.043,2.85e6,1287.832,2.227,0.623,0.805,0.288,0.215,0.12,NaN,NaN,NaN,NaN,NaN,NaN,NaN,NaN,0.002,165,213.825,84,0,3.859,14.982,1012.925,340.378,0.01,0.037
1.5,2.914,14.598,37.716,14.678,37.924,0.306,0,0.306,0,1.534,3.964,22.175,120.893,9.788,14.817,0,0,0,2.699e4,1.249e4,19.574,0.104,NaN,1998.108,NaN,0.044,2.92e6,1288.735,2.328,0.623,0.802,0.288,0.215,0.12,NaN,NaN,NaN,NaN,NaN,NaN,NaN,NaN,0.002,165,213.825,84,0,3.819,14.981,1012.908,340.377,0.01,0.037
1.51,3.062,14.976,37.799,15.058,38.007,0.322,0,0.322,0,1.574,3.973,22.175,120.893,9.788,14.419,0,0,0,2.697e4,1.247e4,19.564,0.104,NaN,1997.579,NaN,0.045,2.992e6,1289.948,2.434,0.623,0.799,0.288,0.215,0.12,NaN,NaN,NaN,NaN,NaN,NaN,NaN,NaN,0.002,165,213.825,84,0,3.81,14.98,1012.891,340.377,0.01,0.037
1.52,3.213,15.354,37.815,15.438,38.023,0.338,0,0.338,0,1.614,3.974,22.175,120.893,9.788,14.039,0,0,0,2.695e4,1.244e4,19.555,0.104,NaN,1997.049,NaN,0.046,3.063e6,1289.376,2.542,0.623,0.795,0.288,0.215,0.12,NaN,NaN,NaN,NaN,NaN,NaN,NaN,NaN,0.002,165,213.825,84,0,3.801,14.979,1012.873,340.376,0.01,0.037
1.53,3.369,15.733,37.955,15.82,38.164,0.354,0,0.354,0,1.654,3.989,22.175,120.893,9.788,13.675,0,0,0,2.692e4,1.242e4,19.546,0.104,NaN,1996.518,NaN,0.047,3.136e6,1292.164,2.651,0.623,0.792,0.288,0.215,0.12,NaN,NaN,NaN,NaN,NaN,NaN,NaN,NaN,0.002,165,213.825,84,0,3.791,14.978,1012.855,340.376,0.01,0.038
1.54,3.528,16.113,38.025,16.202,38.235,0.371,0,0.371,0,1.694,3.997,22.175,120.893,9.788,13.328,0,0,0,2.69e4,1.24e4,19.536,0.104,NaN,1995.985,NaN,0.048,3.208e6,1293.051,2.762,0.623,0.788,0.288,0.215,0.12,NaN,NaN,NaN,NaN,NaN,NaN,NaN,NaN,0.002,165,213.825,84,0,3.782,14.977,1012.836,340.375,0.01,0.038
1.55,3.691,16.494,38.131,16.585,38.341,0.388,0,0.388,0,1.734,4.008,22.175,120.893,9.788,12.995,0,0,0,2.687e4,1.237e4,19.527,0.104,NaN,1995.451,NaN,0.049,3.281e6,1294.89,2.875,0.623,0.784,0.288,0.215,0.12,NaN,NaN,NaN,NaN,NaN,NaN,NaN,NaN,0.002,165,213.825,84,0,3.773,14.976,1012.817,340.374,0.01,0.038
1.56,3.858,16.877,38.256,16.97,38.467,0.405,0,0.405,0,1.774,4.021,22.175,120.893,9.788,12.638,0,0,0,2.685e4,1.235e4,19.517,0.104,NaN,1994.914,NaN,0.05,3.354e6,1297.251,2.988,0.623,0.78,0.288,0.215,0.12,NaN,NaN,NaN,NaN,NaN,NaN,NaN,NaN,0.002,165,213.825,84,0,3.753,14.975,1012.798,340.374,0.01,0.038
1.57,4.029,17.259,38.277,17.354,38.488,0.423,0,0.423,0,1.814,4.023,22.175,120.893,9.788,12.297,0,0,0,2.683e4,1.233e4,19.508,0.104,NaN,1994.377,NaN,0.051,3.427e6,1296.778,3.102,0.623,0.775,0.288,0.215,0.12,NaN,NaN,NaN,NaN,NaN,NaN,NaN,NaN,0.002,165,213.825,84,0,3.733,14.974,1012.778,340.373,0.01,0.038
1.585,4.292,17.833,38.26,17.933,38.641,0.451,-3.93e-5,0.451,-0.005,1.895,5.408,22.175,120.893,9.788,11.754,0,0.034,-3.825e-5,2.679e4,1.229e4,19.493,0.104,2055.76,1993.568,0.377,0.053,3.536e6,1298.654,3.272,0.624,0.768,0.288,0.215,0.12,3.108,1.172,-2.655e-4,0,0,0,0,4.085e-6,0.002,165,213.825,84,0.002,3.703,14.972,1012.747,340.372,0.015,0.038
1.608,4.703,18.697,38.463,18.806,38.845,0.495,-2.465e-4,0.495,-0.029,2.017,5.432,22.175,120.893,9.788,11.037,0,0.094,-3.131e-4,2.674e4,1.224e4,19.472,0.104,2065.023,1992.348,0.44,0.055,3.702e6,1301.804,3.537,0.624,0.758,0.288,0.215,0.12,2.866,1.262,-3.26e-4,0,0,0,0,2.82e-5,0.003,165,213.825,84.001,0.011,3.671,14.969,1012.698,340.37,0.023,0.039
1.641,5.356,20.004,38.801,20.125,39.185,0.566,-8.97e-4,0.566,-0.091,2.201,5.474,22.175,120.893,9.788,10.182,0,0.201,-0.001,2.666e4,1.216e4,19.439,0.104,2076.609,1990.501,0.522,0.059,3.954e6,1307.398,3.966,0.624,0.745,0.288,0.215,0.12,2.586,1.349,-1.935e-5,0,0,0,0,1.138e-4,0.003,165,213.825,84.005,0.045,3.665,14.965,1012.622,340.368,0.034,0.039
1.691,6.405,21.96,39.226,22.099,39.611,0.683,-0.003,0.683,-0.22,2.476,5.509,22.175,120.893,9.788,8.866,0,0.399,-0.005,2.654e4,1.204e4,19.39,0.104,2095.697,1987.731,0.654,0.065,4.332e6,1313.533,4.624,0.624,0.723,0.288,0.215,0.121,2.172,1.421,2.59e-4,0,0,0,0,3.748e-4,0.003,165,213.825,84.015,0.147,3.571,14.958,1012.499,340.364,0.05,0.039
1.741,7.553,23.945,39.798,24.103,40.192,0.814,-0.005,0.814,-0.373,2.754,5.613,22.175,120.893,9.788,8.697,0,0.644,-0.009,2.642e4,1.192e4,19.34,0.104,2098.286,1984.915,0.687,0.071,4.723e6,1323.765,5.477,0.624,0.721,0.288,0.216,0.121,2.121,1.457,9.531e-5,0,0,0,0,8.206e-4,0.003,165,213.825,84.033,0.327,3.883,14.951,1012.364,340.359,0.05,0.039
1.791,8.8,25.962,40.43,26.139,40.825,0.959,-0.009,0.959,-0.537,3.037,5.664,22.175,120.893,9.788,7.833,0,0.94,-0.017,2.63e4,1.18e4,19.29,0.103,2111.866,1982.048,0.787,0.077,5.115e6,1335.184,6.299,0.624,0.707,0.288,0.216,0.121,1.865,1.465,-4.914e-4,0,0,0,0,0.001,0.004,165,213.825,84.06,0.604,3.879,14.943,1012.218,340.354,0.05,0.039
1.841,10.149,28.012,41.109,28.208,41.504,1.118,-0.014,1.118,-0.702,3.322,5.706,22.175,120.893,9.788,7.062,0,1.284,-0.029,2.617e4,1.167e4,19.238,0.103,2124.623,1979.127,0.882,0.083,5.515e6,1347.677,7.195,0.624,0.694,0.288,0.216,0.121,1.644,1.447,3.663e-4,0,0,0,0,0.002,0.004,165,213.825,84.097,1.001,3.873,14.934,1012.06,340.349,0.05,0.04
1.891,11.602,30.103,41.921,30.319,42.314,1.291,-0.019,1.291,-0.861,3.61,5.755,22.175,120.893,9.788,6.458,0,1.677,-0.045,2.605e4,1.155e4,19.185,0.103,2135.093,1976.143,0.963,0.089,5.924e6,1363.475,8.19,0.624,0.685,0.288,0.216,0.121,1.477,1.419,-3.085e-4,0,0,0,0,0.004,0.004,165,213.825,84.146,1.541,3.916,14.925,1011.889,340.343,0.05,0.04
1.941,13.161,32.227,42.593,32.462,42.981,1.479,-0.026,1.479,-1.008,3.9,5.766,22.175,120.893,9.788,5.852,0,2.118,-0.067,2.593e4,1.143e4,19.132,0.103,2146.033,1973.105,1.048,0.095,6.339e6,1375.364,9.256,0.625,0.676,0.288,0.216,0.121,1.314,1.372,3.663e-5,0,0,0,0,0.005,0.004,165,213.825,84.208,2.25,3.932,14.914,1011.706,340.337,0.05,0.04
1.991,14.826,34.389,43.356,34.643,43.737,1.681,-0.033,1.681,-1.139,4.189,5.762,22.175,120.893,9.788,5.255,0,2.602,-0.097,2.58e4,1.13e4,19.077,0.103,2157.261,1970.006,1.135,0.101,6.762e6,1389.417,10.402,0.625,0.668,0.288,0.216,0.121,1.158,1.307,3.495e-4,0,0,0,0,0.007,0.005,165,213.825,84.282,3.16,3.927,14.904,1011.511,340.331,0.05,0.04
2.041,16.601,36.602,44.373,36.875,44.743,1.897,-0.041,1.898,-1.251,4.479,5.746,22.175,120.893,9.788,4.567,-3.013e-7,3.12,-0.146,2.567e4,1.117e4,19.021,0.102,2170.754,1966.831,1.236,0.108,7.195e6,1409.711,11.618,0.625,0.658,0.288,0.216,0.122,0.985,1.209,7.881e-6,0,0,0,0,0.008,0.005,165,213.825,84.37,4.302,3.841,14.892,1011.303,340.324,0.05,0.041
2.091,18.487,38.86,45.269,39.151,45.63,2.128,-0.05,2.129,-1.339,4.768,5.733,22.175,120.893,9.788,4.219,-3.737e-7,3.667,-0.183,2.554e4,1.104e4,18.964,0.102,2177.854,1963.584,1.299,0.115,7.638e6,1426.753,13.01,0.625,0.654,0.287,0.216,0.122,0.9,1.158,-5.214e-5,0,0,0,0,0.01,0.005,165,213.825,84.47,5.71,3.958,14.88,1011.082,340.316,0.05,0.041
2.141,20.487,41.148,45.892,41.457,46.239,2.374,-0.058,2.374,-1.402,5.053,5.659,22.175,120.893,9.788,3.797,-7.096e-7,4.256,-0.238,2.541e4,1.091e4,18.906,0.102,2186.708,1960.282,1.372,0.121,8.086e6,1436.554,14.479,0.626,0.65,0.287,0.216,0.122,0.799,1.084,6.236e-5,0,0,0,0,0.012,0.006,165,213.825,84.582,7.43,4.022,14.867,1010.847,340.308,0.05,0.041
2.191,22.603,43.472,46.605,43.798,46.934,2.633,-0.066,2.634,-1.438,5.334,5.552,22.175,120.893,9.788,3.247,-5.833e-7,4.857,-0.337,2.528e4,1.078e4,18.847,0.102,2198.602,1956.918,1.465,0.128,8.541e6,1448.404,16.017,0.626,0.644,0.287,0.216,0.122,0.671,0.968,2.95e-4,0,0,0,0,0.014,0.006,165,213.825,84.702,9.507,3.982,14.853,1010.599,340.3,0.05,0.041
2.241,24.835,45.834,47.361,46.176,47.671,2.907,-0.073,2.908,-1.444,5.608,5.428,22.175,120.893,9.788,2.705,-8.288e-7,5.441,-0.481,2.515e4,1.065e4,18.787,0.102,2210.792,1953.489,1.559,0.135,9.004e6,1461.178,17.667,0.626,0.639,0.287,0.217,0.122,0.549,0.84,1.054e-4,0,0,0,0,0.016,0.006,165,213.825,84.827,11.982,3.933,14.839,1010.337,340.291,0.05,0.042
2.291,27.187,48.222,47.897,48.579,48.187,3.194,-0.079,3.195,-1.417,5.873,5.279,22.175,120.893,9.788,2.219,-2.297e-6,5.99,-0.674,2.501e4,1.051e4,18.726,0.101,2222.162,1950.006,1.649,0.142,9.472e6,1468.288,19.442,0.627,0.635,0.287,0.217,0.123,0.443,0.713,2.32e-4,0,0,0,0,0.018,0.007,165,213.825,84.953,14.886,3.914,14.823,1010.061,340.282,0.05,0.042
2.341,29.658,50.616,48,50.986,48.272,3.494,-0.083,3.495,-1.354,6.127,5.117,22.175,120.893,9.788,1.919,-2.446e-6,6.514,-0.819,2.488e4,1.038e4,18.664,0.101,2229.416,1946.495,1.715,0.149,9.94e6,1464.702,21.358,0.627,0.634,0.287,0.217,0.123,0.379,0.631,-7.291e-5,0,0,0,0,0.019,0.007,165,213.825,85.072,18.241,4.053,14.807,1009.772,340.272,0.05,0.042
2.391,32.248,53.014,48.078,53.395,48.332,3.806,-0.083,3.807,-1.255,6.37,4.954,22.175,120.893,9.788,1.573,-1.585e-6,7.003,-1.067,2.475e4,1.025e4,18.602,0.101,2237.976,1942.956,1.788,0.156,1.041e7,1460.577,23.361,0.627,0.632,0.287,0.217,0.123,0.307,0.529,9.148e-5,0,0,0,0,0.02,0.007,165,213.825,85.177,22.063,4.154,14.79,1009.468,340.262,0.05,0.042
2.441,34.959,55.418,48.204,55.81,48.441,4.131,-0.081,4.131,-1.117,6.6,4.786,22.175,120.893,9.788,1.004,-3.404e-6,7.241,-1.996,2.461e4,1.011e4,18.539,0.101,2252.44,1939.385,1.897,0.163,1.088e7,1457.734,25.434,0.628,0.63,0.287,0.217,0.123,0.192,0.345,-1.692e-5,0,0,0,0,0.019,0.008,165,213.825,85.261,26.329,4.021,14.773,1009.15,340.251,0.05,0.042
2.491,37.79,57.808,47.906,58.208,48.129,4.466,-0.073,4.466,-0.938,6.813,4.634,22.175,120.893,9.788,0.496,-6.312e-6,6.149,-4.729,2.448e4,9982.7,18.477,0.101,2265.919,1935.809,2.001,0.171,1.135e7,1444.705,27.627,0.628,0.629,0.287,0.217,0.124,0.093,0.174,4.26e-4,0,0,0,0,0.013,0.008,165,213.825,85.316,30.938,3.869,14.754,1008.818,340.24,0.05,0.043
2.541,40.74,60.196,47.864,60.603,48.083,4.811,-0.06,4.812,-0.716,7.011,4.59,22.175,120.893,9.788,0.322,-6.372e-6,2.965,-7.273,2.435e4,9851.919,18.414,0.1,2270.726,1932.21,2.052,0.178,1.181e7,1438.362,29.956,0.629,0.629,0.287,0.218,0.124,0.06,0.121,-3.043e-4,0,0,0,0,0.003,0.008,165,213.825,85.334,35.728,4.006,14.735,1008.472,340.228,0.05,0.043
2.591,43.809,62.575,47.692,62.988,47.912,5.166,-0.04,5.166,-0.449,7.197,4.592,22.175,120.893,9.788,0.449,-3.489e-6,-5.34,-5.714,2.422e4,9721.977,18.351,0.1,2267.43,1928.595,2.054,0.185,1.228e7,1429.136,32.398,0.629,0.63,0.287,0.218,0.124,0.084,0.182,-4.941e-4,0,0,0,0,-0.008,0.008,165,213.825,85.312,40.538,3.952,14.715,1008.112,340.216,0.05,0.043
2.641,46.997,64.969,47.977,65.386,48.207,5.529,-0.013,5.529,-0.136,7.373,4.705,22.175,120.893,9.788,0.516,-4.145e-6,-6.115,-4.5,2.409e4,9591.843,18.287,0.1,2265.771,1924.936,2.066,0.192,1.274e7,1431.244,34.946,0.63,0.63,0.287,0.218,0.125,0.097,0.211,-2.263e-4,0,0,0,0,-0.01,0.009,165,213.825,85.251,45.167,4.228,14.695,1007.738,340.204,0.05,0.043
2.691,50.306,67.372,48.147,67.792,48.394,5.9,0.023,5.9,0.223,7.54,4.889,22.175,120.893,9.788,0.98,-8.831e-6,-6.67,-2.782,2.396e4,9461.748,18.222,0.1,2253.732,1921.238,2.015,0.199,1.321e7,1430.823,37.679,0.63,0.632,0.287,0.218,0.125,0.187,0.389,8.716e-5,0,0,0,0,-0.011,0.009,165,213.825,85.155,49.461,4.024,14.673,1007.35,340.191,0.05,0.043
2.741,53.735,69.79,48.461,70.214,48.732,6.279,0.069,6.279,0.631,7.699,5.128,22.175,120.893,9.788,1.154,-1.119e-5,-6.15,-2.29,2.383e4,9331.363,18.157,0.1,2249.428,1917.492,2.012,0.206,1.368e7,1433.995,40.498,0.631,0.633,0.287,0.218,0.126,0.222,0.456,5.275e-5,0,0,0,0,-0.009,0.009,165,213.825,85.033,53.236,4.129,14.651,1006.948,340.177,0.05,0.044
2.791,57.285,72.233,48.947,72.659,49.249,6.663,0.126,6.664,1.086,7.854,5.446,22.175,120.893,9.788,1.467,-1.002e-5,-5.405,-1.95,2.37e4,9200.305,18.091,0.099,2241.708,1913.685,1.988,0.213,1.416e7,1441.415,43.512,0.631,0.635,0.287,0.219,0.126,0.286,0.574,-5.213e-5,0,0,0,0,-0.006,0.01,165,213.825,84.895,56.379,4.004,14.628,1006.531,340.163,0.05,0.044
2.841,60.959,74.697,49.372,75.125,49.705,7.053,0.196,7.056,1.591,8.008,5.744,22.175,120.893,9.788,1.57,-1.298e-5,-4.348,-1.76,2.357e4,9068.707,18.023,0.099,2239.306,1909.819,1.997,0.22,1.464e7,1447.346,46.602,0.632,0.636,0.286,0.219,0.126,0.307,0.617,3.538e-4,0,0,0,0,-0.004,0.01,165,213.825,84.753,58.81,4.064,14.604,1006.101,340.149,0.05,0.044
2.891,64.755,77.161,49.363,77.592,49.728,7.449,0.279,7.454,2.144,8.165,6.012,22.175,120.893,9.787,1.717,-1.419e-5,-3.125,-1.644,2.344e4,8937.495,17.955,0.099,2235.877,1905.922,2,0.228,1.512e7,1443.113,49.828,0.632,0.638,0.286,0.219,0.127,0.338,0.678,-3.048e-4,0,0,0,0,-0.002,0.01,165,213.825,84.619,60.499,3.982,14.579,1005.655,340.134,0.05,0.044
2.941,68.675,79.617,49.193,80.051,49.589,7.85,0.376,7.859,2.742,8.325,6.255,22.175,120.893,9.787,1.878,-1.546e-5,-1.645,-1.59,2.331e4,8806.998,17.887,0.099,2232.15,1902.002,2.001,0.235,1.56e7,1435.232,53.172,0.633,0.639,0.286,0.22,0.127,0.372,0.744,-1.375e-4,0,0,0,0,-4.865e-4,0.011,165,213.825,84.504,61.417,3.771,14.554,1005.196,340.118,0.05,0.044
2.991,72.717,82.086,49.478,82.525,49.89,8.255,0.488,8.269,3.382,8.496,6.4,22.175,120.893,9.787,1.746,-1.819e-5,-0.02,-1.568,2.318e4,8676.274,17.818,0.099,2235.528,1898.031,2.045,0.242,1.608e7,1437.734,56.488,0.634,0.639,0.286,0.22,0.128,0.344,0.704,3.414e-4,0,0,0,0,-6.486e-8,0.011,165,213.825,84.416,61.527,3.854,14.527,1004.722,340.102,0.05,0.045
3.041,76.884,84.582,50.007,85.026,50.423,8.665,0.615,8.687,4.061,8.683,6.463,22.175,120.893,9.787,1.474,-2.133e-5,1.506,-1.598,2.305e4,8544.831,17.748,0.098,2242.427,1893.993,2.112,0.25,1.656e7,1445.651,59.873,0.634,0.638,0.286,0.22,0.128,0.288,0.608,-4.726e-4,0,0,0,0,3.612e-4,0.011,165,213.825,84.358,60.861,4.047,14.5,1004.233,340.086,0.05,0.045
