# Time (s),Altitude (m),Vertical velocity (m/s),Vertical acceleration (m/s²),Total velocity (m/s),Total acceleration (m/s²),Position East of launch (m),Position North of launch (m),Lateral distance (m),Lateral direction (°),Lateral velocity (m/s),Lateral acceleration (m/s²),Latitude (°),Longitude (°),Gravitational acceleration (m/s²),Angle of attack (°),Roll rate (°/s),Pitch rate (°/s),Yaw rate (°/s),Mass (g),Motor mass (g),Longitudinal moment of inertia (kg·m²),Rotational moment of inertia (kg·m²),CP location (mm),CG location (mm),Stability margin calibers (​),Mach number (​),Reynolds number (​),Thrust (N),Drag force (N),Drag coefficient (​),Axial drag coefficient (​),Friction drag coefficient (​),Pressure drag coefficient (​),Base drag coefficient (​),Normal force coefficient (​),Pitch moment coefficient (​),Yaw moment coefficient (​),Side force coefficient (​),Roll moment coefficient (​),Roll forcing coefficient (​),Roll damping coefficient (​),Pitch damping coefficient (​),Coriolis acceleration (m/s²),Reference length (mm),Reference area (cm²),Vertical orientation (zenith) (°),Lateral orientation (azimuth) (°),Wind velocity (m/s),Air temperature (°C),Air pressure (mbar),Speed of sound (m/s),Simulation time step (s),Computation time (s)
0.01,-4.664e-4,-0.093,-9.324,0.095,9.468,-8.224e-5,0,8.224e-5,180,0.016,1.644,22.175,120.893,9.788,97.872,0,0,0,2.8e4,1.35e4,19.963,0.106,NaN,2019.994,NaN,0.019,1.289e6,4.784,-0.002,0.659,-0.004,0.324,0.215,0.12,NaN,NaN,NaN,NaN,NaN,NaN,NaN,NaN,1.282e-5,165,213.825,80,0,6.559,15,1013.25,340.389,0.01,0.001
0.02,-4.668e-4,-0.093,-9.336,0.095,9.48,-8.231e-5,0,8.231e-5,180,0.016,1.646,22.175,120.893,9.788,97.867,0,0,0,2.8e4,1.35e4,19.963,0.106,NaN,2019.992,NaN,0.019,1.299e6,4.461,-0.002,0.658,-0.004,0.323,0.215,0.12,NaN,NaN,NaN,NaN,NaN,NaN,NaN,NaN,1.283e-5,165,213.825,80,0,6.611,15,1013.25,340.389,0.01,0.001
0.03,-4.67e-4,-0.093,-9.34,0.095,9.484,-8.234e-5,0,8.234e-5,180,0.016,1.647,22.175,120.893,9.788,97.861,0,0,0,2.8e4,1.35e4,19.963,0.106,NaN,2019.991,NaN,0.02,1.309e6,4.343,-0.002,0.658,-0.004,0.323,0.215,0.12,NaN,NaN,NaN,NaN,NaN,NaN,NaN,NaN,1.284e-5,165,213.825,80,0,6.663,15,1013.25,340.389,0.01,0.002
0.04,-4.672e-4,-0.093,-9.343,0.095,9.487,-8.237e-5,0,8.237e-5,180,0.016,1.647,22.175,120.893,9.788,97.855,0,0,0,2.8e4,1.35e4,19.963,0.106,NaN,2019.989,NaN,0.02,1.319e6,4.249,-0.002,0.657,-0.004,0.322,0.215,0.12,NaN,NaN,NaN,NaN,NaN,NaN,NaN,NaN,1.284e-5,165,213.825,80,0,6.714,15,1013.25,340.389,0.01,0.002
0.05,-4.668e-4,-0.093,-9.336,0.095,9.48,-8.231e-5,0,8.231e-5,180,0.016,1.646,22.175,120.893,9.788,97.848,0,0,0,2.8e4,1.35e4,19.963,0.106,NaN,2019.988,NaN,0.02,1.329e6,4.443,-0.002,0.657,-0.004,0.322,0.215,0.12,NaN,NaN,NaN,NaN,NaN,NaN,NaN,NaN,1.284e-5,165,213.825,80,0,6.766,15,1013.25,340.389,0.01,0.002
0.06,-4.664e-4,-0.093,-9.328,0.095,9.472,-8.224e-5,0,8.224e-5,180,0.016,1.645,22.175,120.893,9.788,97.851,0,0,0,2.8e4,1.35e4,19.963,0.106,NaN,2019.986,NaN,0.02,1.324e6,4.681,-0.002,0.657,-0.004,0.322,0.215,0.12,NaN,NaN,NaN,NaN,NaN,NaN,NaN,NaN,1.282e-5,165,213.825,80,0,6.741,15,1013.25,340.389,0.01,0.002
0.07,-4.668e-4,-0.093,-9.336,0.095,9.48,-8.231e-5,0,8.231e-5,180,0.016,1.646,22.175,120.893,9.788,97.854,0,0,0,2.8e4,1.35e4,19.963,0.106,NaN,2019.984,NaN,0.02,1.319e6,4.438,-0.002,0.657,-0.004,0.322,0.215,0.12,NaN,NaN,NaN,NaN,NaN,NaN,NaN,NaN,1.284e-5,165,213.825,80,0,6.716,15,1013.25,340.389,0.01,0.002
0.08,-4.667e-4,-0.093,-9.335,0.095,9.479,-8.23e-5,0,8.23e-5,180,0.016,1.646,22.175,120.893,9.788,97.857,0,0,0,2.8e4,1.35e4,19.963,0.106,NaN,2019.982,NaN,0.02,1.314e6,4.479,-0.002,0.658,-0.004,0.322,0.215,0.12,NaN,NaN,NaN,NaN,NaN,NaN,NaN,NaN,1.283e-5,165,213.825,80,0,6.69,15,1013.25,340.389,0.01,0.003
0.09,-4.665e-4,-0.093,-9.331,0.095,9.475,-8.226e-5,0,8.226e-5,180,0.016,1.645,22.175,120.893,9.788,97.86,0,0,0,2.8e4,1.35e4,19.963,0.106,NaN,2019.981,NaN,0.02,1.31e6,4.603,-0.002,0.658,-0.004,0.323,0.215,0.12,NaN,NaN,NaN,NaN,NaN,NaN,NaN,NaN,1.283e-5,165,213.825,80,0,6.665,15,1013.25,340.389,0.01,0.003
0.1,-4.67e-4,-0.093,-9.341,0.095,9.485,-8.235e-5,0,8.235e-5,180,0.016,1.647,22.175,120.893,9.788,97.864,0,0,0,2.8e4,1.35e4,19.963,0.106,NaN,2019.979,NaN,0.02,1.305e6,4.315,-0.002,0.658,-0.004,0.323,0.215,0.12,NaN,NaN,NaN,NaN,NaN,NaN,NaN,NaN,1.284e-5,165,213.825,80,0,6.64,15,1013.25,340.389,0.01,0.003
0.11,-4.668e-4,-0.093,-9.337,0.095,9.481,-8.231e-5,0,8.231e-5,180,0.016,1.646,22.175,120.893,9.788,97.857,0,0,0,2.8e4,1.35e4,19.963,0.106,NaN,2019.977,NaN,0.02,1.316e6,4.431,-0.002,0.658,-0.004,0.322,0.215,0.12,NaN,NaN,NaN,NaN,NaN,NaN,NaN,NaN,1.284e-5,165,213.825,80,0,6.696,15,1013.25,340.389,0.01,0.003
0.12,-4.668e-4,-0.093,-9.336,0.095,9.48,-8.231e-5,0,8.231e-5,180,0.016,1.646,22.175,120.893,9.788,97.85,0,0,0,2.8e4,1.35e4,19.962,0.106,NaN,2019.976,NaN,0.02,1.327e6,4.436,-0.002,0.657,-0.004,0.322,0.215,0.12,NaN,NaN,NaN,NaN,NaN,NaN,NaN,NaN,1.284e-5,165,213.825,80,0,6.752,15,1013.25,340.389,0.01,0.003
0.13,-4.665e-4,-0.093,-9.33,0.095,9.474,-8.226e-5,0,8.226e-5,180,0.016,1.645,22.175,120.893,9.788,97.843,0,0,0,2.8e4,1.35e4,19.962,0.106,NaN,2019.974,NaN,0.02,1.338e6,4.62,-0.002,0.656,-0.004,0.321,0.215,0.12,NaN,NaN,NaN,NaN,NaN,NaN,NaN,NaN,1.283e-5,165,213.825,80,0,6.808,15,1013.25,340.389,0.01,0.004
0.14,-4.669e-4,-0.093,-9.338,0.095,9.482,-8.232e-5,0,8.232e-5,180,0.016,1.646,22.175,120.893,9.788,97.837,0,0,0,2.8e4,1.35e4,19.962,0.106,NaN,2019.972,NaN,0.02,1.349e6,4.404,-0.002,0.656,-0.004,0.321,0.215,0.12,NaN,NaN,NaN,NaN,NaN,NaN,NaN,NaN,1.284e-5,165,213.825,80,0,6.864,15,1013.25,340.389,0.01,0.004
0.15,-4.668e-4,-0.093,-9.336,0.095,9.48,-8.231e-5,0,8.231e-5,180,0.016,1.646,22.175,120.893,9.788,97.831,0,0,0,2.8e4,1.35e4,19.962,0.106,NaN,2019.97,NaN,0.02,1.36e6,4.444,-0.002,0.655,-0.004,0.32,0.215,0.12,NaN,NaN,NaN,NaN,NaN,NaN,NaN,NaN,1.284e-5,165,213.825,80,0,6.921,15,1013.25,340.389,0.01,0.004
0.16,-4.664e-4,-0.093,-9.329,0.095,9.473,-8.225e-5,0,8.225e-5,180,0.016,1.645,22.175,120.893,9.788,97.83,0,0,0,2.8e4,1.35e4,19.962,0.106,NaN,2019.969,NaN,0.02,1.36e6,4.651,-0.002,0.655,-0.004,0.32,0.215,0.12,NaN,NaN,NaN,NaN,NaN,NaN,NaN,NaN,1.283e-5,165,213.825,80,0,6.921,15,1013.25,340.389,0.01,0.004
0.17,-4.672e-4,-0.093,-9.344,0.095,9.488,-8.238e-5,0,8.238e-5,180,0.016,1.648,22.175,120.893,9.788,97.831,0,0,0,2.8e4,1.35e4,19.962,0.106,NaN,2019.967,NaN,0.02,1.36e6,4.218,-0.002,0.655,-0.004,0.32,0.215,0.12,NaN,NaN,NaN,NaN,NaN,NaN,NaN,NaN,1.285e-5,165,213.825,80,0,6.921,15,1013.25,340.389,0.01,0.004
0.18,-4.672e-4,-0.093,-9.344,0.095,9.488,-8.238e-5,0,8.238e-5,180,0.016,1.648,22.175,120.893,9.788,97.831,0,0,0,2.8e4,1.35e4,19.962,0.106,NaN,2019.965,NaN,0.02,1.36e6,4.225,-0.002,0.655,-0.004,0.32,0.215,0.12,NaN,NaN,NaN,NaN,NaN,NaN,NaN,NaN,1.285e-5,165,213.825,80,0,6.921,15,1013.25,340.389,0.01,0.005
0.19,-4.67e-4,-0.093,-9.34,0.095,9.485,-8.235e-5,0,8.235e-5,180,0.016,1.647,22.175,120.893,9.788,97.831,0,0,0,2.8e4,1.35e4,19.962,0.106,NaN,2019.964,NaN,0.02,1.36e6,4.321,-0.002,0.655,-0.004,0.32,0.215,0.12,NaN,NaN,NaN,NaN,NaN,NaN,NaN,NaN,1.284e-5,165,213.825,80,0,6.921,15,1013.25,340.389,0.01,0.005
0.2,-4.673e-4,-0.093,-9.346,0.095,9.49,-8.239e-5,0,8.239e-5,180,0.016,1.648,22.175,120.893,9.788,97.831,0,0,0,2.8e4,1.35e4,19.962,0.106,NaN,2019.962,NaN,0.02,1.36e6,4.174,-0.002,0.655,-0.004,0.32,0.215,0.12,NaN,NaN,NaN,NaN,NaN,NaN,NaN,NaN,1.285e-5,165,213.825,80,0,6.921,15,1013.25,340.389,0.01,0.005
0.21,-4.669e-4,-0.093,-9.338,0.095,9.482,-8.233e-5,0,8.233e-5,180,0.016,1.647,22.175,120.893,9.788,97.832,0,0,0,2.8e4,1.35e4,19.962,0.106,NaN,2019.961,NaN,0.02,1.358e6,4.381,-0.002,0.656,-0.004,0.32,0.215,0.12,NaN,NaN,NaN,NaN,NaN,NaN,NaN,NaN,1.284e-5,165,213.825,80,0,6.91,15,1013.25,340.389,0.01,0.005
0.22,-4.664e-4,-0.093,-9.329,0.095,9.473,-8.224e-5,0,8.224e-5,180,0.016,1.645,22.175,120.893,9.788,97.832,0,0,0,2.8e4,1.35e4,19.962,0.106,NaN,2019.959,NaN,0.02,1.355e6,4.657,-0.002,0.656,-0.004,0.32,0.215,0.12,NaN,NaN,NaN,NaN,NaN,NaN,NaN,NaN,1.283e-5,165,213.825,80,0,6.899,15,1013.25,340.389,0.01,0.005
0.23,-4.669e-4,-0.093,-9.338,0.095,9.482,-8.233e-5,0,8.233e-5,180,0.016,1.647,22.175,120.893,9.788,97.834,0,0,0,2.8e4,1.35e4,19.962,0.106,NaN,2019.957,NaN,0.02,1.353e6,4.392,-0.002,0.656,-0.004,0.321,0.215,0.12,NaN,NaN,NaN,NaN,NaN,NaN,NaN,NaN,1.284e-5,165,213.825,80,0,6.887,15,1013.25,340.389,0.01,0.006
0.24,-4.667e-4,-0.093,-9.334,0.095,9.478,-8.229e-5,0,8.229e-5,180,0.016,1.646,22.175,120.893,9.788,97.835,0,0,0,2.8e4,1.35e4,19.962,0.106,NaN,2019.955,NaN,0.02,1.351e6,4.513,-0.002,0.656,-0.004,0.321,0.215,0.12,NaN,NaN,NaN,NaN,NaN,NaN,NaN,NaN,1.283e-5,165,213.825,80,0,6.876,15,1013.25,340.389,0.01,0.006
0.25,-4.666e-4,-0.093,-9.331,0.095,9.475,-8.227e-5,0,8.227e-5,180,0.016,1.645,22.175,120.893,9.788,97.836,0,0,0,2.8e4,1.35e4,19.962,0.106,NaN,2019.954,NaN,0.02,1.349e6,4.587,-0.002,0.656,-0.004,0.321,0.215,0.12,NaN,NaN,NaN,NaN,NaN,NaN,NaN,NaN,1.283e-5,165,213.825,80,0,6.865,15,1013.25,340.389,0.01,0.006
0.26,-4.668e-4,-0.093,-9.337,0.095,9.481,-8.232e-5,0,8.232e-5,180,0.016,1.646,22.175,120.893,9.788,97.832,0,0,0,2.8e4,1.35e4,19.962,0.106,NaN,2019.952,NaN,0.02,1.357e6,4.429,-0.002,0.656,-0.004,0.32,0.215,0.12,NaN,NaN,NaN,NaN,NaN,NaN,NaN,NaN,1.284e-5,165,213.825,80,0,6.907,15,1013.25,340.389,0.01,0.006
0.27,-4.667e-4,-0.093,-9.333,0.095,9.477,-8.229e-5,0,8.229e-5,180,0.016,1.646,22.175,120.893,9.788,97.827,0,0,0,2.8e4,1.35e4,19.962,0.106,NaN,2019.95,NaN,0.02,1.365e6,4.527,-0.002,0.655,-0.004,0.32,0.215,0.12,NaN,NaN,NaN,NaN,NaN,NaN,NaN,NaN,1.283e-5,165,213.825,80,0,6.948,15,1013.25,340.389,0.01,0.006
0.28,-4.667e-4,-0.093,-9.335,0.095,9.479,-8.23e-5,0,8.23e-5,180,0.016,1.646,22.175,120.893,9.788,97.823,0,0,0,2.8e4,1.35e4,19.962,0.106,NaN,2019.949,NaN,0.021,1.373e6,4.488,-0.002,0.655,-0.004,0.32,0.215,0.12,NaN,NaN,NaN,NaN,NaN,NaN,NaN,NaN,1.283e-5,165,213.825,80,0,6.99,15,1013.25,340.389,0.01,0.007
0.29,-4.665e-4,-0.093,-9.33,0.095,9.474,-8.226e-5,0,8.226e-5,180,0.016,1.645,22.175,120.893,9.788,97.818,0,0,0,2.8e4,1.35e4,19.962,0.106,NaN,2019.947,NaN,0.021,1.381e6,4.616,-0.002,0.655,-0.004,0.319,0.215,0.12,NaN,NaN,NaN,NaN,NaN,NaN,NaN,NaN,1.283e-5,165,213.825,80,0,7.031,15,1013.25,340.389,0.01,0.007
0.3,-4.666e-4,-0.093,-9.332,0.095,9.476,-8.228e-5,0,8.228e-5,180,0.016,1.646,22.175,120.893,9.788,97.814,0,0,0,2.8e4,1.35e4,19.962,0.106,NaN,2019.945,NaN,0.021,1.39e6,4.548,-0.003,0.654,-0.004,0.319,0.215,0.12,NaN,NaN,NaN,NaN,NaN,NaN,NaN,NaN,1.283e-5,165,213.825,80,0,7.073,15,1013.25,340.389,0.01,0.007
0.31,-4.663e-4,-0.093,-9.327,0.095,9.471,-8.223e-5,0,8.223e-5,180,0.016,1.645,22.175,120.893,9.788,97.818,0,0,0,2.8e4,1.35e4,19.962,0.106,NaN,2019.943,NaN,0.021,1.381e6,4.706,-0.002,0.655,-0.004,0.319,0.215,0.12,NaN,NaN,NaN,NaN,NaN,NaN,NaN,NaN,1.282e-5,165,213.825,80,0,7.029,15,1013.25,340.389,0.01,0.007
0.32,-4.67e-4,-0.093,-9.34,0.095,9.484,-8.235e-5,0,8.235e-5,180,0.016,1.647,22.175,120.893,9.788,97.824,0,0,0,2.8e4,1.35e4,19.962,0.106,NaN,2019.942,NaN,0.021,1.372e6,4.332,-0.002,0.655,-0.004,0.32,0.215,0.12,NaN,NaN,NaN,NaN,NaN,NaN,NaN,NaN,1.284e-5,165,213.825,80,0,6.985,15,1013.25,340.389,0.01,0.007
0.33,-4.667e-4,-0.093,-9.335,0.095,9.479,-8.23e-5,0,8.23e-5,180,0.016,1.646,22.175,120.893,9.788,97.828,0,0,0,2.8e4,1.35e4,19.962,0.106,NaN,2019.94,NaN,0.02,1.364e6,4.483,-0.002,0.655,-0.004,0.32,0.215,0.12,NaN,NaN,NaN,NaN,NaN,NaN,NaN,NaN,1.283e-5,165,213.825,80,0,6.941,15,1013.25,340.389,0.01,0.007
0.34,-4.666e-4,-0.093,-9.332,0.095,9.476,-8.227e-5,0,8.227e-5,180,0.016,1.645,22.175,120.893,9.788,97.833,0,0,0,2.8e4,1.35e4,19.962,0.106,NaN,2019.938,NaN,0.02,1.355e6,4.57,-0.002,0.656,-0.004,0.321,0.215,0.12,NaN,NaN,NaN,NaN,NaN,NaN,NaN,NaN,1.283e-5,165,213.825,80,0,6.897,15,1013.25,340.389,0.01,0.008
0.35,-4.669e-4,-0.093,-9.337,0.095,9.481,-8.232e-5,0,8.232e-5,180,0.016,1.646,22.175,120.893,9.788,97.838,0,0,0,2.8e4,1.35e4,19.962,0.106,NaN,2019.936,NaN,0.02,1.346e6,4.419,-0.002,0.656,-0.004,0.321,0.215,0.12,NaN,NaN,NaN,NaN,NaN,NaN,NaN,NaN,1.284e-5,165,213.825,80,0,6.852,15,1013.25,340.389,0.01,0.008
0.36,-4.67e-4,-0.093,-9.341,0.095,9.485,-8.235e-5,0,8.235e-5,180,0.016,1.647,22.175,120.893,9.788,97.833,0,0,0,2.8e4,1.35e4,19.962,0.106,NaN,2019.935,NaN,0.02,1.357e6,4.317,-0.002,0.656,-0.004,0.32,0.215,0.12,NaN,NaN,NaN,NaN,NaN,NaN,NaN,NaN,1.284e-5,165,213.825,80,0,6.905,15,1013.25,340.389,0.01,0.008
0.37,-4.667e-4,-0.093,-9.333,0.095,9.477,-8.229e-5,0,8.229e-5,180,0.016,1.646,22.175,120.893,9.788,97.826,0,0,0,2.8e4,1.35e4,19.962,0.106,NaN,2019.933,NaN,0.02,1.367e6,4.522,-0.002,0.655,-0.004,0.32,0.215,0.12,NaN,NaN,NaN,NaN,NaN,NaN,NaN,NaN,1.283e-5,165,213.825,80,0,6.958,15,1013.25,340.389,0.01,0.008
0.38,-4.668e-4,-0.093,-9.337,0.095,9.481,-8.231e-5,0,8.231e-5,180,0.016,1.646,22.175,120.893,9.788,97.821,0,0,0,2.8e4,1.35e4,19.962,0.106,NaN,2019.931,NaN,0.021,1.377e6,4.433,-0.002,0.655,-0.004,0.319,0.215,0.12,NaN,NaN,NaN,NaN,NaN,NaN,NaN,NaN,1.284e-5,165,213.825,80,0,7.011,15,1013.25,340.389,0.01,0.008
0.39,-4.664e-4,-0.093,-9.328,0.095,9.472,-8.224e-5,0,8.224e-5,180,0.016,1.645,22.175,120.893,9.788,97.814,0,0,0,2.8e4,1.35e4,19.962,0.106,NaN,2019.93,NaN,0.021,1.388e6,4.673,-0.003,0.654,-0.004,0.319,0.215,0.12,NaN,NaN,NaN,NaN,NaN,NaN,NaN,NaN,1.282e-5,165,213.825,80,0,7.064,15,1013.25,340.389,0.01,0.009
0.4,-4.662e-4,-0.093,-9.323,0.095,9.467,-8.22e-5,0,8.22e-5,180,0.016,1.644,22.175,120.893,9.788,97.808,0,0,0,2.8e4,1.35e4,19.962,0.106,NaN,2019.928,NaN,0.021,1.398e6,4.812,-0.003,0.654,-0.004,0.319,0.215,0.12,NaN,NaN,NaN,NaN,NaN,NaN,NaN,NaN,1.282e-5,165,213.825,80,0,7.117,15,1013.25,340.389,0.01,0.009
0.41,-4.665e-4,-0.093,-9.331,0.095,9.475,-8.226e-5,0,8.226e-5,180,0.016,1.645,22.175,120.893,9.788,97.802,0,0,0,2.8e4,1.35e4,19.962,0.106,NaN,2019.926,NaN,0.021,1.411e6,4.595,-0.003,0.653,-0.004,0.318,0.215,0.12,NaN,NaN,NaN,NaN,NaN,NaN,NaN,NaN,1.283e-5,165,213.825,80,0,7.184,15,1013.25,340.389,0.01,0.009
0.42,-4.665e-4,-0.093,-9.329,0.095,9.473,-8.225e-5,0,8.225e-5,180,0.016,1.645,22.175,120.893,9.788,97.795,0,0,0,2.8e4,1.35e4,19.962,0.106,NaN,2019.924,NaN,0.021,1.424e6,4.638,-0.003,0.653,-0.004,0.317,0.215,0.12,NaN,NaN,NaN,NaN,NaN,NaN,NaN,NaN,1.283e-5,165,213.825,80,0,7.251,15,1013.25,340.389,0.01,0.009
0.43,-4.662e-4,-0.093,-9.323,0.095,9.467,-8.22e-5,0,8.22e-5,180,0.016,1.644,22.175,120.893,9.788,97.787,0,0,0,2.8e4,1.35e4,19.962,0.106,NaN,2019.922,NaN,0.022,1.437e6,4.811,-0.003,0.652,-0.004,0.317,0.215,0.12,NaN,NaN,NaN,NaN,NaN,NaN,NaN,NaN,1.282e-5,165,213.825,80,0,7.317,15,1013.25,340.389,0.01,0.009
0.44,-4.66e-4,-0.093,-9.319,0.095,9.463,-8.216e-5,0,8.216e-5,180,0.016,1.643,22.175,120.893,9.788,97.781,0,0,0,2.8e4,1.35e4,19.962,0.106,NaN,2019.921,NaN,0.022,1.451e6,4.919,-0.003,0.652,-0.004,0.316,0.215,0.12,NaN,NaN,NaN,NaN,NaN,NaN,NaN,NaN,1.281e-5,165,213.825,80,0,7.384,15,1013.25,340.389,0.01,0.009
0.45,-4.666e-4,-0.093,-9.331,0.095,9.475,-8.227e-5,0,8.227e-5,180,0.016,1.645,22.175,120.893,9.788,97.775,0,0,0,2.8e4,1.35e4,19.961,0.106,NaN,2019.919,NaN,0.022,1.464e6,4.583,-0.003,0.651,-0.004,0.316,0.215,0.12,NaN,NaN,NaN,NaN,NaN,NaN,NaN,NaN,1.283e-5,165,213.825,80,0,7.451,15,1013.25,340.389,0.01,0.01
0.46,-4.668e-4,-0.093,-9.337,0.095,9.481,-8.232e-5,0,8.232e-5,180,0.016,1.646,22.175,120.893,9.788,97.782,0,0,0,2.8e4,1.35e4,19.961,0.106,NaN,2019.917,NaN,0.022,1.45e6,4.429,-0.003,0.652,-0.004,0.316,0.215,0.12,NaN,NaN,NaN,NaN,NaN,NaN,NaN,NaN,1.284e-5,165,213.825,80,0,7.38,15,1013.25,340.389,0.01,0.01
0.47,-4.668e-4,-0.093,-9.336,0.095,9.48,-8.231e-5,0,8.231e-5,180,0.016,1.646,22.175,120.893,9.788,97.789,0,0,0,2.8e4,1.35e4,19.961,0.106,NaN,2019.915,NaN,0.022,1.436e6,4.45,-0.003,0.652,-0.004,0.317,0.215,0.12,NaN,NaN,NaN,NaN,NaN,NaN,NaN,NaN,1.284e-5,165,213.825,80,0,7.308,15,1013.25,340.389,0.01,0.01
0.48,-4.66e-4,-0.093,-9.32,0.095,9.464,-8.217e-5,0,8.217e-5,180,0.016,1.643,22.175,120.893,9.788,97.795,0,0,0,2.8e4,1.35e4,19.961,0.106,NaN,2019.914,NaN,0.021,1.422e6,4.905,-0.003,0.653,-0.004,0.318,0.215,0.12,NaN,NaN,NaN,NaN,NaN,NaN,NaN,NaN,1.281e-5,165,213.825,80,0,7.237,15,1013.25,340.389,0.01,0.01
0.49,-4.663e-4,-0.093,-9.325,0.095,9.469,-8.222e-5,0,8.222e-5,180,0.016,1.644,22.175,120.893,9.788,97.803,0,0,0,2.8e4,1.35e4,19.961,0.106,NaN,2019.912,NaN,0.021,1.408e6,4.746,-0.003,0.653,-0.004,0.318,0.215,0.12,NaN,NaN,NaN,NaN,NaN,NaN,NaN,NaN,1.282e-5,165,213.825,80,0,7.166,15,1013.25,340.389,0.01,0.01
0.5,-4.668e-4,-0.093,-9.335,0.095,9.479,-8.23e-5,0,8.23e-5,180,0.016,1.646,22.175,120.893,9.788,97.811,0,0,0,2.8e4,1.35e4,19.961,0.106,NaN,2019.91,NaN,0.021,1.394e6,4.47,-0.003,0.654,-0.004,0.319,0.215,0.12,NaN,NaN,NaN,NaN,NaN,NaN,NaN,NaN,1.283e-5,165,213.825,80,0,7.095,15,1013.25,340.389,0.01,0.01
0.51,-4.664e-4,-0.093,-9.329,0.095,9.473,-8.224e-5,0,8.224e-5,180,0.016,1.645,22.175,120.893,9.788,97.81,0,0,0,2.8e4,1.35e4,19.961,0.106,NaN,2019.908,NaN,0.021,1.396e6,4.657,-0.003,0.654,-0.004,0.319,0.215,0.12,NaN,NaN,NaN,NaN,NaN,NaN,NaN,NaN,1.283e-5,165,213.825,80,0,7.105,15,1013.25,340.389,0.01,0.011
0.52,-4.656e-4,-0.093,-9.313,0.095,9.456,-8.21e-5,0,8.21e-5,180,0.016,1.642,22.175,120.893,9.788,97.807,0,0,0,2.8e4,1.35e4,19.961,0.106,NaN,2019.906,NaN,0.021,1.398e6,5.115,-0.003,0.654,-0.004,0.319,0.215,0.12,NaN,NaN,NaN,NaN,NaN,NaN,NaN,NaN,1.28e-5,165,213.825,80,0,7.115,15,1013.25,340.389,0.01,0.011
0.53,-4.652e-4,-0.093,-9.305,0.094,9.448,-8.203e-5,0,8.203e-5,180,0.016,1.641,22.175,120.893,9.788,97.806,0,0,0,2.8e4,1.35e4,19.961,0.106,NaN,2019.904,NaN,0.021,1.4e6,5.339,-0.003,0.654,-0.004,0.319,0.215,0.12,NaN,NaN,NaN,NaN,NaN,NaN,NaN,NaN,1.279e-5,165,213.825,80,0,7.125,15,1013.25,340.389,0.01,0.011
0.54,-4.665e-4,-0.093,-9.329,0.095,9.473,-8.225e-5,0,8.225e-5,180,0.016,1.645,22.175,120.893,9.788,97.807,0,0,0,2.8e4,1.35e4,19.961,0.106,NaN,2019.903,NaN,0.021,1.402e6,4.638,-0.003,0.654,-0.004,0.318,0.215,0.12,NaN,NaN,NaN,NaN,NaN,NaN,NaN,NaN,1.283e-5,165,213.825,80,0,7.135,15,1013.25,340.389,0.01,0.011
0.55,-4.661e-4,-0.093,-9.323,0.095,9.467,-8.219e-5,0,8.219e-5,180,0.016,1.644,22.175,120.893,9.788,97.805,0,0,0,2.8e4,1.35e4,19.961,0.106,NaN,2019.901,NaN,0.021,1.404e6,4.82,-0.003,0.654,-0.004,0.318,0.215,0.12,NaN,NaN,NaN,NaN,NaN,NaN,NaN,NaN,1.282e-5,165,213.825,80,0,7.145,15,1013.25,340.389,0.01,0.011
0.56,-4.656e-4,-0.093,-9.312,0.095,9.455,-8.209e-5,0,8.209e-5,180,0.016,1.642,22.175,120.893,9.788,97.805,0,0,0,2.8e4,1.35e4,19.961,0.106,NaN,2019.899,NaN,0.021,1.403e6,5.14,-0.003,0.654,-0.004,0.318,0.215,0.12,NaN,NaN,NaN,NaN,NaN,NaN,NaN,NaN,1.28e-5,165,213.825,80,0,7.142,15,1013.25,340.389,0.01,0.012
0.57,-4.655e-4,-0.093,-9.311,0.095,9.454,-8.209e-5,0,8.209e-5,180,0.016,1.642,22.175,120.893,9.788,97.805,0,0,0,2.8e4,1.35e4,19.961,0.106,NaN,2019.897,NaN,0.021,1.402e6,5.164,-0.003,0.654,-0.004,0.318,0.215,0.12,NaN,NaN,NaN,NaN,NaN,NaN,NaN,NaN,1.28e-5,165,213.825,80,0,7.139,15,1013.25,340.389,0.01,0.012
0.58,-4.656e-4,-0.093,-9.312,0.095,9.456,-8.21e-5,0,8.21e-5,180,0.016,1.642,22.175,120.893,9.788,97.805,0,0,0,2.8e4,1.35e4,19.961,0.106,NaN,2019.895,NaN,0.021,1.402e6,5.125,-0.003,0.654,-0.004,0.318,0.215,0.12,NaN,NaN,NaN,NaN,NaN,NaN,NaN,NaN,1.28e-5,165,213.825,80,0,7.136,15,1013.25,340.389,0.01,0.012
0.59,-4.653e-4,-0.093,-9.306,0.094,9.45,-8.205e-5,0,8.205e-5,180,0.016,1.641,22.175,120.893,9.788,97.805,0,0,0,2.8e4,1.35e4,19.961,0.106,NaN,2019.893,NaN,0.021,1.401e6,5.296,-0.003,0.654,-0.004,0.318,0.215,0.12,NaN,NaN,NaN,NaN,NaN,NaN,NaN,NaN,1.279e-5,165,213.825,80,0,7.133,15,1013.25,340.389,0.01,0.012
0.6,-4.648e-4,-0.093,-9.297,0.094,9.44,-8.196e-5,0,8.196e-5,180,0.016,1.639,22.175,120.893,9.788,97.805,0,0,0,2.8e4,1.349e4,19.961,0.106,NaN,2019.891,NaN,0.021,1.401e6,5.567,-0.003,0.654,-0.004,0.318,0.215,0.12,NaN,NaN,NaN,NaN,NaN,NaN,NaN,NaN,1.278e-5,165,213.825,80,0,7.129,15,1013.25,340.389,0.01,0.012
0.61,-4.646e-4,-0.093,-9.291,0.094,9.435,-8.192e-5,0,8.192e-5,180,0.016,1.638,22.175,120.893,9.788,97.805,0,0,0,2.8e4,1.349e4,19.961,0.106,NaN,2019.889,NaN,0.021,1.4e6,5.717,-0.003,0.654,-0.004,0.319,0.215,0.12,NaN,NaN,NaN,NaN,NaN,NaN,NaN,NaN,1.277e-5,165,213.825,80,0,7.124,15,1013.25,340.389,0.01,0.012
0.62,-4.652e-4,-0.093,-9.304,0.094,9.447,-8.202e-5,0,8.202e-5,180,0.016,1.64,22.175,120.893,9.788,97.806,0,0,0,2.8e4,1.349e4,19.961,0.106,NaN,2019.887,NaN,0.021,1.399e6,5.366,-0.003,0.654,-0.004,0.319,0.215,0.12,NaN,NaN,NaN,NaN,NaN,NaN,NaN,NaN,1.279e-5,165,213.825,80,0,7.119,15,1013.25,340.389,0.01,0.013
0.63,-4.643e-4,-0.093,-9.287,0.094,9.43,-8.188e-5,0,8.188e-5,180,0.016,1.638,22.175,120.893,9.788,97.805,0,0,0,2.799e4,1.349e4,19.961,0.106,NaN,2019.884,NaN,0.021,1.398e6,5.844,-0.003,0.654,-0.004,0.319,0.215,0.12,NaN,NaN,NaN,NaN,NaN,NaN,NaN,NaN,1.277e-5,165,213.825,80,0,7.115,15,1013.25,340.389,0.01,0.013
0.64,-4.644e-4,-0.093,-9.289,0.094,9.432,-8.189e-5,0,8.189e-5,180,0.016,1.638,22.175,120.893,9.788,97.806,0,0,0,2.799e4,1.349e4,19.961,0.106,NaN,2019.882,NaN,0.021,1.397e6,5.786,-0.003,0.654,-0.004,0.319,0.215,0.12,NaN,NaN,NaN,NaN,NaN,NaN,NaN,NaN,1.277e-5,165,213.825,80,0,7.11,15,1013.25,340.389,0.01,0.013
0.65,-4.641e-4,-0.093,-9.283,0.094,9.426,-8.184e-5,0,8.184e-5,180,0.016,1.637,22.175,120.893,9.788,97.806,0,0,0,2.799e4,1.349e4,19.961,0.106,NaN,2019.88,NaN,0.021,1.396e6,5.968,-0.003,0.654,-0.004,0.319,0.215,0.12,NaN,NaN,NaN,NaN,NaN,NaN,NaN,NaN,1.276e-5,165,213.825,80,0,7.105,15,1013.25,340.389,0.01,0.013
0.66,-4.631e-4,-0.093,-9.262,0.094,9.405,-8.166e-5,0,8.166e-5,180,0.016,1.633,22.175,120.893,9.788,97.805,0,0,0,2.799e4,1.349e4,19.961,0.106,NaN,2019.877,NaN,0.021,1.394e6,6.551,-0.003,0.654,-0.004,0.319,0.215,0.12,NaN,NaN,NaN,NaN,NaN,NaN,NaN,NaN,1.273e-5,165,213.825,80,0,7.096,15,1013.25,340.389,0.01,0.013
0.67,-4.628e-4,-0.093,-9.256,0.094,9.399,-8.16e-5,0,8.16e-5,180,0.016,1.632,22.175,120.893,9.788,97.806,0,0,0,2.799e4,1.349e4,19.961,0.106,NaN,2019.875,NaN,0.021,1.392e6,6.72,-0.003,0.654,-0.004,0.319,0.215,0.12,NaN,NaN,NaN,NaN,NaN,NaN,NaN,NaN,1.273e-5,165,213.825,80,0,7.088,15,1013.25,340.389,0.01,0.014
0.68,-4.618e-4,-0.092,-9.236,0.094,9.378,-8.143e-5,0,8.143e-5,180,0.016,1.629,22.175,120.893,9.788,97.805,0,0,0,2.799e4,1.349e4,19.961,0.106,NaN,2019.872,NaN,0.021,1.391e6,7.299,-0.003,0.654,-0.004,0.319,0.215,0.12,NaN,NaN,NaN,NaN,NaN,NaN,NaN,NaN,1.27e-5,165,213.825,80,0,7.079,15,1013.25,340.389,0.01,0.014
0.69,-4.615e-4,-0.092,-9.23,0.094,9.372,-8.137e-5,0,8.137e-5,180,0.016,1.627,22.175,120.893,9.788,97.805,0,0,0,2.799e4,1.349e4,19.961,0.106,NaN,2019.869,NaN,0.021,1.389e6,7.467,-0.003,0.654,-0.004,0.319,0.215,0.12,NaN,NaN,NaN,NaN,NaN,NaN,NaN,NaN,1.269e-5,165,213.825,80,0,7.071,15,1013.25,340.389,0.01,0.014
0.7,-4.606e-4,-0.092,-9.213,0.094,9.355,-8.122e-5,0,8.122e-5,180,0.016,1.624,22.175,120.893,9.788,97.805,0,0,0,2.799e4,1.349e4,19.961,0.106,NaN,2019.866,NaN,0.021,1.387e6,7.951,-0.003,0.654,-0.004,0.319,0.215,0.12,NaN,NaN,NaN,NaN,NaN,NaN,NaN,NaN,1.267e-5,165,213.825,80,0,7.062,15,1013.25,340.389,0.01,0.014
0.71,-4.589e-4,-0.092,-9.178,0.093,9.32,-8.092e-5,0,8.092e-5,180,0.016,1.618,22.175,120.893,9.788,97.802,0,0,0,2.799e4,1.349e4,19.96,0.106,NaN,2019.863,NaN,0.021,1.388e6,8.938,-0.003,0.654,-0.004,0.319,0.215,0.12,NaN,NaN,NaN,NaN,NaN,NaN,NaN,NaN,1.262e-5,165,213.825,80,0,7.067,15,1013.25,340.389,0.01,0.014
0.72,-4.583e-4,-0.092,-9.167,0.093,9.308,-8.082e-5,0,8.082e-5,180,0.016,1.616,22.175,120.893,9.788,97.8,0,0,0,2.799e4,1.349e4,19.96,0.106,NaN,2019.859,NaN,0.021,1.389e6,9.255,-0.003,0.654,-0.004,0.319,0.215,0.12,NaN,NaN,NaN,NaN,NaN,NaN,NaN,NaN,1.26e-5,165,213.825,80,0,7.071,15,1013.25,340.389,0.01,0.014
0.73,-4.567e-4,-0.091,-9.134,0.093,9.275,-8.053e-5,0,8.053e-5,180,0.016,1.611,22.175,120.893,9.788,97.797,0,0,0,2.799e4,1.349e4,19.96,0.106,NaN,2019.855,NaN,0.021,1.39e6,10.185,-0.003,0.654,-0.004,0.319,0.215,0.12,NaN,NaN,NaN,NaN,NaN,NaN,NaN,NaN,1.256e-5,165,213.825,80,0,7.075,15,1013.25,340.389,0.01,0.015
0.74,-4.548e-4,-0.091,-9.096,0.092,9.236,-8.019e-5,0,8.019e-5,180,0.016,1.604,22.175,120.893,9.788,97.794,0,0,0,2.799e4,1.349e4,19.96,0.106,NaN,2019.851,NaN,0.021,1.391e6,11.275,-0.003,0.654,-0.004,0.319,0.215,0.12,NaN,NaN,NaN,NaN,NaN,NaN,NaN,NaN,1.251e-5,165,213.825,80,0,7.08,15,1013.25,340.389,0.01,0.015
0.75,-4.529e-4,-0.091,-9.059,0.092,9.199,-7.987e-5,0,7.987e-5,180,0.016,1.597,22.175,120.893,9.788,97.79,0,0,0,2.799e4,1.349e4,19.96,0.106,NaN,2019.846,NaN,0.021,1.392e6,12.322,-0.003,0.654,-0.004,0.319,0.215,0.12,NaN,NaN,NaN,NaN,NaN,NaN,NaN,NaN,1.245e-5,165,213.825,80,0,7.084,15,1013.25,340.389,0.01,0.015
0.76,-4.506e-4,-0.09,-9.012,0.092,9.151,-7.945e-5,0,7.945e-5,180,0.016,1.589,22.175,120.893,9.788,97.792,0,0,0,2.799e4,1.349e4,19.96,0.106,NaN,2019.841,NaN,0.021,1.38e6,13.663,-0.002,0.655,-0.004,0.319,0.215,0.12,NaN,NaN,NaN,NaN,NaN,NaN,NaN,NaN,1.239e-5,165,213.825,80,0,7.027,15,1013.25,340.389,0.01,0.015
0.77,-4.495e-4,-0.09,-8.989,0.091,9.128,-7.925e-5,0,7.925e-5,180,0.016,1.585,22.175,120.893,9.788,97.797,0,0,0,2.799e4,1.349e4,19.96,0.106,NaN,2019.836,NaN,0.021,1.369e6,14.302,-0.002,0.655,-0.004,0.32,0.215,0.12,NaN,NaN,NaN,NaN,NaN,NaN,NaN,NaN,1.236e-5,165,213.825,80,0,6.969,15,1013.25,340.389,0.01,0.015
0.78,-4.469e-4,-0.089,-8.938,0.091,9.076,-7.88e-5,0,7.88e-5,180,0.016,1.576,22.175,120.893,9.788,97.798,0,0,0,2.799e4,1.349e4,19.96,0.106,NaN,2019.83,NaN,0.02,1.358e6,15.77,-0.002,0.656,-0.004,0.32,0.215,0.12,NaN,NaN,NaN,NaN,NaN,NaN,NaN,NaN,1.229e-5,165,213.825,80,0,6.911,15,1013.25,340.389,0.01,0.015
0.79,-4.448e-4,-0.089,-8.897,0.09,9.034,-7.844e-5,0,7.844e-5,180,0.016,1.569,22.175,120.893,9.788,97.801,0,0,0,2.799e4,1.349e4,19.96,0.106,NaN,2019.823,NaN,0.02,1.346e6,16.927,-0.002,0.656,-0.004,0.321,0.215,0.12,NaN,NaN,NaN,NaN,NaN,NaN,NaN,NaN,1.223e-5,165,213.825,80,0,6.854,15,1013.25,340.389,0.01,0.016
0.8,-4.427e-4,-0.089,-8.855,0.09,8.992,-7.807e-5,0,7.807e-5,180,0.016,1.561,22.175,120.893,9.788,97.804,0,0,0,2.799e4,1.349e4,19.96,0.106,NaN,2019.816,NaN,0.02,1.335e6,18.121,-0.002,0.657,-0.004,0.321,0.215,0.12,NaN,NaN,NaN,NaN,NaN,NaN,NaN,NaN,1.217e-5,165,213.825,80,0,6.796,15,1013.25,340.389,0.01,0.016
0.81,-4.404e-4,-0.088,-8.809,0.089,8.944,-7.766e-5,0,7.766e-5,180,0.016,1.553,22.175,120.893,9.788,97.792,0,0,0,2.799e4,1.349e4,19.96,0.106,NaN,2019.809,NaN,0.02,1.35e6,19.438,-0.002,0.656,-0.004,0.321,0.215,0.12,NaN,NaN,NaN,NaN,NaN,NaN,NaN,NaN,1.211e-5,165,213.825,80,0,6.875,15,1013.25,340.389,0.01,0.016
0.82,-4.392e-4,-0.088,-8.783,0.089,8.919,-7.744e-5,0,7.744e-5,180,0.015,1.549,22.175,120.893,9.788,97.781,0,0,0,2.799e4,1.349e4,19.959,0.106,NaN,2019.801,NaN,0.02,1.366e6,20.155,-0.002,0.655,-0.004,0.32,0.215,0.12,NaN,NaN,NaN,NaN,NaN,NaN,NaN,NaN,1.208e-5,165,213.825,80,0,6.953,15,1013.25,340.389,0.01,0.016
0.83,-4.343e-4,-0.087,-8.687,0.088,8.821,-7.659e-5,0,7.659e-5,180,0.015,1.532,22.175,120.893,9.788,97.765,0,0,0,2.799e4,1.349e4,19.959,0.106,NaN,2019.793,NaN,0.021,1.381e6,22.899,-0.002,0.655,-0.004,0.319,0.215,0.12,NaN,NaN,NaN,NaN,NaN,NaN,NaN,NaN,1.194e-5,165,213.825,80,0,7.032,15,1013.25,340.389,0.01,0.016
0.84,-4.256e-4,-0.085,-8.511,0.086,8.643,-7.504e-5,0,7.504e-5,180,0.015,1.501,22.175,120.893,9.788,97.743,0,0,0,2.799e4,1.349e4,19.959,0.106,NaN,2019.782,NaN,0.021,1.397e6,27.886,-0.002,0.654,-0.004,0.319,0.215,0.12,NaN,NaN,NaN,NaN,NaN,NaN,NaN,NaN,1.17e-5,165,213.825,80,0,7.111,15,1013.25,340.389,0.01,0.017
0.85,-4.183e-4,-0.084,-8.365,0.085,8.494,-7.375e-5,0,7.375e-5,180,0.015,1.475,22.175,120.893,9.788,97.724,0,0,0,2.799e4,1.349e4,19.959,0.106,NaN,2019.77,NaN,0.021,1.412e6,32.036,-0.003,0.653,-0.004,0.318,0.215,0.12,NaN,NaN,NaN,NaN,NaN,NaN,NaN,NaN,1.15e-5,165,213.825,80,0,7.189,15,1013.25,340.389,0.01,0.017
0.86,-4.106e-4,-0.082,-8.212,0.083,8.339,-7.24e-5,0,7.24e-5,180,0.014,1.448,22.175,120.893,9.788,97.713,0,0,0,2.799e4,1.349e4,19.959,0.106,NaN,2019.756,NaN,0.021,1.409e6,36.392,-0.002,0.653,-0.004,0.318,0.215,0.12,NaN,NaN,NaN,NaN,NaN,NaN,NaN,NaN,1.129e-5,165,213.825,80,0,7.172,15,1013.25,340.389,0.01,0.017
0.87,-4.032e-4,-0.081,-8.065,0.082,8.189,-7.11e-5,0,7.11e-5,180,0.014,1.422,22.175,120.893,9.788,97.703,0,0,0,2.799e4,1.349e4,19.958,0.106,NaN,2019.74,NaN,0.021,1.405e6,40.581,-0.002,0.653,-0.004,0.318,0.215,0.12,NaN,NaN,NaN,NaN,NaN,NaN,NaN,NaN,1.109e-5,165,213.825,80,0,7.154,15,1013.25,340.389,0.01,0.017
0.88,-3.96e-4,-0.079,-7.92,0.08,8.042,-6.983e-5,0,6.983e-5,180,0.014,1.397,22.175,120.893,9.788,97.693,0,0,0,2.799e4,1.349e4,19.958,0.106,NaN,2019.723,NaN,0.021,1.402e6,44.682,-0.002,0.654,-0.004,0.318,0.215,0.12,NaN,NaN,NaN,NaN,NaN,NaN,NaN,NaN,1.089e-5,165,213.825,80,0,7.136,15,1013.25,340.389,0.01,0.017
0.89,-3.897e-4,-0.078,-7.793,0.079,7.913,-6.871e-5,0,6.871e-5,180,0.014,1.374,22.175,120.893,9.788,97.684,0,0,0,2.799e4,1.349e4,19.958,0.106,NaN,2019.705,NaN,0.021,1.398e6,48.294,-0.002,0.654,-0.004,0.319,0.215,0.12,NaN,NaN,NaN,NaN,NaN,NaN,NaN,NaN,1.071e-5,165,213.825,80,0,7.119,15,1013.25,340.389,0.01,0.017
0.9,-3.836e-4,-0.077,-7.671,0.078,7.79,-6.763e-5,0,6.763e-5,180,0.014,1.353,22.175,120.893,9.788,97.676,0,0,0,2.799e4,1.349e4,19.957,0.106,NaN,2019.685,NaN,0.021,1.395e6,51.752,-0.002,0.654,-0.004,0.319,0.215,0.12,NaN,NaN,NaN,NaN,NaN,NaN,NaN,NaN,1.055e-5,165,213.825,80,0,7.101,15,1013.25,340.389,0.01,0.018
0.91,-3.755e-4,-0.075,-7.511,0.076,7.626,-6.622e-5,0,6.622e-5,180,0.013,1.324,22.175,120.893,9.788,97.664,0,0,0,2.798e4,1.348e4,19.957,0.106,NaN,2019.664,NaN,0.021,1.391e6,56.319,-0.002,0.654,-0.004,0.319,0.215,0.12,NaN,NaN,NaN,NaN,NaN,NaN,NaN,NaN,1.033e-5,165,213.825,80,0,7.083,15,1013.25,340.389,0.01,0.018
0.92,-3.677e-4,-0.074,-7.355,0.075,7.468,-6.484e-5,0,6.484e-5,180,0.013,1.297,22.175,120.893,9.788,97.653,0,0,0,2.798e4,1.348e4,19.957,0.106,NaN,2019.641,NaN,0.021,1.387e6,60.748,-0.002,0.654,-0.004,0.319,0.215,0.12,NaN,NaN,NaN,NaN,NaN,NaN,NaN,NaN,1.011e-5,165,213.825,80,0,7.065,15,1013.25,340.389,0.01,0.018
0.93,-3.56e-4,-0.071,-7.121,0.072,7.231,-6.278e-5,0,6.278e-5,180,0.013,1.256,22.175,120.893,9.788,97.636,0,0,0,2.798e4,1.348e4,19.956,0.106,NaN,2019.615,NaN,0.021,1.384e6,67.387,-0.002,0.654,-0.004,0.319,0.215,0.12,NaN,NaN,NaN,NaN,NaN,NaN,NaN,NaN,9.79e-6,165,213.825,80,0,7.047,15,1013.25,340.389,0.01,0.018
0.94,-3.418e-4,-0.068,-6.837,0.069,6.942,-6.028e-5,0,6.028e-5,180,0.012,1.206,22.175,120.893,9.788,97.614,0,0,0,2.798e4,1.348e4,19.956,0.106,NaN,2019.586,NaN,0.021,1.38e6,75.455,-0.002,0.655,-0.004,0.319,0.215,0.12,NaN,NaN,NaN,NaN,NaN,NaN,NaN,NaN,9.399e-6,165,213.825,80,0,7.029,15,1013.25,340.389,0.01,0.018
0.95,-3.257e-4,-0.065,-6.515,0.066,6.615,-5.744e-5,0,5.744e-5,180,0.011,1.149,22.175,120.893,9.788,97.589,0,0,0,2.798e4,1.348e4,19.955,0.106,NaN,2019.554,NaN,0.021,1.377e6,84.603,-0.002,0.655,-0.004,0.32,0.215,0.12,NaN,NaN,NaN,NaN,NaN,NaN,NaN,NaN,8.957e-6,165,213.825,80,0,7.011,15,1013.25,340.389,0.01,0.018
0.96,-3.058e-4,-0.061,-6.116,0.062,6.21,-5.392e-5,0,5.392e-5,180,0.011,1.078,22.175,120.893,9.788,97.55,0,0,0,2.798e4,1.348e4,19.954,0.106,NaN,2019.517,NaN,0.021,1.393e6,95.934,-0.002,0.654,-0.003,0.319,0.215,0.12,NaN,NaN,NaN,NaN,NaN,NaN,NaN,NaN,8.408e-6,165,213.825,80,0,7.097,15,1013.25,340.389,0.01,0.019
0.97,-2.857e-4,-0.057,-5.714,0.058,5.802,-5.038e-5,0,5.038e-5,180,0.01,1.008,22.175,120.893,9.788,97.512,0,0,0,2.798e4,1.348e4,19.954,0.106,NaN,2019.476,NaN,0.021,1.41e6,107.326,-0.002,0.653,-0.003,0.318,0.215,0.12,NaN,NaN,NaN,NaN,NaN,NaN,NaN,NaN,7.856e-6,165,213.825,80,0,7.182,15,1013.25,340.389,0.01,0.019
0.98,-2.598e-4,-0.052,-5.196,0.053,5.276,-4.581e-5,0,4.581e-5,180,0.009,0.916,22.175,120.893,9.788,97.466,0,0,0,2.797e4,1.347e4,19.953,0.106,NaN,2019.43,NaN,0.021,1.427e6,122.033,-0.002,0.653,-0.003,0.317,0.215,0.12,NaN,NaN,NaN,NaN,NaN,NaN,NaN,NaN,7.144e-6,165,213.825,80,0,7.267,15,1013.25,340.389,0.01,0.019
0.99,-2.264e-4,-0.045,-4.527,0.046,4.597,-3.992e-5,0,3.992e-5,180,0.008,0.798,22.175,120.893,9.788,97.408,0,0,0,2.797e4,1.347e4,19.952,0.106,NaN,2019.376,NaN,0.022,1.443e6,141.022,-0.002,0.652,-0.003,0.317,0.215,0.12,NaN,NaN,NaN,NaN,NaN,NaN,NaN,NaN,6.225e-6,165,213.825,80,0,7.353,15,1013.25,340.389,0.01,0.019
1,-1.775e-4,-0.035,-3.549,0.036,3.604,-3.129e-5,0,3.129e-5,180,0.006,0.626,22.175,120.893,9.788,97.328,0,0,0,2.797e4,1.347e4,19.951,0.106,NaN,2019.312,NaN,0.022,1.46e6,168.795,-0.002,0.651,-0.003,0.316,0.215,0.12,NaN,NaN,NaN,NaN,NaN,NaN,NaN,NaN,4.879e-6,165,213.825,80,0,7.438,15,1013.25,340.389,0.01,0.019
1.01,-1.08e-4,-0.022,-2.16,0.022,2.193,-1.905e-5,0,1.905e-5,180,0.004,0.381,22.175,120.893,9.788,97.223,0,0,0,2.796e4,1.346e4,19.949,0.106,NaN,2019.232,NaN,0.022,1.442e6,208.221,-0.002,0.652,-0.003,0.317,0.215,0.12,NaN,NaN,NaN,NaN,NaN,NaN,NaN,NaN,2.97e-6,165,213.825,80,0,7.351,15,1013.25,340.389,0.01,0.02
1.02,-4.339e-5,-0.009,-0.867,0.009,0.88,-7.651e-6,0,7.651e-6,180,0.002,0.153,22.175,120.893,9.788,97.122,0,0,0,2.796e4,1.346e4,19.948,0.106,NaN,2019.139,NaN,0.021,1.425e6,244.886,-0.002,0.653,-0.003,0.317,0.215,0.12,NaN,NaN,NaN,NaN,NaN,NaN,NaN,NaN,1.193e-6,165,213.825,80,0,7.264,15,1013.25,340.389,0.01,0.02
1.03,2.652e-5,0.005,0.532,0.005,0.54,4.676e-6,0,4.676e-6,0,9.357e-4,0.094,22.175,120.893,9.788,97.01,0,0,0,2.795e4,1.345e4,19.946,0.106,NaN,2019.03,NaN,0.021,1.407e6,284.538,-0.002,0.653,-0.003,0.318,0.215,0.12,NaN,NaN,NaN,NaN,NaN,NaN,NaN,NaN,7.295e-7,165,213.825,80,0,7.176,15,1013.25,340.389,0.01,0.02
1.04,1.812e-4,0.026,2.035,0.026,2.066,3.196e-5,0,3.196e-5,0,0.005,0.359,22.175,120.893,9.788,96.844,0,0,0,2.795e4,1.345e4,19.943,0.106,NaN,2018.905,NaN,0.021,1.39e6,327.142,-0.002,0.654,-0.003,0.319,0.215,0.12,NaN,NaN,NaN,NaN,NaN,NaN,NaN,NaN,3.526e-6,165,213.825,80,0,7.089,15,1013.25,340.389,0.01,0.02
1.05,6.197e-4,0.062,3.643,0.063,3.699,1.093e-4,0,1.093e-4,0,0.011,0.642,22.175,120.893,9.788,96.541,0,0,0,2.794e4,1.344e4,19.941,0.106,NaN,2018.763,NaN,0.021,1.372e6,372.693,-0.001,0.655,-0.002,0.32,0.215,0.12,NaN,NaN,NaN,NaN,NaN,NaN,NaN,NaN,8.532e-6,165,213.825,80,0,7.001,15,1013.25,340.389,0.01,0.02
1.06,0.002,0.118,5.603,0.12,5.689,2.681e-4,0,2.681e-4,0,0.021,0.988,22.175,120.893,9.788,96.085,0,0,0,2.793e4,1.343e4,19.938,0.106,NaN,2018.599,NaN,0.021,1.381e6,428.171,-0.001,0.655,-0.002,0.319,0.215,0.12,NaN,NaN,NaN,NaN,NaN,NaN,NaN,NaN,1.623e-5,165,213.825,80,0,7.055,15,1013.25,340.389,0.01,0.02
1.07,0.003,0.193,7.537,0.196,7.653,5.427e-4,0,5.427e-4,0,0.034,1.329,22.175,120.893,9.788,95.477,0,0,0,2.792e4,1.342e4,19.935,0.106,NaN,2018.415,NaN,0.021,1.39e6,482.882,-8.919e-4,0.654,-0.001,0.319,0.215,0.12,NaN,NaN,NaN,NaN,NaN,NaN,NaN,NaN,2.659e-5,165,213.825,80,0,7.109,15,1013.25,340.389,0.01,0.021
1.08,0.005,0.291,9.756,0.295,9.907,9.697e-4,0,9.697e-4,0,0.051,1.72,22.175,120.893,9.788,94.697,0,0,0,2.791e4,1.341e4,19.931,0.106,NaN,2018.206,NaN,0.021,1.399e6,545.617,-5.742e-4,0.654,-8.619e-4,0.319,0.215,0.12,NaN,NaN,NaN,NaN,NaN,NaN,NaN,NaN,4e-5,165,213.825,80,0,7.162,15,1013.249,340.389,0.01,0.021
1.09,0.009,0.414,12.278,0.42,12.468,0.002,0,0.002,0,0.073,2.165,22.175,120.893,9.788,93.723,0,0,0,2.79e4,1.34e4,19.927,0.106,NaN,2017.969,NaN,0.021,1.407e6,616.859,-2.923e-4,0.653,-4.334e-4,0.318,0.215,0.12,NaN,NaN,NaN,NaN,NaN,NaN,NaN,NaN,5.687e-5,165,213.825,80,0,7.216,15,1013.249,340.389,0.01,0.021
1.1,0.014,0.565,15.164,0.574,15.398,0.002,0,0.002,0,0.1,2.674,22.175,120.893,9.788,92.529,0,0,0,2.789e4,1.339e4,19.922,0.106,NaN,2017.702,NaN,0.021,1.416e6,698.307,-9.392e-5,0.653,-1.375e-4,0.318,0.215,0.12,NaN,NaN,NaN,NaN,NaN,NaN,NaN,NaN,7.771e-5,165,213.825,80,0,7.27,15,1013.248,340.389,0.01,0.021
1.11,0.02,0.747,18.205,0.759,18.485,0.004,0,0.004,0,0.132,3.21,22.175,120.893,9.788,91.053,0,0,0,2.788e4,1.338e4,19.917,0.106,NaN,2017.401,NaN,0.021,1.413e6,784.022,-6.849e-6,0.653,-1.008e-5,0.318,0.215,0.12,NaN,NaN,NaN,NaN,NaN,NaN,NaN,NaN,1.027e-4,165,213.825,80,0,7.257,15,1013.248,340.389,0.01,0.021
1.12,0.029,0.96,21.325,0.975,21.654,0.005,0,0.005,0,0.169,3.76,22.175,120.893,9.788,89.318,0,0,0,2.786e4,1.336e4,19.911,0.106,NaN,2017.066,NaN,0.021,1.41e6,871.849,1.863e-6,0.653,2.751e-6,0.318,0.215,0.12,NaN,NaN,NaN,NaN,NaN,NaN,NaN,NaN,1.32e-4,165,213.825,80,0,7.245,15,1013.247,340.389,0.01,0.022
1.13,0.04,1.205,24.499,1.224,24.877,0.007,0,0.007,0,0.213,4.32,22.175,120.893,9.788,87.322,0,0,0,2.784e4,1.334e4,19.904,0.106,NaN,2016.696,NaN,0.021,1.409e6,961.049,1.103e-4,0.653,1.631e-4,0.318,0.215,0.12,NaN,NaN,NaN,NaN,NaN,NaN,NaN,NaN,1.657e-4,165,213.825,80,0,7.233,15,1013.245,340.389,0.01,0.022
1.14,0.053,1.479,27.39,1.502,27.813,0.009,0,0.009,0,0.261,4.83,22.175,120.893,9.788,85.092,0,0,0,2.782e4,1.332e4,19.897,0.106,NaN,2016.295,NaN,0.021,1.411e6,1042.073,6.639e-4,0.653,9.8e-4,0.318,0.215,0.12,NaN,NaN,NaN,NaN,NaN,NaN,NaN,NaN,2.033e-4,165,213.825,80,0,7.22,15,1013.244,340.389,0.01,0.022
1.15,0.07,1.778,29.895,1.805,30.356,0.012,0,0.012,0,0.313,5.271,22.175,120.893,9.788,82.67,0,0,0,2.78e4,1.33e4,19.889,0.106,NaN,2015.866,NaN,0.021,1.414e6,1112.029,0.002,0.653,0.003,0.318,0.215,0.12,NaN,NaN,NaN,NaN,NaN,NaN,NaN,NaN,2.444e-4,165,213.825,80,0,7.208,15,1013.242,340.389,0.01,0.022
1.16,0.089,2.098,32.07,2.131,32.565,0.016,0,0.016,0,0.37,5.655,22.175,120.893,9.788,80.044,0,0,0,2.778e4,1.328e4,19.881,0.106,NaN,2015.413,NaN,0.021,1.418e6,1172.553,0.005,0.653,0.008,0.318,0.215,0.12,NaN,NaN,NaN,NaN,NaN,NaN,NaN,NaN,2.885e-4,165,213.825,80,0,7.174,14.999,1013.24,340.389,0.01,0.022
1.17,0.112,2.436,33.793,2.474,34.314,0.02,0,0.02,0,0.43,5.959,22.175,120.893,9.788,77.3,0,0,0,2.776e4,1.326e4,19.873,0.105,NaN,2014.941,NaN,0.021,1.425e6,1220.187,0.011,0.653,0.016,0.317,0.215,0.12,NaN,NaN,NaN,NaN,NaN,NaN,NaN,NaN,3.349e-4,165,213.825,80,0,7.14,14.999,1013.237,340.388,0.01,0.022
1.18,0.138,2.787,35.058,2.83,35.598,0.024,0,0.024,0,0.491,6.182,22.175,120.893,9.788,74.493,0,0,0,2.774e4,1.324e4,19.864,0.105,NaN,2014.455,NaN,0.022,1.435e6,1254.818,0.019,0.652,0.027,0.317,0.215,0.12,NaN,NaN,NaN,NaN,NaN,NaN,NaN,NaN,3.831e-4,165,213.825,80,0,7.107,14.999,1013.234,340.388,0.01,0.023
1.19,0.167,3.145,35.852,3.193,36.405,0.03,0,0.03,0,0.555,6.322,22.175,120.893,9.788,71.674,0,0,0,2.771e4,1.321e4,19.855,0.105,NaN,2013.959,NaN,0.022,1.45e6,1276.135,0.031,0.652,0.044,0.316,0.215,0.12,NaN,NaN,NaN,NaN,NaN,NaN,NaN,NaN,4.324e-4,165,213.825,80,0,7.073,14.999,1013.23,340.388,0.01,0.023
1.2,0.201,3.509,36.4,3.563,36.961,0.035,0,0.035,0,0.619,6.418,22.175,120.893,9.788,68.879,0,0,0,2.769e4,1.319e4,19.846,0.105,NaN,2013.458,NaN,0.022,1.469e6,1290.479,0.047,0.651,0.064,0.316,0.215,0.12,NaN,NaN,NaN,NaN,NaN,NaN,NaN,NaN,4.824e-4,165,213.825,80,0,7.039,14.999,1013.226,340.388,0.01,0.023
1.21,0.238,3.876,36.704,3.935,37.27,0.042,0,0.042,0,0.683,6.472,22.175,120.893,9.788,66.292,0,0,0,2.767e4,1.317e4,19.837,0.105,NaN,2012.952,NaN,0.022,1.498e6,1297.933,0.067,0.65,0.088,0.314,0.215,0.12,NaN,NaN,NaN,NaN,NaN,NaN,NaN,NaN,5.328e-4,165,213.825,80,0,7.045,14.998,1013.222,340.388,0.01,0.023
1.22,0.278,4.243,36.763,4.308,37.33,0.049,0,0.049,0,0.748,6.482,22.175,120.893,9.788,63.804,0,0,0,2.764e4,1.314e4,19.828,0.105,NaN,2012.446,NaN,0.023,1.529e6,1298.512,0.091,0.648,0.114,0.313,0.215,0.12,NaN,NaN,NaN,NaN,NaN,NaN,NaN,NaN,5.833e-4,165,213.825,80,0,7.051,14.998,1013.217,340.388,0.01,0.023
1.23,0.322,4.611,36.806,4.682,37.374,0.057,0,0.057,0,0.813,6.49,22.175,120.893,9.788,61.419,0,0,0,2.762e4,1.312e4,19.819,0.105,NaN,2011.938,NaN,0.023,1.564e6,1298.633,0.119,0.647,0.143,0.312,0.215,0.12,NaN,NaN,NaN,NaN,NaN,NaN,NaN,NaN,6.339e-4,165,213.825,80,0,7.057,14.998,1013.212,340.388,0.01,0.024
1.24,0.37,4.978,36.713,5.055,37.28,0.065,0,0.065,0,0.878,6.474,22.175,120.893,9.788,59.147,0,0,0,2.76e4,1.31e4,19.81,0.105,NaN,2011.431,NaN,0.024,1.601e6,1294.965,0.151,0.646,0.173,0.31,0.215,0.12,NaN,NaN,NaN,NaN,NaN,NaN,NaN,NaN,6.844e-4,165,213.825,80,0,7.063,14.998,1013.207,340.387,0.01,0.024
1.25,0.422,5.344,36.629,5.426,37.194,0.074,0,0.074,0,0.942,6.459,22.175,120.893,9.788,56.986,0,0,0,2.757e4,1.307e4,19.801,0.105,NaN,2010.925,NaN,0.025,1.641e6,1291.53,0.188,0.644,0.205,0.309,0.215,0.12,NaN,NaN,NaN,NaN,NaN,NaN,NaN,NaN,7.347e-4,165,213.825,80,0,7.069,14.997,1013.201,340.387,0.01,0.024
1.26,0.477,5.709,36.542,5.797,37.106,0.084,0,0.084,0,1.007,6.443,22.175,120.893,9.788,54.361,0,0,0,2.755e4,1.305e4,19.792,0.105,NaN,2010.419,NaN,0.025,1.664e6,1288.052,0.233,0.643,0.247,0.308,0.215,0.12,NaN,NaN,NaN,NaN,NaN,NaN,NaN,NaN,7.849e-4,165,213.825,80,0,6.948,14.997,1013.194,340.387,0.01,0.024
1.27,0.536,6.073,36.431,6.167,36.993,0.095,0,0.095,0,1.071,6.424,22.175,120.893,9.788,51.819,0,0,0,2.753e4,1.303e4,19.783,0.105,NaN,2009.914,NaN,0.025,1.69e6,1283.912,0.283,0.643,0.291,0.307,0.215,0.12,NaN,NaN,NaN,NaN,NaN,NaN,NaN,NaN,8.35e-4,165,213.825,80,0,6.828,14.997,1013.187,340.387,0.01,0.024
1.28,0.599,6.437,36.398,6.536,36.96,0.106,0,0.106,0,1.135,6.418,22.175,120.893,9.788,49.362,0,0,0,2.75e4,1.3e4,19.774,0.105,NaN,2009.409,NaN,0.026,1.72e6,1281.967,0.338,0.642,0.335,0.306,0.215,0.12,NaN,NaN,NaN,NaN,NaN,NaN,NaN,NaN,8.85e-4,165,213.825,80,0,6.707,14.996,1013.18,340.387,0.01,0.024
1.29,0.665,6.8,36.316,6.905,36.876,0.117,0,0.117,0,1.199,6.403,22.175,120.893,9.788,46.996,0,0,0,2.748e4,1.298e4,19.765,0.105,NaN,2008.904,NaN,0.026,1.753e6,1278.651,0.398,0.64,0.38,0.305,0.215,0.12,NaN,NaN,NaN,NaN,NaN,NaN,NaN,NaN,9.349e-4,165,213.825,80,0,6.586,14.996,1013.172,340.386,0.01,0.025
1.3,0.735,7.163,36.275,7.273,36.834,0.13,0,0.13,0,1.263,6.396,22.175,120.893,9.788,44.723,0,0,0,2.746e4,1.296e4,19.756,0.105,NaN,2008.399,NaN,0.027,1.788e6,1276.485,0.462,0.639,0.424,0.304,0.215,0.12,NaN,NaN,NaN,NaN,NaN,NaN,NaN,NaN,9.847e-4,165,213.825,80,0,6.466,14.995,1013.164,340.386,0.01,0.025
1.31,0.808,7.525,36.269,7.641,36.829,0.142,0,0.142,0,1.327,6.395,22.175,120.893,9.788,42.87,0,0,0,2.743e4,1.293e4,19.747,0.105,NaN,2007.894,NaN,0.027,1.834e6,1275.318,0.527,0.638,0.46,0.303,0.215,0.12,NaN,NaN,NaN,NaN,NaN,NaN,NaN,NaN,0.001,165,213.825,80,0,6.411,14.995,1013.155,340.386,0.01,0.025
1.32,0.885,7.887,36.241,8.009,36.8,0.156,0,0.156,0,1.391,6.39,22.175,120.893,9.788,41.11,0,0,0,2.741e4,1.291e4,19.738,0.105,NaN,2007.388,NaN,0.028,1.881e6,1273.528,0.596,0.636,0.495,0.301,0.215,0.12,NaN,NaN,NaN,NaN,NaN,NaN,NaN,NaN,0.001,165,213.825,80,0,6.356,14.994,1013.146,340.385,0.01,0.025
1.33,0.966,8.25,36.29,8.377,36.85,0.17,0,0.17,0,1.455,6.399,22.175,120.893,9.788,39.436,0,0,0,2.739e4,1.289e4,19.729,0.105,NaN,2006.882,NaN,0.029,1.931e6,1273.891,0.669,0.635,0.527,0.3,0.215,0.12,NaN,NaN,NaN,NaN,NaN,NaN,NaN,NaN,0.001,165,213.825,80,0,6.301,14.994,1013.137,340.385,0.01,0.025
1.34,1.05,8.613,36.267,8.745,36.826,0.185,0,0.185,0,1.519,6.395,22.175,120.893,9.788,37.848,0,0,0,2.736e4,1.286e4,19.72,0.105,NaN,2006.376,NaN,0.03,1.981e6,1272.247,0.745,0.634,0.558,0.298,0.215,0.12,NaN,NaN,NaN,NaN,NaN,NaN,NaN,NaN,0.001,165,213.825,80,0,6.247,14.993,1013.127,340.385,0.01,0.026
1.35,1.138,8.975,36.276,9.114,36.836,0.201,0,0.201,0,1.583,6.397,22.175,120.893,9.788,36.34,0,0,0,2.734e4,1.284e4,19.711,0.105,NaN,2005.868,NaN,0.03,2.034e6,1271.517,0.825,0.632,0.586,0.297,0.215,0.12,NaN,NaN,NaN,NaN,NaN,NaN,NaN,NaN,0.001,165,213.825,80,0,6.192,14.993,1013.117,340.384,0.01,0.026
1.36,1.23,9.338,36.313,9.482,36.873,0.217,0,0.217,0,1.647,6.403,22.175,120.893,9.788,34.768,0,0,0,2.732e4,1.282e4,19.702,0.105,NaN,2005.361,NaN,0.031,2.085e6,1271.539,0.909,0.631,0.614,0.295,0.215,0.12,NaN,NaN,NaN,NaN,NaN,NaN,NaN,NaN,0.001,165,213.825,80,0,6.108,14.992,1013.106,340.384,0.01,0.026
1.37,1.325,9.701,36.328,9.851,36.889,0.234,0,0.234,0,1.711,6.406,22.175,120.893,9.788,33.272,0,0,0,2.729e4,1.279e4,19.693,0.105,NaN,2004.852,NaN,0.032,2.137e6,1270.983,0.996,0.629,0.641,0.294,0.215,0.12,NaN,NaN,NaN,NaN,NaN,NaN,NaN,NaN,0.001,165,213.825,80,0,6.024,14.991,1013.095,340.384,0.01,0.026
1.38,1.424,10.065,36.443,10.221,37.005,0.251,0,0.251,0,1.775,6.426,22.175,120.893,9.788,31.846,0,0,0,2.727e4,1.277e4,19.684,0.105,NaN,2004.342,NaN,0.033,2.191e6,1273.167,1.087,0.628,0.665,0.293,0.215,0.12,NaN,NaN,NaN,NaN,NaN,NaN,NaN,NaN,0.001,165,213.825,80,0,5.94,14.991,1013.083,340.383,0.01,0.026
1.39,1.526,10.43,36.483,10.591,37.045,0.269,0,0.269,0,1.839,6.433,22.175,120.893,9.788,30.488,0,0,0,2.725e4,1.275e4,19.675,0.105,NaN,2003.83,NaN,0.034,2.246e6,1273.278,1.179,0.627,0.686,0.291,0.215,0.12,NaN,NaN,NaN,NaN,NaN,NaN,NaN,NaN,0.001,165,213.825,80,0,5.856,14.99,1013.071,340.383,0.01,0.026
1.4,1.632,10.796,36.568,10.962,37.133,0.288,0,0.288,0,1.904,6.448,22.175,120.893,9.788,29.193,0,0,0,2.723e4,1.273e4,19.666,0.105,NaN,2003.318,NaN,0.035,2.303e6,1274.663,1.274,0.625,0.705,0.29,0.215,0.12,NaN,NaN,NaN,NaN,NaN,NaN,NaN,NaN,0.001,165,213.825,80,0,5.773,14.989,1013.059,340.382,0.01,0.027
1.41,1.742,11.162,36.674,11.334,37.24,0.307,0,0.307,0,1.968,6.467,22.175,120.893,9.788,27.697,0,0,0,2.72e4,1.27e4,19.657,0.105,NaN,2002.803,NaN,0.035,2.357e6,1276.588,1.374,0.624,0.726,0.289,0.215,0.12,NaN,NaN,NaN,NaN,NaN,NaN,NaN,NaN,0.002,165,213.825,80,0,5.63,14.989,1013.046,340.382,0.01,0.027
1.42,1.856,11.529,36.741,11.707,37.307,0.327,0,0.327,0,2.033,6.478,22.175,120.893,9.788,26.268,0,0,0,2.718e4,1.268e4,19.648,0.105,NaN,2002.288,NaN,0.036,2.413e6,1277.444,1.476,0.623,0.744,0.288,0.215,0.12,NaN,NaN,NaN,NaN,NaN,NaN,NaN,NaN,0.002,165,213.825,80,0,5.487,14.988,1013.032,340.382,0.01,0.027
1.43,1.973,11.898,36.874,12.081,37.443,0.348,0,0.348,0,2.098,6.502,22.175,120.893,9.788,24.901,0,0,0,2.716e4,1.266e4,19.639,0.105,NaN,2001.77,NaN,0.037,2.47e6,1280.14,1.581,0.623,0.761,0.288,0.215,0.12,NaN,NaN,NaN,NaN,NaN,NaN,NaN,NaN,0.002,165,213.825,80,0,5.344,14.987,1013.019,340.381,0.01,0.027
1.44,2.094,12.267,36.93,12.456,37.499,0.369,0,0.369,0,2.163,6.512,22.175,120.893,9.788,23.595,0,0,0,2.713e4,1.263e4,19.629,0.105,NaN,2001.252,NaN,0.038,2.529e6,1280.681,1.688,0.623,0.775,0.288,0.215,0.12,NaN,NaN,NaN,NaN,NaN,NaN,NaN,NaN,0.002,165,213.825,80,0,5.201,14.986,1013.004,340.381,0.01,0.027
1.45,2.218,12.637,37.037,12.832,37.609,0.391,0,0.391,0,2.228,6.531,22.175,120.893,9.788,22.348,0,0,0,2.711e4,1.261e4,19.62,0.105,NaN,2000.731,NaN,0.039,2.589e6,1282.653,1.795,0.623,0.787,0.288,0.215,0.12,NaN,NaN,NaN,NaN,NaN,NaN,NaN,NaN,0.002,165,213.825,80,0,5.058,14.986,1012.99,340.38,0.01,0.028
1.46,2.346,13.009,37.154,13.209,37.727,0.414,0,0.414,0,2.294,6.551,22.175,120.893,9.788,22.197,0,0,0,2.709e4,1.259e4,19.611,0.104,NaN,2000.209,NaN,0.04,2.663e6,1284.861,1.903,0.623,0.788,0.288,0.215,0.12,NaN,NaN,NaN,NaN,NaN,NaN,NaN,NaN,0.002,165,213.825,80,0,5.17,14.985,1012.975,340.38,0.01,0.028
1.47,2.478,13.38,37.206,13.587,37.78,0.437,0,0.437,0,2.359,6.56,22.175,120.893,9.788,22.053,0,0,0,2.706e4,1.256e4,19.602,0.104,NaN,1999.686,NaN,0.041,2.737e6,1285.292,2.013,0.623,0.789,0.288,0.215,0.12,NaN,NaN,NaN,NaN,NaN,NaN,NaN,NaN,0.002,165,213.825,80,0,5.281,14.984,1012.959,340.379,0.01,0.028
1.48,2.614,13.754,37.326,13.966,37.901,0.461,0,0.461,0,2.425,6.582,22.175,120.893,9.788,21.915,0,0,0,2.704e4,1.254e4,19.592,0.104,NaN,1999.161,NaN,0.042,2.812e6,1287.587,2.128,0.623,0.79,0.288,0.215,0.12,NaN,NaN,NaN,NaN,NaN,NaN,NaN,NaN,0.002,165,213.825,80,0,5.393,14.983,1012.943,340.379,0.01,0.028
1.49,2.753,14.127,37.371,14.345,37.947,0.485,0,0.485,0,2.491,6.589,22.175,120.893,9.788,21.783,0,0,0,2.702e4,1.252e4,19.583,0.104,NaN,1998.635,NaN,0.043,2.886e6,1287.832,2.245,0.623,0.791,0.288,0.215,0.12,NaN,NaN,NaN,NaN,NaN,NaN,NaN,NaN,0.002,165,213.825,80,0,5.504,14.982,1012.927,340.378,0.01,0.028
1.5,2.896,14.501,37.44,14.725,38.018,0.511,0,0.511,0,2.557,6.602,22.175,120.893,9.788,21.657,0,0,0,2.699e4,1.249e4,19.574,0.104,NaN,1998.108,NaN,0.044,2.961e6,1288.735,2.366,0.623,0.792,0.288,0.215,0.12,NaN,NaN,NaN,NaN,NaN,NaN,NaN,NaN,0.002,165,213.825,80,0,5.616,14.981,1012.91,340.377,0.01,0.028
1.51,3.043,14.876,37.521,15.106,38.099,0.537,0,0.537,0,2.623,6.616,22.175,120.893,9.788,21.201,0,0,0,2.697e4,1.247e4,19.564,0.104,NaN,1997.579,NaN,0.045,3.031e6,1289.948,2.49,0.623,0.795,0.288,0.215,0.12,NaN,NaN,NaN,NaN,NaN,NaN,NaN,NaN,0.002,165,213.825,80,0,5.634,14.98,1012.893,340.377,0.01,0.029
1.52,3.194,15.251,37.536,15.487,38.115,0.563,0,0.563,0,2.689,6.619,22.175,120.893,9.788,20.766,0,0,0,2.695e4,1.244e4,19.555,0.104,NaN,1997.049,NaN,0.046,3.102e6,1289.376,2.616,0.623,0.798,0.288,0.215,0.12,NaN,NaN,NaN,NaN,NaN,NaN,NaN,NaN,0.002,165,213.825,80,0,5.652,14.979,1012.875,340.376,0.01,0.029
1.53,3.348,15.628,37.674,15.869,38.256,0.59,0,0.59,0,2.756,6.643,22.175,120.893,9.788,20.349,0,0,0,2.692e4,1.242e4,19.546,0.104,NaN,1996.518,NaN,0.048,3.173e6,1292.164,2.746,0.623,0.801,0.288,0.215,0.12,NaN,NaN,NaN,NaN,NaN,NaN,NaN,NaN,0.002,165,213.825,80,0,5.67,14.978,1012.857,340.376,0.01,0.029
1.54,3.507,16.005,37.743,16.252,38.325,0.618,0,0.618,0,2.822,6.655,22.175,120.893,9.788,19.949,0,0,0,2.69e4,1.24e4,19.536,0.104,NaN,1995.985,NaN,0.049,3.244e6,1293.051,2.878,0.623,0.803,0.288,0.215,0.12,NaN,NaN,NaN,NaN,NaN,NaN,NaN,NaN,0.002,165,213.825,80,0,5.688,14.977,1012.839,340.375,0.01,0.029
1.55,3.668,16.384,37.847,16.636,38.431,0.647,0,0.647,0,2.889,6.673,22.175,120.893,9.788,19.565,0,0,0,2.687e4,1.237e4,19.527,0.104,NaN,1995.451,NaN,0.05,3.316e6,1294.89,3.013,0.623,0.805,0.288,0.215,0.12,NaN,NaN,NaN,NaN,NaN,NaN,NaN,NaN,0.002,165,213.825,80,0,5.707,14.976,1012.82,340.374,0.01,0.029
1.56,3.834,16.763,37.97,17.022,38.556,0.676,0,0.676,0,2.956,6.695,22.175,120.893,9.788,19.529,0,0,0,2.685e4,1.235e4,19.517,0.104,NaN,1994.914,NaN,0.051,3.392e6,1297.251,3.155,0.623,0.805,0.288,0.215,0.12,NaN,NaN,NaN,NaN,NaN,NaN,NaN,NaN,0.002,165,213.825,80,0,5.828,14.975,1012.8,340.374,0.01,0.03
1.57,4.004,17.143,37.989,17.407,38.575,0.706,0,0.706,0,3.023,6.698,22.175,120.893,9.788,19.493,0,0,0,2.683e4,1.233e4,19.508,0.104,NaN,1994.377,NaN,0.052,3.468e6,1296.778,3.299,0.623,0.805,0.288,0.215,0.12,NaN,NaN,NaN,NaN,NaN,NaN,NaN,NaN,0.002,165,213.825,80,0,5.948,14.974,1012.78,340.373,0.01,0.03
1.585,4.265,17.708,37.698,17.987,38.781,0.752,-7.641e-5,0.752,-0.006,3.159,9.1,22.175,120.893,9.788,19.346,0,-0.019,3.045e-5,2.679e4,1.229e4,19.493,0.104,1978.139,1993.568,-0.094,0.054,3.581e6,1298.654,3.52,0.624,0.806,0.288,0.215,0.12,6.059,-0.566,4.422e-4,0,0,0,0,-1.198e-6,0.002,165,213.825,80,-5.813e-4,6.13,14.972,1012.75,340.372,0.015,0.03
1.608,4.673,18.559,37.89,18.862,38.984,0.826,-4.917e-4,0.826,-0.034,3.364,9.172,22.175,120.893,9.788,18.807,0,-0.044,1.828e-4,2.674e4,1.224e4,19.472,0.104,1982.64,1992.348,-0.059,0.056,3.746e6,1301.804,3.862,0.624,0.808,0.288,0.215,0.12,5.827,-0.342,3.914e-4,0,0,0,0,-6.089e-6,0.003,165,213.825,79.999,-0.004,6.29,14.97,1012.702,340.37,0.023,0.03
1.641,5.321,19.847,38.222,20.184,39.32,0.944,-0.002,0.944,-0.111,3.674,9.226,22.175,120.893,9.788,17.146,0,-0.047,4.507e-4,2.666e4,1.216e4,19.439,0.104,1997.358,1990.501,0.042,0.06,3.985e6,1307.398,4.385,0.624,0.811,0.288,0.215,0.12,5.135,0.213,-1.035e-4,0,0,0,0,-6.105e-6,0.003,165,213.825,79.998,-0.01,6.195,14.965,1012.626,340.368,0.034,0.03
1.691,6.362,21.773,38.62,22.163,39.744,1.14,-0.005,1.14,-0.272,4.139,9.385,22.175,120.893,9.788,16.26,0,0.013,6.921e-4,2.654e4,1.204e4,19.39,0.104,2005.806,1987.731,0.11,0.065,4.361e6,1313.533,5.247,0.624,0.81,0.288,0.215,0.121,4.778,0.523,-4.808e-4,0,0,0,0,3.693e-7,0.003,165,213.825,79.997,-0.015,6.547,14.959,1012.504,340.364,0.05,0.03
1.741,7.499,23.728,39.181,24.172,40.325,1.358,-0.011,1.358,-0.468,4.613,9.539,22.175,120.893,9.788,15.102,0,0.129,1.021e-4,2.642e4,1.192e4,19.34,0.104,2017.493,1984.915,0.197,0.071,4.739e6,1323.765,6.155,0.624,0.805,0.288,0.216,0.121,4.326,0.854,-1.756e-4,0,0,0,0,3.283e-5,0.003,165,213.825,80,-0.001,6.738,14.951,1012.37,340.359,0.05,0.031
1.791,8.735,25.713,39.797,26.213,40.955,1.601,-0.019,1.601,-0.683,5.094,9.668,22.175,120.893,9.788,13.787,0,0.336,-0.002,2.63e4,1.18e4,19.29,0.103,2031.72,1982.048,0.301,0.077,5.12e6,1335.184,7.09,0.624,0.794,0.288,0.216,0.121,3.832,1.154,2.051e-4,0,0,0,0,1.894e-4,0.004,165,213.825,80.007,0.047,6.793,14.943,1012.226,340.354,0.05,0.031
1.841,10.071,27.731,40.451,28.287,41.632,1.868,-0.029,1.868,-0.905,5.583,9.847,22.175,120.893,9.788,13.106,0,0.63,-0.006,2.617e4,1.167e4,19.238,0.103,2039.562,1979.127,0.366,0.083,5.516e6,1347.677,8.152,0.624,0.787,0.288,0.216,0.121,3.584,1.312,2.886e-4,0,0,0,0,5.754e-4,0.004,165,213.825,80.023,0.148,7.086,14.935,1012.069,340.349,0.05,0.031
1.891,11.509,29.789,41.265,30.402,42.439,2.159,-0.042,2.159,-1.126,6.079,9.915,22.175,120.893,9.788,11.452,0,1.019,-0.016,2.605e4,1.155e4,19.185,0.103,2059.874,1976.143,0.507,0.089,5.91e6,1363.475,9.102,0.624,0.765,0.288,0.216,0.121,3.006,1.524,3.641e-4,0,0,0,0,0.001,0.004,165,213.825,80.05,0.324,6.836,14.925,1011.9,340.344,0.05,0.031
1.941,13.051,31.88,41.944,32.551,43.104,2.475,-0.058,2.476,-1.339,6.577,9.932,22.175,120.893,9.788,9.927,-4.744e-7,1.518,-0.035,2.593e4,1.143e4,19.132,0.103,2080.473,1973.105,0.651,0.095,6.314e6,1375.364,10.076,0.625,0.742,0.288,0.216,0.121,2.505,1.627,-4.759e-4,0,0,0,0,0.003,0.004,165,213.825,80.092,0.599,6.556,14.915,1011.719,340.337,0.05,0.031
1.991,14.698,34.01,42.728,34.738,43.858,2.816,-0.076,2.817,-1.536,7.075,9.892,22.175,120.893,9.788,8.185,-7.109e-7,2.104,-0.074,2.58e4,1.13e4,19.077,0.103,2106.495,1970.006,0.827,0.101,6.728e6,1389.417,11.007,0.625,0.713,0.288,0.216,0.121,1.969,1.624,4.605e-4,0,0,0,0,0.004,0.005,165,213.825,80.15,0.999,6.052,14.904,1011.526,340.331,0.05,0.032
2.041,16.453,36.19,43.709,36.975,44.861,3.182,-0.095,3.183,-1.713,7.577,10.102,22.175,120.893,9.788,8.276,-3.813e-7,2.769,-0.077,2.567e4,1.117e4,19.021,0.102,2105.135,1966.831,0.838,0.107,7.16e6,1409.711,12.497,0.625,0.715,0.288,0.216,0.121,1.996,1.667,1.074e-4,0,0,0,0,0.007,0.005,165,213.825,80.227,1.55,6.617,14.893,1011.32,340.324,0.05,0.032
2.091,18.318,38.414,44.597,39.256,45.746,3.573,-0.117,3.574,-1.871,8.087,10.189,22.175,120.893,9.788,7.821,-6.028e-7,3.544,-0.105,2.554e4,1.104e4,18.964,0.102,2112.442,1963.584,0.902,0.114,7.599e6,1426.753,13.934,0.625,0.708,0.287,0.216,0.122,1.862,1.67,-4.294e-4,0,0,0,0,0.01,0.005,165,213.825,80.325,2.282,6.861,14.881,1011.102,340.317,0.05,0.032
2.141,20.295,40.669,45.231,41.568,46.354,3.989,-0.14,3.992,-2.013,8.598,10.139,22.175,120.893,9.788,7.047,-1.356e-6,4.402,-0.159,2.541e4,1.091e4,18.906,0.102,2125.295,1960.282,1,0.121,8.043e6,1436.554,15.341,0.626,0.696,0.287,0.216,0.122,1.641,1.628,3.73e-5,0,0,0,0,0.013,0.006,165,213.825,80.445,3.23,6.876,14.868,1010.87,340.309,0.05,0.032
2.191,22.386,42.961,45.972,43.915,47.046,4.431,-0.165,4.434,-2.134,9.103,9.995,22.175,120.893,9.788,5.932,-1.774e-6,5.317,-0.273,2.528e4,1.078e4,18.847,0.102,2144.971,1956.918,1.14,0.127,8.495e6,1448.404,16.695,0.626,0.679,0.287,0.216,0.122,1.336,1.505,-3.947e-4,0,0,0,0,0.017,0.006,165,213.825,80.586,4.429,6.607,14.854,1010.625,340.301,0.05,0.032
2.241,24.592,45.292,46.757,46.298,47.78,4.898,-0.191,4.902,-2.232,9.601,9.835,22.175,120.893,9.788,4.953,-3.215e-6,6.238,-0.431,2.515e4,1.065e4,18.787,0.102,2163.495,1953.489,1.273,0.134,8.956e6,1461.178,18.182,0.626,0.665,0.287,0.217,0.122,1.082,1.356,2.249e-4,0,0,0,0,0.021,0.006,165,213.825,80.747,5.912,6.395,14.84,1010.366,340.292,0.05,0.032
2.291,26.916,47.651,47.345,48.707,48.293,5.389,-0.217,5.394,-2.302,10.085,9.525,22.175,120.893,9.788,3.583,-5.951e-6,7.092,-0.85,2.501e4,1.051e4,18.726,0.101,2191.527,1950.006,1.464,0.142,9.425e6,1468.288,19.638,0.627,0.648,0.287,0.217,0.123,0.749,1.071,1.932e-4,0,0,0,0,0.025,0.007,165,213.825,80.922,7.706,5.8,14.825,1010.093,340.283,0.05,0.033
2.341,29.357,50.019,47.495,51.119,48.376,5.905,-0.241,5.91,-2.34,10.548,9.19,22.175,120.893,9.788,2.592,-5.683e-6,7.748,-1.454,2.488e4,1.038e4,18.664,0.101,2213.578,1946.495,1.619,0.149,9.897e6,1464.702,21.342,0.627,0.639,0.287,0.217,0.123,0.524,0.822,-1.06e-4,0,0,0,0,0.027,0.007,165,213.825,81.104,9.815,5.449,14.809,1009.807,340.273,0.05,0.033
2.391,31.917,52.392,47.611,53.533,48.432,6.443,-0.264,6.448,-2.343,10.993,8.883,22.175,120.893,9.788,1.826,-8.889e-6,8.152,-2.4,2.475e4,1.025e4,18.602,0.101,2231.759,1942.956,1.75,0.156,1.037e7,1460.577,23.232,0.627,0.633,0.287,0.217,0.123,0.36,0.602,-2.769e-4,0,0,0,0,0.027,0.007,165,213.825,81.282,12.229,5.243,14.793,1009.507,340.263,0.05,0.033
2.441,34.597,54.774,47.762,55.952,48.537,7.003,-0.283,7.009,-2.311,11.42,8.638,22.175,120.893,9.788,1.331,-6.98e-6,8.25,-3.532,2.461e4,1.011e4,18.539,0.101,2244.1,1939.385,1.847,0.163,1.084e7,1457.734,25.299,0.628,0.631,0.287,0.217,0.123,0.258,0.45,3.916e-4,0,0,0,0,0.025,0.008,165,213.825,81.446,14.927,5.261,14.775,1009.192,340.253,0.05,0.033
2.491,37.394,57.142,47.492,58.353,48.22,7.584,-0.297,7.59,-2.243,11.827,8.347,22.175,120.893,9.788,0.849,-7.545e-6,7.085,-6.057,2.448e4,9982.7,18.477,0.101,2256.584,1935.809,1.944,0.17,1.131e7,1444.705,27.472,0.628,0.63,0.287,0.217,0.124,0.161,0.296,4.775e-5,0,0,0,0,0.017,0.008,165,213.825,81.589,17.878,5.206,14.757,1008.864,340.242,0.05,0.033
2.541,40.311,59.51,47.476,60.751,48.169,8.185,-0.306,8.191,-2.139,12.216,8.14,22.175,120.893,9.788,0.596,-1.28e-5,1.418,-9.364,2.435e4,9851.919,18.414,0.1,2263.374,1932.21,2.007,0.177,1.178e7,1438.362,29.787,0.629,0.629,0.287,0.218,0.124,0.112,0.225,-9.094e-5,0,0,0,0,6.366e-4,0.008,165,213.825,81.701,21.023,5.14,14.738,1008.522,340.23,0.05,0.034
2.591,43.345,61.871,47.318,63.138,47.998,8.805,-0.307,8.811,-1.999,12.588,8.048,22.175,120.893,9.788,0.518,-8.59e-6,1.535,-9.359,2.422e4,9721.977,18.351,0.1,2265.575,1928.595,2.042,0.184,1.224e7,1429.136,32.179,0.629,0.63,0.287,0.218,0.124,0.097,0.198,3.467e-4,0,0,0,0,6.91e-4,0.009,165,213.825,81.775,24.281,5.655,14.718,1008.166,340.218,0.05,0.034
2.641,46.498,64.246,47.62,65.538,48.288,9.444,-0.301,9.448,-1.824,12.95,8.001,22.175,120.893,9.788,0.735,-1.295e-5,-5.905,-7.347,2.409e4,9591.843,18.287,0.1,2259.952,1924.936,2.03,0.191,1.27e7,1431.244,34.754,0.63,0.631,0.287,0.218,0.125,0.139,0.292,-3.877e-4,0,0,0,0,-0.009,0.009,165,213.825,81.81,27.591,5.549,14.698,1007.797,340.206,0.05,0.034
2.691,49.77,66.631,47.803,67.945,48.473,10.1,-0.284,10.104,-1.613,13.296,8.03,22.175,120.893,9.788,1.064,-2.281e-5,-7.283,-5.297,2.396e4,9461.748,18.222,0.1,2251.563,1921.238,2.002,0.198,1.317e7,1430.823,37.47,0.63,0.632,0.287,0.218,0.125,0.204,0.422,-3.5e-4,0,0,0,0,-0.013,0.009,165,213.825,81.802,30.829,5.547,14.676,1007.413,340.193,0.05,0.034
2.741,53.161,69.033,48.121,70.366,48.81,10.772,-0.257,10.775,-1.367,13.633,8.168,22.175,120.893,9.788,1.267,-1.801e-5,-7.191,-4.318,2.383e4,9331.363,18.157,0.1,2246.538,1917.492,1.994,0.205,1.364e7,1433.995,40.291,0.631,0.634,0.287,0.218,0.125,0.245,0.501,-3.165e-4,0,0,0,0,-0.012,0.009,165,213.825,81.752,33.855,5.697,14.654,1007.015,340.179,0.05,0.034
2.791,56.674,71.459,48.607,72.81,49.325,11.461,-0.217,11.463,-1.084,13.963,8.389,22.175,120.893,9.788,1.639,-2.467e-5,-6.64,-3.579,2.37e4,9200.305,18.091,0.099,2237.427,1913.685,1.962,0.213,1.412e7,1441.415,43.339,0.631,0.636,0.287,0.219,0.126,0.321,0.64,-4.783e-4,0,0,0,0,-0.01,0.01,165,213.825,81.666,36.559,5.585,14.632,1006.603,340.166,0.05,0.035
2.841,60.308,73.906,49.017,75.274,49.778,12.165,-0.162,12.166,-0.764,14.286,8.672,22.175,120.893,9.788,2.235,-2.873e-5,-5.49,-3.165,2.357e4,9068.707,18.023,0.099,2223.278,1909.819,1.9,0.22,1.461e7,1447.346,46.714,0.632,0.641,0.286,0.219,0.126,0.447,0.856,-2.281e-4,0,0,0,0,-0.006,0.01,165,213.825,81.553,38.814,5.08,14.608,1006.177,340.151,0.05,0.035
2.891,64.064,76.352,48.995,77.735,49.803,12.884,-0.092,12.884,-0.408,14.602,8.933,22.175,120.893,9.788,2.413,-3.826e-5,-3.817,-2.968,2.344e4,8937.495,17.955,0.099,2219.299,1905.922,1.899,0.227,1.509e7,1443.113,50.004,0.632,0.643,0.286,0.219,0.127,0.486,0.926,4.038e-4,0,0,0,0,-0.003,0.01,165,213.825,81.42,40.471,4.983,14.584,1005.736,340.137,0.05,0.035
2.941,67.943,78.788,48.812,80.189,49.667,13.617,-0.004,13.617,-0.017,14.92,9.176,22.175,120.893,9.787,2.539,-3.796e-5,-1.908,-2.867,2.331e4,8806.998,17.887,0.099,2216.555,1902.002,1.906,0.235,1.557e7,1435.232,53.382,0.633,0.644,0.286,0.219,0.127,0.514,0.981,3.552e-4,0,0,0,0,-6.568e-4,0.011,165,213.825,81.278,41.448,4.815,14.558,1005.281,340.121,0.05,0.035
2.991,71.943,81.238,49.073,82.657,49.974,14.363,0.102,14.364,0.407,15.249,9.442,22.175,120.893,9.787,2.41,-4.606e-5,0.191,-2.837,2.318e4,8676.274,17.818,0.099,2219.732,1898.031,1.95,0.242,1.605e7,1437.734,56.694,0.634,0.644,0.286,0.22,0.128,0.486,0.948,1.2e-4,0,0,0,0,6.171e-6,0.011,165,213.825,81.135,41.705,4.856,14.532,1004.812,340.106,0.05,0.035
3.041,76.067,83.713,49.578,85.154,50.514,15.124,0.227,15.126,0.86,15.602,9.679,22.175,120.893,9.787,1.945,-5.555e-5,2.137,-2.913,2.305e4,8544.831,17.748,0.098,2230.899,1893.993,2.042,0.249,1.653e7,1445.651,59.896,0.634,0.641,0.286,0.22,0.128,0.386,0.787,-4.886e-4,0,0,0,0,7.299e-4,0.011,165,213.825,80.997,41.258,5.265,14.506,1004.329,340.089,0.05,0.035
3.091,80.315,86.206,49.943,87.675,50.91,15.901,0.37,15.905,1.335,15.985,9.878,22.175,120.893,9.787,1.45,-5.629e-5,3.642,-3.18,2.291e4,8412.968,17.677,0.098,2243.213,1889.896,2.141,0.257,1.701e7,1450.255,63.255,0.635,0.639,0.286,0.22,0.129,0.283,0.604,3.999e-5,0,0,0,0,0.002,0.012,165,213.825,80.866,40.211,5.642,14.478,1003.83,340.073,0.05,0.036
