# Time (s),Altitude (m),Vertical velocity (m/s),Vertical acceleration (m/s²),Total velocity (m/s),Total acceleration (m/s²),Position East of launch (m),Position North of launch (m),Lateral distance (m),Lateral direction (°),Lateral velocity (m/s),Lateral acceleration (m/s²),Latitude (°),Longitude (°),Gravitational acceleration (m/s²),Angle of attack (°),Roll rate (°/s),Pitch rate (°/s),Yaw rate (°/s),Mass (g),Motor mass (g),Longitudinal moment of inertia (kg·m²),Rotational moment of inertia (kg·m²),CP location (mm),CG location (mm),Stability margin calibers (​),Mach number (​),Reynolds number (​),Thrust (N),Drag force (N),Drag coefficient (​),Axial drag coefficient (​),Friction drag coefficient (​),Pressure drag coefficient (​),Base drag coefficient (​),Normal force coefficient (​),Pitch moment coefficient (​),Yaw moment coefficient (​),Side force coefficient (​),Roll moment coefficient (​),Roll forcing coefficient (​),Roll damping coefficient (​),Pitch damping coefficient (​),Coriolis acceleration (m/s²),Reference length (mm),Reference area (cm²),Vertical orientation (zenith) (°),Lateral orientation (azimuth) (°),Wind velocity (m/s),Air temperature (°C),Air pressure (mbar),Speed of sound (m/s),Simulation time step (s),Computation time (s)
0.01,-4.757e-4,-0.095,-9.511,0.096,9.563,-5e-5,0,5e-5,180,0.01,1,22.175,120.893,9.788,98.657,0,0,0,2.8e4,1.35e4,19.963,0.106,NaN,2019.994,NaN,0.006,4.024e5,4.784,-3.25e-4,0.746,-0.006,0.411,0.215,0.12,NaN,NaN,NaN,NaN,NaN,NaN,NaN,NaN,1.293e-5,165,213.825,84,0,2.04,15,1013.25,340.389,0.01,0.001
0.02,-4.761e-4,-0.095,-9.522,0.096,9.575,-5.004e-5,0,5.004e-5,180,0.01,1.001,22.175,120.893,9.788,98.662,0,0,0,2.8e4,1.35e4,19.963,0.106,NaN,2019.992,NaN,0.006,4.021e5,4.461,-3.251e-4,0.746,-0.006,0.411,0.215,0.12,NaN,NaN,NaN,NaN,NaN,NaN,NaN,NaN,1.294e-5,165,213.825,84,0,2.038,15,1013.25,340.389,0.01,0.001
0.03,-4.763e-4,-0.095,-9.526,0.096,9.579,-5.006e-5,0,5.006e-5,180,0.01,1.001,22.175,120.893,9.788,98.666,0,0,0,2.8e4,1.35e4,19.963,0.106,NaN,2019.991,NaN,0.006,4.017e5,4.343,-3.249e-4,0.746,-0.006,0.411,0.215,0.12,NaN,NaN,NaN,NaN,NaN,NaN,NaN,NaN,1.295e-5,165,213.825,84,0,2.036,15,1013.25,340.389,0.01,0.002
0.04,-4.765e-4,-0.095,-9.53,0.096,9.582,-5.008e-5,0,5.008e-5,180,0.01,1.002,22.175,120.893,9.788,98.669,0,0,0,2.8e4,1.35e4,19.963,0.106,NaN,2019.989,NaN,0.006,4.014e5,4.249,-3.248e-4,0.746,-0.006,0.411,0.215,0.12,NaN,NaN,NaN,NaN,NaN,NaN,NaN,NaN,1.295e-5,165,213.825,84,0,2.034,15,1013.25,340.389,0.01,0.002
0.05,-4.761e-4,-0.095,-9.523,0.096,9.575,-5.005e-5,0,5.005e-5,180,0.01,1.001,22.175,120.893,9.788,98.669,0,0,0,2.8e4,1.35e4,19.963,0.106,NaN,2019.988,NaN,0.006,4.01e5,4.443,-3.243e-4,0.746,-0.006,0.411,0.215,0.12,NaN,NaN,NaN,NaN,NaN,NaN,NaN,NaN,1.294e-5,165,213.825,84,0,2.033,15,1013.25,340.389,0.01,0.002
0.06,-4.757e-4,-0.095,-9.514,0.096,9.567,-5e-5,0,5e-5,180,0.01,1,22.175,120.893,9.788,98.663,0,0,0,2.8e4,1.35e4,19.963,0.106,NaN,2019.986,NaN,0.006,4.017e5,4.681,-3.245e-4,0.746,-0.006,0.411,0.215,0.12,NaN,NaN,NaN,NaN,NaN,NaN,NaN,NaN,1.293e-5,165,213.825,84,0,2.036,15,1013.25,340.389,0.01,0.002
0.07,-4.762e-4,-0.095,-9.523,0.096,9.576,-5.005e-5,0,5.005e-5,180,0.01,1.001,22.175,120.893,9.788,98.661,0,0,0,2.8e4,1.35e4,19.963,0.106,NaN,2019.984,NaN,0.006,4.023e5,4.438,-3.253e-4,0.746,-0.006,0.411,0.215,0.12,NaN,NaN,NaN,NaN,NaN,NaN,NaN,NaN,1.294e-5,165,213.825,84,0,2.039,15,1013.25,340.389,0.01,0.002
0.08,-4.761e-4,-0.095,-9.522,0.096,9.574,-5.004e-5,0,5.004e-5,180,0.01,1.001,22.175,120.893,9.788,98.656,0,0,0,2.8e4,1.35e4,19.963,0.106,NaN,2019.982,NaN,0.006,4.029e5,4.479,-3.257e-4,0.746,-0.006,0.411,0.215,0.12,NaN,NaN,NaN,NaN,NaN,NaN,NaN,NaN,1.294e-5,165,213.825,84,0,2.042,15,1013.25,340.389,0.01,0.003
0.09,-4.759e-4,-0.095,-9.517,0.096,9.57,-5.002e-5,0,5.002e-5,180,0.01,1,22.175,120.893,9.788,98.651,0,0,0,2.8e4,1.35e4,19.963,0.106,NaN,2019.981,NaN,0.006,4.035e5,4.603,-3.261e-4,0.746,-0.006,0.411,0.215,0.12,NaN,NaN,NaN,NaN,NaN,NaN,NaN,NaN,1.294e-5,165,213.825,84,0,2.045,15,1013.25,340.389,0.01,0.003
0.1,-4.764e-4,-0.095,-9.527,0.096,9.58,-5.007e-5,0,5.007e-5,180,0.01,1.001,22.175,120.893,9.788,98.65,0,0,0,2.8e4,1.35e4,19.963,0.106,NaN,2019.979,NaN,0.006,4.041e5,4.315,-3.269e-4,0.746,-0.006,0.411,0.215,0.12,NaN,NaN,NaN,NaN,NaN,NaN,NaN,NaN,1.295e-5,165,213.825,84,0,2.049,15,1013.25,340.389,0.01,0.003
0.11,-4.762e-4,-0.095,-9.523,0.096,9.576,-5.005e-5,0,5.005e-5,180,0.01,1.001,22.175,120.893,9.788,98.656,0,0,0,2.8e4,1.35e4,19.963,0.106,NaN,2019.977,NaN,0.006,4.03e5,4.431,-3.259e-4,0.746,-0.006,0.411,0.215,0.12,NaN,NaN,NaN,NaN,NaN,NaN,NaN,NaN,1.294e-5,165,213.825,84,0,2.043,15,1013.25,340.389,0.01,0.003
0.12,-4.762e-4,-0.095,-9.523,0.096,9.576,-5.005e-5,0,5.005e-5,180,0.01,1.001,22.175,120.893,9.788,98.664,0,0,0,2.8e4,1.35e4,19.962,0.106,NaN,2019.976,NaN,0.006,4.019e5,4.436,-3.25e-4,0.746,-0.006,0.411,0.215,0.12,NaN,NaN,NaN,NaN,NaN,NaN,NaN,NaN,1.294e-5,165,213.825,84,0,2.037,15,1013.25,340.389,0.01,0.003
0.13,-4.758e-4,-0.095,-9.517,0.096,9.569,-5.001e-5,0,5.001e-5,180,0.01,1,22.175,120.893,9.788,98.669,0,0,0,2.8e4,1.35e4,19.962,0.106,NaN,2019.974,NaN,0.006,4.008e5,4.62,-3.239e-4,0.746,-0.006,0.411,0.215,0.12,NaN,NaN,NaN,NaN,NaN,NaN,NaN,NaN,1.294e-5,165,213.825,84,0,2.031,15,1013.25,340.389,0.01,0.004
0.14,-4.762e-4,-0.095,-9.524,0.096,9.577,-5.005e-5,0,5.005e-5,180,0.01,1.001,22.175,120.893,9.788,98.679,0,0,0,2.8e4,1.35e4,19.962,0.106,NaN,2019.972,NaN,0.006,3.996e5,4.404,-3.232e-4,0.747,-0.006,0.412,0.215,0.12,NaN,NaN,NaN,NaN,NaN,NaN,NaN,NaN,1.295e-5,165,213.825,84,0,2.026,15,1013.25,340.389,0.01,0.004
0.15,-4.761e-4,-0.095,-9.523,0.096,9.575,-5.004e-5,0,5.004e-5,180,0.01,1.001,22.175,120.893,9.788,98.686,0,0,0,2.8e4,1.35e4,19.962,0.106,NaN,2019.97,NaN,0.006,3.985e5,4.444,-3.223e-4,0.747,-0.006,0.412,0.215,0.12,NaN,NaN,NaN,NaN,NaN,NaN,NaN,NaN,1.294e-5,165,213.825,84,0,2.02,15,1013.25,340.389,0.01,0.004
0.16,-4.758e-4,-0.095,-9.516,0.096,9.568,-5.001e-5,0,5.001e-5,180,0.01,1,22.175,120.893,9.788,98.678,0,0,0,2.8e4,1.35e4,19.962,0.106,NaN,2019.969,NaN,0.006,3.994e5,4.651,-3.228e-4,0.747,-0.006,0.412,0.215,0.12,NaN,NaN,NaN,NaN,NaN,NaN,NaN,NaN,1.293e-5,165,213.825,84,0,2.024,15,1013.25,340.389,0.01,0.004
0.17,-4.765e-4,-0.095,-9.531,0.096,9.583,-5.009e-5,0,5.009e-5,180,0.01,1.002,22.175,120.893,9.788,98.676,0,0,0,2.8e4,1.35e4,19.962,0.106,NaN,2019.967,NaN,0.006,4.004e5,4.218,-3.24e-4,0.747,-0.006,0.411,0.215,0.12,NaN,NaN,NaN,NaN,NaN,NaN,NaN,NaN,1.295e-5,165,213.825,84,0,2.029,15,1013.25,340.389,0.01,0.004
0.18,-4.765e-4,-0.095,-9.531,0.096,9.583,-5.009e-5,0,5.009e-5,180,0.01,1.002,22.175,120.893,9.788,98.67,0,0,0,2.8e4,1.35e4,19.962,0.106,NaN,2019.965,NaN,0.006,4.013e5,4.225,-3.247e-4,0.746,-0.006,0.411,0.215,0.12,NaN,NaN,NaN,NaN,NaN,NaN,NaN,NaN,1.295e-5,165,213.825,84,0,2.034,15,1013.25,340.389,0.01,0.005
0.19,-4.764e-4,-0.095,-9.527,0.096,9.58,-5.007e-5,0,5.007e-5,180,0.01,1.001,22.175,120.893,9.788,98.663,0,0,0,2.8e4,1.35e4,19.962,0.106,NaN,2019.964,NaN,0.006,4.022e5,4.321,-3.253e-4,0.746,-0.006,0.411,0.215,0.12,NaN,NaN,NaN,NaN,NaN,NaN,NaN,NaN,1.295e-5,165,213.825,84,0,2.039,15,1013.25,340.389,0.01,0.005
0.2,-4.766e-4,-0.095,-9.532,0.096,9.585,-5.01e-5,0,5.01e-5,180,0.01,1.002,22.175,120.893,9.788,98.658,0,0,0,2.8e4,1.35e4,19.962,0.106,NaN,2019.962,NaN,0.006,4.031e5,4.174,-3.262e-4,0.746,-0.006,0.411,0.215,0.12,NaN,NaN,NaN,NaN,NaN,NaN,NaN,NaN,1.296e-5,165,213.825,84,0,2.043,15,1013.25,340.389,0.01,0.005
0.21,-4.763e-4,-0.095,-9.525,0.096,9.578,-5.006e-5,0,5.006e-5,180,0.01,1.001,22.175,120.893,9.788,98.664,0,0,0,2.8e4,1.35e4,19.962,0.106,NaN,2019.961,NaN,0.006,4.019e5,4.381,-3.25e-4,0.746,-0.006,0.411,0.215,0.12,NaN,NaN,NaN,NaN,NaN,NaN,NaN,NaN,1.295e-5,165,213.825,84,0,2.037,15,1013.25,340.389,0.01,0.005
0.22,-4.758e-4,-0.095,-9.515,0.096,9.568,-5.001e-5,0,5.001e-5,180,0.01,1,22.175,120.893,9.788,98.67,0,0,0,2.8e4,1.35e4,19.962,0.106,NaN,2019.959,NaN,0.006,4.006e5,4.657,-3.237e-4,0.746,-0.006,0.411,0.215,0.12,NaN,NaN,NaN,NaN,NaN,NaN,NaN,NaN,1.293e-5,165,213.825,84,0,2.03,15,1013.25,340.389,0.01,0.005
0.23,-4.762e-4,-0.095,-9.525,0.096,9.577,-5.005e-5,0,5.005e-5,180,0.01,1.001,22.175,120.893,9.788,98.681,0,0,0,2.8e4,1.35e4,19.962,0.106,NaN,2019.957,NaN,0.006,3.993e5,4.392,-3.23e-4,0.747,-0.006,0.412,0.215,0.12,NaN,NaN,NaN,NaN,NaN,NaN,NaN,NaN,1.295e-5,165,213.825,84,0,2.024,15,1013.25,340.389,0.01,0.006
0.24,-4.76e-4,-0.095,-9.52,0.096,9.573,-5.003e-5,0,5.003e-5,180,0.01,1.001,22.175,120.893,9.788,98.689,0,0,0,2.8e4,1.35e4,19.962,0.106,NaN,2019.955,NaN,0.006,3.981e5,4.513,-3.218e-4,0.747,-0.006,0.412,0.215,0.12,NaN,NaN,NaN,NaN,NaN,NaN,NaN,NaN,1.294e-5,165,213.825,84,0,2.017,15,1013.25,340.389,0.01,0.006
0.25,-4.759e-4,-0.095,-9.518,0.096,9.57,-5.002e-5,0,5.002e-5,180,0.01,1,22.175,120.893,9.788,98.696,0,0,0,2.8e4,1.35e4,19.962,0.106,NaN,2019.954,NaN,0.006,3.968e5,4.587,-3.207e-4,0.747,-0.006,0.412,0.215,0.12,NaN,NaN,NaN,NaN,NaN,NaN,NaN,NaN,1.294e-5,165,213.825,84,0,2.011,15,1013.25,340.389,0.01,0.006
0.26,-4.762e-4,-0.095,-9.523,0.096,9.576,-5.005e-5,0,5.005e-5,180,0.01,1.001,22.175,120.893,9.788,98.729,0,0,0,2.8e4,1.35e4,19.962,0.106,NaN,2019.952,NaN,0.006,3.923e5,4.429,-3.173e-4,0.748,-0.006,0.413,0.215,0.12,NaN,NaN,NaN,NaN,NaN,NaN,NaN,NaN,1.294e-5,165,213.825,84,0,1.988,15,1013.25,340.389,0.01,0.006
0.27,-4.76e-4,-0.095,-9.52,0.096,9.572,-5.003e-5,0,5.003e-5,180,0.01,1.001,22.175,120.893,9.788,98.76,0,0,0,2.8e4,1.35e4,19.962,0.106,NaN,2019.95,NaN,0.006,3.877e5,4.527,-3.137e-4,0.749,-0.006,0.414,0.215,0.12,NaN,NaN,NaN,NaN,NaN,NaN,NaN,NaN,1.294e-5,165,213.825,84,0,1.965,15,1013.25,340.389,0.01,0.006
0.28,-4.761e-4,-0.095,-9.521,0.096,9.574,-5.004e-5,0,5.004e-5,180,0.01,1.001,22.175,120.893,9.788,98.793,0,0,0,2.8e4,1.35e4,19.962,0.106,NaN,2019.949,NaN,0.006,3.832e5,4.488,-3.102e-4,0.75,-0.006,0.415,0.215,0.12,NaN,NaN,NaN,NaN,NaN,NaN,NaN,NaN,1.294e-5,165,213.825,84,0,1.942,15,1013.25,340.389,0.01,0.007
0.29,-4.758e-4,-0.095,-9.517,0.096,9.569,-5.001e-5,0,5.001e-5,180,0.01,1,22.175,120.893,9.788,98.825,0,0,0,2.8e4,1.35e4,19.962,0.106,NaN,2019.947,NaN,0.006,3.787e5,4.616,-3.066e-4,0.752,-0.006,0.416,0.215,0.12,NaN,NaN,NaN,NaN,NaN,NaN,NaN,NaN,1.294e-5,165,213.825,84,0,1.919,15,1013.25,340.389,0.01,0.007
0.3,-4.76e-4,-0.095,-9.519,0.096,9.572,-5.003e-5,0,5.003e-5,180,0.01,1.001,22.175,120.893,9.788,98.86,0,0,0,2.8e4,1.35e4,19.962,0.106,NaN,2019.945,NaN,0.006,3.742e5,4.548,-3.032e-4,0.753,-0.006,0.418,0.215,0.12,NaN,NaN,NaN,NaN,NaN,NaN,NaN,NaN,1.294e-5,165,213.825,84,0,1.895,15,1013.25,340.389,0.01,0.007
0.31,-4.757e-4,-0.095,-9.514,0.096,9.566,-5e-5,0,5e-5,180,0.01,1,22.175,120.893,9.788,98.84,0,0,0,2.8e4,1.35e4,19.962,0.106,NaN,2019.943,NaN,0.006,3.766e5,4.706,-3.049e-4,0.752,-0.006,0.417,0.215,0.12,NaN,NaN,NaN,NaN,NaN,NaN,NaN,NaN,1.293e-5,165,213.825,84,0,1.908,15,1013.25,340.389,0.01,0.007
0.32,-4.763e-4,-0.095,-9.527,0.096,9.579,-5.007e-5,0,5.007e-5,180,0.01,1.001,22.175,120.893,9.788,98.825,0,0,0,2.8e4,1.35e4,19.962,0.106,NaN,2019.942,NaN,0.006,3.791e5,4.332,-3.072e-4,0.751,-0.006,0.416,0.215,0.12,NaN,NaN,NaN,NaN,NaN,NaN,NaN,NaN,1.295e-5,165,213.825,84,0,1.92,15,1013.25,340.389,0.01,0.007
0.33,-4.761e-4,-0.095,-9.521,0.096,9.574,-5.004e-5,0,5.004e-5,180,0.01,1.001,22.175,120.893,9.788,98.806,0,0,0,2.8e4,1.35e4,19.962,0.106,NaN,2019.94,NaN,0.006,3.815e5,4.483,-3.089e-4,0.751,-0.006,0.416,0.215,0.12,NaN,NaN,NaN,NaN,NaN,NaN,NaN,NaN,1.294e-5,165,213.825,84,0,1.933,15,1013.25,340.389,0.01,0.007
0.34,-4.759e-4,-0.095,-9.518,0.096,9.571,-5.002e-5,0,5.002e-5,180,0.01,1,22.175,120.893,9.788,98.787,0,0,0,2.8e4,1.35e4,19.962,0.106,NaN,2019.938,NaN,0.006,3.839e5,4.57,-3.107e-4,0.75,-0.006,0.415,0.215,0.12,NaN,NaN,NaN,NaN,NaN,NaN,NaN,NaN,1.294e-5,165,213.825,84,0,1.945,15,1013.25,340.389,0.01,0.008
0.35,-4.762e-4,-0.095,-9.524,0.096,9.576,-5.005e-5,0,5.005e-5,180,0.01,1.001,22.175,120.893,9.788,98.771,0,0,0,2.8e4,1.35e4,19.962,0.106,NaN,2019.936,NaN,0.006,3.864e5,4.419,-3.128e-4,0.75,-0.006,0.415,0.215,0.12,NaN,NaN,NaN,NaN,NaN,NaN,NaN,NaN,1.294e-5,165,213.825,84,0,1.958,15,1013.25,340.389,0.01,0.008
0.36,-4.764e-4,-0.095,-9.527,0.096,9.58,-5.007e-5,0,5.007e-5,180,0.01,1.001,22.175,120.893,9.788,98.777,0,0,0,2.8e4,1.35e4,19.962,0.106,NaN,2019.935,NaN,0.006,3.856e5,4.317,-3.123e-4,0.75,-0.006,0.415,0.215,0.12,NaN,NaN,NaN,NaN,NaN,NaN,NaN,NaN,1.295e-5,165,213.825,84,0,1.954,15,1013.25,340.389,0.01,0.008
0.37,-4.76e-4,-0.095,-9.52,0.096,9.573,-5.003e-5,0,5.003e-5,180,0.01,1.001,22.175,120.893,9.788,98.781,0,0,0,2.8e4,1.35e4,19.962,0.106,NaN,2019.933,NaN,0.006,3.848e5,4.522,-3.115e-4,0.75,-0.006,0.415,0.215,0.12,NaN,NaN,NaN,NaN,NaN,NaN,NaN,NaN,1.294e-5,165,213.825,84,0,1.95,15,1013.25,340.389,0.01,0.008
0.38,-4.762e-4,-0.095,-9.523,0.096,9.576,-5.005e-5,0,5.005e-5,180,0.01,1.001,22.175,120.893,9.788,98.787,0,0,0,2.8e4,1.35e4,19.962,0.106,NaN,2019.931,NaN,0.006,3.841e5,4.433,-3.11e-4,0.75,-0.006,0.415,0.215,0.12,NaN,NaN,NaN,NaN,NaN,NaN,NaN,NaN,1.294e-5,165,213.825,84,0,1.946,15,1013.25,340.389,0.01,0.008
0.39,-4.757e-4,-0.095,-9.515,0.096,9.567,-5e-5,0,5e-5,180,0.01,1,22.175,120.893,9.788,98.79,0,0,0,2.8e4,1.35e4,19.962,0.106,NaN,2019.93,NaN,0.006,3.833e5,4.673,-3.101e-4,0.75,-0.006,0.415,0.215,0.12,NaN,NaN,NaN,NaN,NaN,NaN,NaN,NaN,1.293e-5,165,213.825,84,0,1.942,15,1013.25,340.389,0.01,0.008
0.4,-4.755e-4,-0.095,-9.51,0.096,9.562,-4.998e-5,0,4.998e-5,180,0.01,1,22.175,120.893,9.788,98.795,0,0,0,2.8e4,1.35e4,19.962,0.106,NaN,2019.928,NaN,0.006,3.825e5,4.812,-3.094e-4,0.751,-0.006,0.416,0.215,0.12,NaN,NaN,NaN,NaN,NaN,NaN,NaN,NaN,1.293e-5,165,213.825,84,0,1.938,15,1013.25,340.389,0.01,0.009
0.41,-4.759e-4,-0.095,-9.518,0.096,9.57,-5.002e-5,0,5.002e-5,180,0.01,1,22.175,120.893,9.788,98.791,0,0,0,2.8e4,1.35e4,19.962,0.106,NaN,2019.926,NaN,0.006,3.834e5,4.595,-3.102e-4,0.75,-0.006,0.415,0.215,0.12,NaN,NaN,NaN,NaN,NaN,NaN,NaN,NaN,1.294e-5,165,213.825,84,0,1.943,15,1013.25,340.389,0.01,0.009
0.42,-4.758e-4,-0.095,-9.516,0.096,9.568,-5.001e-5,0,5.001e-5,180,0.01,1,22.175,120.893,9.788,98.784,0,0,0,2.8e4,1.35e4,19.962,0.106,NaN,2019.924,NaN,0.006,3.842e5,4.638,-3.108e-4,0.75,-0.006,0.415,0.215,0.12,NaN,NaN,NaN,NaN,NaN,NaN,NaN,NaN,1.293e-5,165,213.825,84,0,1.947,15,1013.25,340.389,0.01,0.009
0.43,-4.755e-4,-0.095,-9.51,0.096,9.562,-4.998e-5,0,4.998e-5,180,0.01,1,22.175,120.893,9.788,98.776,0,0,0,2.8e4,1.35e4,19.962,0.106,NaN,2019.922,NaN,0.006,3.851e5,4.811,-3.113e-4,0.75,-0.006,0.415,0.215,0.12,NaN,NaN,NaN,NaN,NaN,NaN,NaN,NaN,1.293e-5,165,213.825,84,0,1.951,15,1013.25,340.389,0.01,0.009
0.44,-4.753e-4,-0.095,-9.506,0.096,9.558,-4.996e-5,0,4.996e-5,180,0.01,0.999,22.175,120.893,9.788,98.769,0,0,0,2.8e4,1.35e4,19.962,0.106,NaN,2019.921,NaN,0.006,3.859e5,4.919,-3.119e-4,0.75,-0.006,0.415,0.215,0.12,NaN,NaN,NaN,NaN,NaN,NaN,NaN,NaN,1.292e-5,165,213.825,84,0,1.955,15,1013.25,340.389,0.01,0.009
0.45,-4.759e-4,-0.095,-9.518,0.096,9.57,-5.002e-5,0,5.002e-5,180,0.01,1,22.175,120.893,9.788,98.766,0,0,0,2.8e4,1.35e4,19.961,0.106,NaN,2019.919,NaN,0.006,3.868e5,4.583,-3.129e-4,0.75,-0.006,0.415,0.215,0.12,NaN,NaN,NaN,NaN,NaN,NaN,NaN,NaN,1.294e-5,165,213.825,84,0,1.96,15,1013.25,340.389,0.01,0.01
0.46,-4.762e-4,-0.095,-9.523,0.096,9.576,-5.005e-5,0,5.005e-5,180,0.01,1.001,22.175,120.893,9.788,98.761,0,0,0,2.8e4,1.35e4,19.961,0.106,NaN,2019.917,NaN,0.006,3.878e5,4.429,-3.139e-4,0.749,-0.006,0.414,0.215,0.12,NaN,NaN,NaN,NaN,NaN,NaN,NaN,NaN,1.294e-5,165,213.825,84,0,1.965,15,1013.25,340.389,0.01,0.01
0.47,-4.761e-4,-0.095,-9.523,0.096,9.575,-5.004e-5,0,5.004e-5,180,0.01,1.001,22.175,120.893,9.788,98.753,0,0,0,2.8e4,1.35e4,19.961,0.106,NaN,2019.915,NaN,0.006,3.888e5,4.45,-3.146e-4,0.749,-0.006,0.414,0.215,0.12,NaN,NaN,NaN,NaN,NaN,NaN,NaN,NaN,1.294e-5,165,213.825,84,0,1.97,15,1013.25,340.389,0.01,0.01
0.48,-4.753e-4,-0.095,-9.506,0.096,9.559,-4.996e-5,0,4.996e-5,180,0.01,0.999,22.175,120.893,9.788,98.741,0,0,0,2.8e4,1.35e4,19.961,0.106,NaN,2019.914,NaN,0.006,3.899e5,4.905,-3.15e-4,0.749,-0.006,0.414,0.215,0.12,NaN,NaN,NaN,NaN,NaN,NaN,NaN,NaN,1.292e-5,165,213.825,84,0,1.976,15,1013.25,340.389,0.01,0.01
0.49,-4.756e-4,-0.095,-9.512,0.096,9.565,-4.999e-5,0,4.999e-5,180,0.01,1,22.175,120.893,9.788,98.735,0,0,0,2.8e4,1.35e4,19.961,0.106,NaN,2019.912,NaN,0.006,3.909e5,4.746,-3.16e-4,0.749,-0.006,0.414,0.215,0.12,NaN,NaN,NaN,NaN,NaN,NaN,NaN,NaN,1.293e-5,165,213.825,84,0,1.981,15,1013.25,340.389,0.01,0.01
0.5,-4.761e-4,-0.095,-9.522,0.096,9.574,-5.004e-5,0,5.004e-5,180,0.01,1.001,22.175,120.893,9.788,98.731,0,0,0,2.8e4,1.35e4,19.961,0.106,NaN,2019.91,NaN,0.006,3.92e5,4.47,-3.171e-4,0.748,-0.006,0.413,0.215,0.12,NaN,NaN,NaN,NaN,NaN,NaN,NaN,NaN,1.294e-5,165,213.825,84,0,1.986,15,1013.25,340.389,0.01,0.01
0.51,-4.758e-4,-0.095,-9.515,0.096,9.568,-5e-5,0,5e-5,180,0.01,1,22.175,120.893,9.788,98.747,0,0,0,2.8e4,1.35e4,19.961,0.106,NaN,2019.908,NaN,0.006,3.894e5,4.657,-3.148e-4,0.749,-0.006,0.414,0.215,0.12,NaN,NaN,NaN,NaN,NaN,NaN,NaN,NaN,1.293e-5,165,213.825,84,0,1.973,15,1013.25,340.389,0.01,0.011
0.52,-4.75e-4,-0.095,-9.499,0.096,9.551,-4.992e-5,0,4.992e-5,180,0.01,0.998,22.175,120.893,9.788,98.761,0,0,0,2.8e4,1.35e4,19.961,0.106,NaN,2019.906,NaN,0.006,3.867e5,5.115,-3.123e-4,0.75,-0.006,0.415,0.215,0.12,NaN,NaN,NaN,NaN,NaN,NaN,NaN,NaN,1.291e-5,165,213.825,84,0,1.96,15,1013.25,340.389,0.01,0.011
0.53,-4.746e-4,-0.095,-9.491,0.095,9.543,-4.988e-5,0,4.988e-5,180,0.01,0.998,22.175,120.893,9.788,98.778,0,0,0,2.8e4,1.35e4,19.961,0.106,NaN,2019.904,NaN,0.006,3.841e5,5.339,-3.1e-4,0.75,-0.006,0.415,0.215,0.12,NaN,NaN,NaN,NaN,NaN,NaN,NaN,NaN,1.29e-5,165,213.825,84,0,1.946,15,1013.25,340.389,0.01,0.011
0.54,-4.758e-4,-0.095,-9.516,0.096,9.568,-5.001e-5,0,5.001e-5,180,0.01,1,22.175,120.893,9.788,98.804,0,0,0,2.8e4,1.35e4,19.961,0.106,NaN,2019.903,NaN,0.006,3.815e5,4.638,-3.087e-4,0.751,-0.006,0.416,0.215,0.12,NaN,NaN,NaN,NaN,NaN,NaN,NaN,NaN,1.293e-5,165,213.825,84,0,1.933,15,1013.25,340.389,0.01,0.011
0.55,-4.755e-4,-0.095,-9.509,0.096,9.562,-4.997e-5,0,4.997e-5,180,0.01,0.999,22.175,120.893,9.788,98.821,0,0,0,2.8e4,1.35e4,19.961,0.106,NaN,2019.901,NaN,0.006,3.789e5,4.82,-3.065e-4,0.752,-0.006,0.416,0.215,0.12,NaN,NaN,NaN,NaN,NaN,NaN,NaN,NaN,1.293e-5,165,213.825,84,0,1.92,15,1013.25,340.389,0.01,0.011
0.56,-4.749e-4,-0.095,-9.498,0.096,9.55,-4.991e-5,0,4.991e-5,180,0.01,0.998,22.175,120.893,9.788,98.812,0,0,0,2.8e4,1.35e4,19.961,0.106,NaN,2019.899,NaN,0.006,3.797e5,5.14,-3.068e-4,0.751,-0.006,0.416,0.215,0.12,NaN,NaN,NaN,NaN,NaN,NaN,NaN,NaN,1.291e-5,165,213.825,84,0,1.924,15,1013.25,340.389,0.01,0.011
0.57,-4.749e-4,-0.095,-9.497,0.095,9.55,-4.991e-5,0,4.991e-5,180,0.01,0.998,22.175,120.893,9.788,98.805,0,0,0,2.8e4,1.35e4,19.961,0.106,NaN,2019.897,NaN,0.006,3.806e5,5.164,-3.075e-4,0.751,-0.006,0.416,0.215,0.12,NaN,NaN,NaN,NaN,NaN,NaN,NaN,NaN,1.291e-5,165,213.825,84,0,1.928,15,1013.25,340.389,0.01,0.012
0.58,-4.749e-4,-0.095,-9.499,0.096,9.551,-4.992e-5,0,4.992e-5,180,0.01,0.998,22.175,120.893,9.788,98.8,0,0,0,2.8e4,1.35e4,19.961,0.106,NaN,2019.895,NaN,0.006,3.814e5,5.125,-3.081e-4,0.751,-0.006,0.416,0.215,0.12,NaN,NaN,NaN,NaN,NaN,NaN,NaN,NaN,1.291e-5,165,213.825,84,0,1.932,15,1013.25,340.389,0.01,0.012
0.59,-4.746e-4,-0.095,-9.493,0.095,9.545,-4.989e-5,0,4.989e-5,180,0.01,0.998,22.175,120.893,9.788,98.792,0,0,0,2.8e4,1.35e4,19.961,0.106,NaN,2019.893,NaN,0.006,3.822e5,5.296,-3.086e-4,0.751,-0.006,0.416,0.215,0.12,NaN,NaN,NaN,NaN,NaN,NaN,NaN,NaN,1.29e-5,165,213.825,84,0,1.937,15,1013.25,340.389,0.01,0.012
0.6,-4.741e-4,-0.095,-9.483,0.095,9.535,-4.983e-5,0,4.983e-5,180,0.01,0.997,22.175,120.893,9.788,98.783,0,0,0,2.8e4,1.349e4,19.961,0.106,NaN,2019.891,NaN,0.006,3.831e5,5.567,-3.09e-4,0.751,-0.006,0.415,0.215,0.12,NaN,NaN,NaN,NaN,NaN,NaN,NaN,NaN,1.289e-5,165,213.825,84,0,1.941,15,1013.25,340.389,0.01,0.012
0.61,-4.739e-4,-0.095,-9.478,0.095,9.53,-4.981e-5,0,4.981e-5,180,0.01,0.996,22.175,120.893,9.788,98.781,0,0,0,2.8e4,1.349e4,19.961,0.106,NaN,2019.889,NaN,0.006,3.831e5,5.717,-3.088e-4,0.751,-0.006,0.415,0.215,0.12,NaN,NaN,NaN,NaN,NaN,NaN,NaN,NaN,1.288e-5,165,213.825,84,0,1.941,15,1013.25,340.389,0.01,0.012
0.62,-4.745e-4,-0.095,-9.49,0.095,9.542,-4.987e-5,0,4.987e-5,180,0.01,0.997,22.175,120.893,9.788,98.784,0,0,0,2.8e4,1.349e4,19.961,0.106,NaN,2019.887,NaN,0.006,3.831e5,5.366,-3.092e-4,0.75,-0.006,0.415,0.215,0.12,NaN,NaN,NaN,NaN,NaN,NaN,NaN,NaN,1.29e-5,165,213.825,84,0,1.941,15,1013.25,340.389,0.01,0.013
0.63,-4.737e-4,-0.095,-9.473,0.095,9.525,-4.978e-5,0,4.978e-5,180,0.01,0.996,22.175,120.893,9.788,98.779,0,0,0,2.799e4,1.349e4,19.961,0.106,NaN,2019.884,NaN,0.006,3.832e5,5.844,-3.087e-4,0.75,-0.006,0.415,0.215,0.12,NaN,NaN,NaN,NaN,NaN,NaN,NaN,NaN,1.288e-5,165,213.825,84,0,1.942,15,1013.25,340.389,0.01,0.013
0.64,-4.738e-4,-0.095,-9.475,0.095,9.527,-4.979e-5,0,4.979e-5,180,0.01,0.996,22.175,120.893,9.788,98.779,0,0,0,2.799e4,1.349e4,19.961,0.106,NaN,2019.882,NaN,0.006,3.832e5,5.786,-3.088e-4,0.75,-0.006,0.415,0.215,0.12,NaN,NaN,NaN,NaN,NaN,NaN,NaN,NaN,1.288e-5,165,213.825,84,0,1.942,15,1013.25,340.389,0.01,0.013
0.65,-4.734e-4,-0.095,-9.469,0.095,9.521,-4.976e-5,0,4.976e-5,180,0.01,0.995,22.175,120.893,9.788,98.777,0,0,0,2.799e4,1.349e4,19.961,0.106,NaN,2019.88,NaN,0.006,3.832e5,5.968,-3.087e-4,0.75,-0.006,0.415,0.215,0.12,NaN,NaN,NaN,NaN,NaN,NaN,NaN,NaN,1.287e-5,165,213.825,84,0,1.942,15,1013.25,340.389,0.01,0.013
0.66,-4.724e-4,-0.094,-9.448,0.095,9.5,-4.965e-5,0,4.965e-5,180,0.01,0.993,22.175,120.893,9.788,98.719,0,0,0,2.799e4,1.349e4,19.961,0.106,NaN,2019.877,NaN,0.006,3.906e5,6.551,-3.138e-4,0.749,-0.006,0.414,0.215,0.12,NaN,NaN,NaN,NaN,NaN,NaN,NaN,NaN,1.284e-5,165,213.825,84,0,1.98,15,1013.25,340.389,0.01,0.013
0.67,-4.721e-4,-0.094,-9.442,0.095,9.494,-4.962e-5,0,4.962e-5,180,0.01,0.992,22.175,120.893,9.788,98.667,0,0,0,2.799e4,1.349e4,19.961,0.106,NaN,2019.875,NaN,0.006,3.98e5,6.72,-3.194e-4,0.747,-0.006,0.412,0.215,0.12,NaN,NaN,NaN,NaN,NaN,NaN,NaN,NaN,1.283e-5,165,213.825,84,0,2.017,15,1013.25,340.389,0.01,0.013
0.68,-4.711e-4,-0.094,-9.421,0.095,9.473,-4.951e-5,0,4.951e-5,180,0.01,0.99,22.175,120.893,9.788,98.612,0,0,0,2.799e4,1.349e4,19.961,0.106,NaN,2019.872,NaN,0.006,4.054e5,7.299,-3.247e-4,0.745,-0.006,0.41,0.215,0.12,NaN,NaN,NaN,NaN,NaN,NaN,NaN,NaN,1.281e-5,165,213.825,84,0,2.055,15,1013.25,340.389,0.01,0.014
0.69,-4.708e-4,-0.094,-9.415,0.095,9.467,-4.948e-5,0,4.948e-5,180,0.01,0.99,22.175,120.893,9.788,98.564,0,0,0,2.799e4,1.349e4,19.961,0.106,NaN,2019.869,NaN,0.006,4.128e5,7.467,-3.304e-4,0.744,-0.006,0.409,0.215,0.12,NaN,NaN,NaN,NaN,NaN,NaN,NaN,NaN,1.28e-5,165,213.825,84,0,2.093,15,1013.25,340.389,0.01,0.014
0.7,-4.699e-4,-0.094,-9.398,0.095,9.45,-4.939e-5,0,4.939e-5,180,0.01,0.988,22.175,120.893,9.788,98.514,0,0,0,2.799e4,1.349e4,19.961,0.106,NaN,2019.866,NaN,0.006,4.201e5,7.951,-3.359e-4,0.742,-0.006,0.407,0.215,0.12,NaN,NaN,NaN,NaN,NaN,NaN,NaN,NaN,1.277e-5,165,213.825,84,0,2.13,15,1013.25,340.389,0.01,0.014
0.71,-4.682e-4,-0.094,-9.363,0.094,9.415,-4.921e-5,0,4.921e-5,180,0.01,0.984,22.175,120.893,9.788,98.501,0,0,0,2.799e4,1.349e4,19.96,0.106,NaN,2019.863,NaN,0.006,4.208e5,8.938,-3.353e-4,0.742,-0.006,0.407,0.215,0.12,NaN,NaN,NaN,NaN,NaN,NaN,NaN,NaN,1.273e-5,165,213.825,84,0,2.134,15,1013.25,340.389,0.01,0.014
0.72,-4.676e-4,-0.094,-9.352,0.094,9.403,-4.915e-5,0,4.915e-5,180,0.01,0.983,22.175,120.893,9.788,98.494,0,0,0,2.799e4,1.349e4,19.96,0.106,NaN,2019.859,NaN,0.006,4.214e5,9.255,-3.355e-4,0.742,-0.006,0.407,0.215,0.12,NaN,NaN,NaN,NaN,NaN,NaN,NaN,NaN,1.271e-5,165,213.825,84,0,2.137,15,1013.25,340.389,0.01,0.014
0.73,-4.659e-4,-0.093,-9.319,0.094,9.37,-4.897e-5,0,4.897e-5,180,0.01,0.979,22.175,120.893,9.788,98.482,0,0,0,2.799e4,1.349e4,19.96,0.106,NaN,2019.855,NaN,0.006,4.22e5,10.185,-3.35e-4,0.742,-0.006,0.407,0.215,0.12,NaN,NaN,NaN,NaN,NaN,NaN,NaN,NaN,1.267e-5,165,213.825,84,0,2.14,15,1013.25,340.389,0.01,0.014
0.74,-4.64e-4,-0.093,-9.28,0.093,9.331,-4.877e-5,0,4.877e-5,180,0.01,0.975,22.175,120.893,9.788,98.468,0,0,0,2.799e4,1.349e4,19.96,0.106,NaN,2019.851,NaN,0.006,4.227e5,11.275,-3.344e-4,0.742,-0.005,0.407,0.215,0.12,NaN,NaN,NaN,NaN,NaN,NaN,NaN,NaN,1.261e-5,165,213.825,84,0,2.144,15,1013.25,340.389,0.01,0.015
0.75,-4.621e-4,-0.092,-9.243,0.093,9.294,-4.857e-5,0,4.857e-5,180,0.01,0.971,22.175,120.893,9.788,98.454,0,0,0,2.799e4,1.349e4,19.96,0.106,NaN,2019.846,NaN,0.006,4.233e5,12.322,-3.337e-4,0.742,-0.005,0.406,0.215,0.12,NaN,NaN,NaN,NaN,NaN,NaN,NaN,NaN,1.256e-5,165,213.825,84,0,2.147,15,1013.25,340.389,0.01,0.015
0.76,-4.598e-4,-0.092,-9.195,0.092,9.246,-4.832e-5,0,4.832e-5,180,0.01,0.966,22.175,120.893,9.788,98.456,0,0,0,2.799e4,1.349e4,19.96,0.106,NaN,2019.841,NaN,0.006,4.208e5,13.663,-3.303e-4,0.742,-0.005,0.407,0.215,0.12,NaN,NaN,NaN,NaN,NaN,NaN,NaN,NaN,1.25e-5,165,213.825,84,0,2.134,15,1013.25,340.389,0.01,0.015
0.77,-4.586e-4,-0.092,-9.173,0.092,9.223,-4.82e-5,0,4.82e-5,180,0.01,0.964,22.175,120.893,9.788,98.465,0,0,0,2.799e4,1.349e4,19.96,0.106,NaN,2019.836,NaN,0.006,4.183e5,14.302,-3.276e-4,0.743,-0.005,0.408,0.215,0.12,NaN,NaN,NaN,NaN,NaN,NaN,NaN,NaN,1.247e-5,165,213.825,84,0,2.122,15,1013.25,340.389,0.01,0.015
0.78,-4.56e-4,-0.091,-9.12,0.092,9.171,-4.793e-5,0,4.793e-5,180,0.01,0.959,22.175,120.893,9.788,98.465,0,0,0,2.799e4,1.349e4,19.96,0.106,NaN,2019.83,NaN,0.006,4.158e5,15.77,-3.24e-4,0.743,-0.006,0.408,0.215,0.12,NaN,NaN,NaN,NaN,NaN,NaN,NaN,NaN,1.24e-5,165,213.825,84,0,2.109,15,1013.25,340.389,0.01,0.015
0.79,-4.54e-4,-0.091,-9.079,0.091,9.129,-4.771e-5,0,4.771e-5,180,0.01,0.954,22.175,120.893,9.788,98.469,0,0,0,2.799e4,1.349e4,19.96,0.106,NaN,2019.823,NaN,0.006,4.134e5,16.927,-3.207e-4,0.744,-0.006,0.409,0.215,0.12,NaN,NaN,NaN,NaN,NaN,NaN,NaN,NaN,1.234e-5,165,213.825,84,0,2.096,15,1013.25,340.389,0.01,0.016
0.8,-4.518e-4,-0.09,-9.037,0.091,9.087,-4.749e-5,0,4.749e-5,180,0.009,0.95,22.175,120.893,9.788,98.472,0,0,0,2.799e4,1.349e4,19.96,0.106,NaN,2019.816,NaN,0.006,4.109e5,18.121,-3.175e-4,0.744,-0.006,0.409,0.215,0.12,NaN,NaN,NaN,NaN,NaN,NaN,NaN,NaN,1.228e-5,165,213.825,84,0,2.084,15,1013.25,340.389,0.01,0.016
0.81,-4.495e-4,-0.09,-8.99,0.09,9.04,-4.725e-5,0,4.725e-5,180,0.009,0.945,22.175,120.893,9.788,98.469,0,0,0,2.799e4,1.349e4,19.96,0.106,NaN,2019.809,NaN,0.006,4.093e5,19.438,-3.148e-4,0.745,-0.006,0.409,0.215,0.12,NaN,NaN,NaN,NaN,NaN,NaN,NaN,NaN,1.222e-5,165,213.825,84,0,2.075,15,1013.25,340.389,0.01,0.016
0.82,-4.482e-4,-0.09,-8.965,0.09,9.014,-4.711e-5,0,4.711e-5,180,0.009,0.942,22.175,120.893,9.788,98.472,0,0,0,2.799e4,1.349e4,19.959,0.106,NaN,2019.801,NaN,0.006,4.077e5,20.155,-3.128e-4,0.745,-0.006,0.41,0.215,0.12,NaN,NaN,NaN,NaN,NaN,NaN,NaN,NaN,1.218e-5,165,213.825,84,0,2.067,15,1013.25,340.389,0.01,0.016
0.83,-4.434e-4,-0.089,-8.867,0.089,8.916,-4.66e-5,0,4.66e-5,180,0.009,0.932,22.175,120.893,9.788,98.455,0,0,0,2.799e4,1.349e4,19.959,0.106,NaN,2019.793,NaN,0.006,4.06e5,22.899,-3.086e-4,0.745,-0.005,0.41,0.215,0.12,NaN,NaN,NaN,NaN,NaN,NaN,NaN,NaN,1.205e-5,165,213.825,84,0,2.059,15,1013.25,340.389,0.01,0.016
0.84,-4.345e-4,-0.087,-8.69,0.087,8.738,-4.567e-5,0,4.567e-5,180,0.009,0.913,22.175,120.893,9.788,98.415,0,0,0,2.799e4,1.349e4,19.959,0.106,NaN,2019.782,NaN,0.006,4.044e5,27.886,-3.022e-4,0.746,-0.005,0.411,0.215,0.12,NaN,NaN,NaN,NaN,NaN,NaN,NaN,NaN,1.181e-5,165,213.825,84,0,2.051,15,1013.25,340.389,0.01,0.016
0.85,-4.271e-4,-0.085,-8.542,0.086,8.589,-4.489e-5,0,4.489e-5,180,0.009,0.898,22.175,120.893,9.788,98.384,0,0,0,2.799e4,1.349e4,19.959,0.106,NaN,2019.77,NaN,0.006,4.027e5,32.036,-2.966e-4,0.746,-0.005,0.411,0.215,0.12,NaN,NaN,NaN,NaN,NaN,NaN,NaN,NaN,1.161e-5,165,213.825,84,0,2.043,15,1013.25,340.389,0.01,0.017
0.86,-4.194e-4,-0.084,-8.388,0.084,8.434,-4.408e-5,0,4.408e-5,180,0.009,0.882,22.175,120.893,9.788,98.288,0,0,0,2.799e4,1.349e4,19.959,0.106,NaN,2019.756,NaN,0.006,4.121e5,36.392,-2.995e-4,0.744,-0.005,0.409,0.215,0.12,NaN,NaN,NaN,NaN,NaN,NaN,NaN,NaN,1.14e-5,165,213.825,84,0,2.091,15,1013.25,340.389,0.01,0.017
0.87,-4.119e-4,-0.082,-8.239,0.083,8.284,-4.33e-5,0,4.33e-5,180,0.009,0.866,22.175,120.893,9.788,98.197,0,0,0,2.799e4,1.349e4,19.958,0.106,NaN,2019.74,NaN,0.006,4.214e5,40.581,-3.025e-4,0.742,-0.005,0.407,0.215,0.12,NaN,NaN,NaN,NaN,NaN,NaN,NaN,NaN,1.12e-5,165,213.825,84,0,2.138,15,1013.25,340.389,0.01,0.017
0.88,-4.047e-4,-0.081,-8.093,0.081,8.138,-4.253e-5,0,4.253e-5,180,0.009,0.851,22.175,120.893,9.788,98.112,0,0,0,2.799e4,1.349e4,19.958,0.106,NaN,2019.723,NaN,0.006,4.307e5,44.682,-3.058e-4,0.74,-0.005,0.405,0.215,0.12,NaN,NaN,NaN,NaN,NaN,NaN,NaN,NaN,1.1e-5,165,213.825,84,0,2.186,15,1013.25,340.389,0.01,0.017
0.89,-3.982e-4,-0.08,-7.965,0.08,8.008,-4.186e-5,0,4.186e-5,180,0.008,0.837,22.175,120.893,9.788,98.034,0,0,0,2.799e4,1.349e4,19.958,0.106,NaN,2019.705,NaN,0.007,4.401e5,48.294,-3.096e-4,0.738,-0.005,0.403,0.215,0.12,NaN,NaN,NaN,NaN,NaN,NaN,NaN,NaN,1.083e-5,165,213.825,84,0,2.234,15,1013.25,340.389,0.01,0.017
0.9,-3.921e-4,-0.078,-7.842,0.079,7.885,-4.121e-5,0,4.121e-5,180,0.008,0.824,22.175,120.893,9.788,97.961,0,0,0,2.799e4,1.349e4,19.957,0.106,NaN,2019.685,NaN,0.007,4.494e5,51.752,-3.136e-4,0.736,-0.005,0.401,0.215,0.12,NaN,NaN,NaN,NaN,NaN,NaN,NaN,NaN,1.066e-5,165,213.825,84,0,2.282,15,1013.25,340.389,0.01,0.017
0.91,-3.84e-4,-0.077,-7.679,0.077,7.722,-4.036e-5,0,4.036e-5,180,0.008,0.807,22.175,120.893,9.788,97.912,0,0,0,2.798e4,1.348e4,19.957,0.106,NaN,2019.664,NaN,0.007,4.513e5,56.319,-3.105e-4,0.736,-0.004,0.401,0.215,0.12,NaN,NaN,NaN,NaN,NaN,NaN,NaN,NaN,1.044e-5,165,213.825,84,0,2.292,15,1013.25,340.389,0.01,0.018
0.92,-3.761e-4,-0.075,-7.522,0.076,7.563,-3.953e-5,0,3.953e-5,180,0.008,0.791,22.175,120.893,9.788,97.865,0,0,0,2.798e4,1.348e4,19.957,0.106,NaN,2019.641,NaN,0.007,4.532e5,60.748,-3.076e-4,0.736,-0.004,0.401,0.215,0.12,NaN,NaN,NaN,NaN,NaN,NaN,NaN,NaN,1.022e-5,165,213.825,84,0,2.302,15,1013.25,340.389,0.01,0.018
0.93,-3.643e-4,-0.073,-7.286,0.073,7.326,-3.829e-5,0,3.829e-5,180,0.008,0.766,22.175,120.893,9.788,97.799,0,0,0,2.798e4,1.348e4,19.956,0.106,NaN,2019.615,NaN,0.007,4.551e5,67.387,-3.025e-4,0.735,-0.004,0.4,0.215,0.12,NaN,NaN,NaN,NaN,NaN,NaN,NaN,NaN,9.903e-6,165,213.825,84,0,2.312,15,1013.25,340.389,0.01,0.018
0.94,-3.499e-4,-0.07,-6.999,0.07,7.037,-3.678e-5,0,3.678e-5,180,0.007,0.736,22.175,120.893,9.788,97.721,0,0,0,2.798e4,1.348e4,19.956,0.106,NaN,2019.586,NaN,0.007,4.57e5,75.455,-2.961e-4,0.735,-0.004,0.4,0.215,0.12,NaN,NaN,NaN,NaN,NaN,NaN,NaN,NaN,9.513e-6,165,213.825,84,0,2.322,15,1013.25,340.389,0.01,0.018
0.95,-3.337e-4,-0.067,-6.673,0.067,6.71,-3.507e-5,0,3.507e-5,180,0.007,0.701,22.175,120.893,9.788,97.634,0,0,0,2.798e4,1.348e4,19.955,0.106,NaN,2019.554,NaN,0.007,4.589e5,84.603,-2.887e-4,0.735,-0.004,0.399,0.215,0.12,NaN,NaN,NaN,NaN,NaN,NaN,NaN,NaN,9.071e-6,165,213.825,84,0,2.332,15,1013.25,340.389,0.01,0.018
0.96,-3.135e-4,-0.063,-6.271,0.063,6.305,-3.295e-5,0,3.295e-5,180,0.007,0.659,22.175,120.893,9.788,97.552,0,0,0,2.798e4,1.348e4,19.954,0.106,NaN,2019.517,NaN,0.007,4.539e5,95.934,-2.741e-4,0.735,-0.004,0.4,0.215,0.12,NaN,NaN,NaN,NaN,NaN,NaN,NaN,NaN,8.523e-6,165,213.825,84,0,2.307,15,1013.25,340.389,0.01,0.019
0.97,-2.933e-4,-0.059,-5.865,0.059,5.898,-3.082e-5,0,3.082e-5,180,0.006,0.616,22.175,120.893,9.788,97.468,0,0,0,2.798e4,1.348e4,19.954,0.106,NaN,2019.476,NaN,0.007,4.489e5,107.326,-2.598e-4,0.736,-0.004,0.401,0.215,0.12,NaN,NaN,NaN,NaN,NaN,NaN,NaN,NaN,7.972e-6,165,213.825,84,0,2.282,15,1013.25,340.389,0.01,0.019
0.98,-2.671e-4,-0.053,-5.342,0.054,5.372,-2.808e-5,0,2.808e-5,180,0.006,0.561,22.175,120.893,9.788,97.352,0,0,0,2.797e4,1.347e4,19.953,0.106,NaN,2019.43,NaN,0.007,4.439e5,122.033,-2.43e-4,0.737,-0.004,0.402,0.215,0.12,NaN,NaN,NaN,NaN,NaN,NaN,NaN,NaN,7.261e-6,165,213.825,84,0,2.257,15,1013.25,340.389,0.01,0.019
0.99,-2.333e-4,-0.047,-4.667,0.047,4.692,-2.453e-5,0,2.453e-5,180,0.005,0.49,22.175,120.893,9.788,97.195,0,0,0,2.797e4,1.347e4,19.952,0.106,NaN,2019.376,NaN,0.007,4.389e5,141.022,-2.233e-4,0.738,-0.003,0.403,0.215,0.12,NaN,NaN,NaN,NaN,NaN,NaN,NaN,NaN,6.343e-6,165,213.825,84,0,2.232,15,1013.25,340.389,0.01,0.019
1,-1.839e-4,-0.037,-3.678,0.037,3.699,-1.933e-5,0,1.933e-5,180,0.004,0.387,22.175,120.893,9.788,96.953,0,0,0,2.797e4,1.347e4,19.951,0.106,NaN,2019.312,NaN,0.006,4.337e5,168.795,-1.976e-4,0.739,-0.003,0.404,0.215,0.12,NaN,NaN,NaN,NaN,NaN,NaN,NaN,NaN,5e-6,165,213.825,84,0,2.207,15,1013.25,340.389,0.01,0.019
1.01,-1.138e-4,-0.023,-2.275,0.023,2.288,-1.196e-5,0,1.196e-5,180,0.002,0.239,22.175,120.893,9.788,96.594,0,0,0,2.796e4,1.346e4,19.949,0.106,NaN,2019.232,NaN,0.006,4.305e5,208.221,-1.669e-4,0.74,-0.003,0.405,0.215,0.12,NaN,NaN,NaN,NaN,NaN,NaN,NaN,NaN,3.094e-6,165,213.825,84,0,2.193,15,1013.25,340.389,0.01,0.019
1.02,-4.855e-5,-0.01,-0.97,0.01,0.975,-5.103e-6,0,5.103e-6,180,0.001,0.102,22.175,120.893,9.788,96.255,0,0,0,2.796e4,1.346e4,19.948,0.106,NaN,2019.139,NaN,0.006,4.274e5,244.886,-1.41e-4,0.741,-0.002,0.406,0.215,0.12,NaN,NaN,NaN,NaN,NaN,NaN,NaN,NaN,1.32e-6,165,213.825,84,0,2.178,15,1013.25,340.389,0.01,0.02
1.03,2.205e-5,0.004,0.442,0.004,0.445,2.317e-6,0,2.317e-6,0,4.638e-4,0.046,22.175,120.893,9.788,95.883,0,0,0,2.795e4,1.345e4,19.946,0.106,NaN,2019.03,NaN,0.006,4.242e5,284.538,-1.162e-4,0.741,-0.002,0.406,0.215,0.12,NaN,NaN,NaN,NaN,NaN,NaN,NaN,NaN,5.998e-7,165,213.825,84,0,2.163,15,1013.25,340.389,0.01,0.02
1.04,1.641e-4,0.024,1.96,0.024,1.971,1.725e-5,0,1.725e-5,0,0.003,0.206,22.175,120.893,9.788,95.359,0,0,0,2.795e4,1.345e4,19.943,0.106,NaN,2018.905,NaN,0.006,4.209e5,327.142,-8.705e-5,0.742,-0.001,0.407,0.215,0.12,NaN,NaN,NaN,NaN,NaN,NaN,NaN,NaN,3.263e-6,165,213.825,84,0,2.149,15,1013.25,340.389,0.01,0.02
1.05,5.833e-4,0.06,3.585,0.06,3.604,6.13e-5,0,6.13e-5,0,0.006,0.377,22.175,120.893,9.788,94.389,0,0,0,2.794e4,1.344e4,19.941,0.106,NaN,2018.763,NaN,0.006,4.175e5,372.693,-4.758e-5,0.743,-8.018e-4,0.408,0.215,0.12,NaN,NaN,NaN,NaN,NaN,NaN,NaN,NaN,8.133e-6,165,213.825,84,0,2.134,15,1013.25,340.389,0.01,0.02
1.06,0.001,0.115,5.563,0.116,5.594,1.534e-4,0,1.534e-4,0,0.012,0.585,22.175,120.893,9.788,92.868,0,0,0,2.793e4,1.343e4,19.938,0.106,NaN,2018.599,NaN,0.006,4.144e5,428.171,-1.331e-5,0.743,-2.276e-4,0.408,0.215,0.12,NaN,NaN,NaN,NaN,NaN,NaN,NaN,NaN,1.569e-5,165,213.825,84,0,2.122,15,1013.25,340.389,0.01,0.02
1.07,0.003,0.191,7.517,0.192,7.558,3.142e-4,0,3.142e-4,0,0.02,0.79,22.175,120.893,9.788,90.79,0,0,0,2.792e4,1.342e4,19.935,0.106,NaN,2018.415,NaN,0.006,4.116e5,482.882,-2.811e-7,0.744,-4.871e-6,0.409,0.215,0.12,NaN,NaN,NaN,NaN,NaN,NaN,NaN,NaN,2.59e-5,165,213.825,84,0,2.11,15,1013.25,340.389,0.01,0.021
1.08,0.005,0.288,9.758,0.29,9.812,5.658e-4,0,5.658e-4,0,0.03,1.026,22.175,120.893,9.788,88.069,0,0,0,2.791e4,1.341e4,19.931,0.106,NaN,2018.206,NaN,0.006,4.095e5,545.617,4.012e-6,0.745,7.026e-5,0.409,0.215,0.12,NaN,NaN,NaN,NaN,NaN,NaN,NaN,NaN,3.916e-5,165,213.825,84,0,2.098,15,1013.249,340.389,0.01,0.021
1.09,0.009,0.411,12.305,0.413,12.373,9.333e-4,0,9.333e-4,0,0.043,1.293,22.175,120.893,9.788,84.624,0,0,0,2.79e4,1.34e4,19.927,0.106,NaN,2017.969,NaN,0.006,4.088e5,616.859,8.315e-5,0.745,0.001,0.41,0.215,0.12,NaN,NaN,NaN,NaN,NaN,NaN,NaN,NaN,5.588e-5,165,213.825,84,0,2.087,15,1013.249,340.389,0.01,0.021
1.1,0.014,0.563,15.219,0.566,15.303,0.001,0,0.001,0,0.059,1.6,22.175,120.893,9.788,80.386,0,0,0,2.789e4,1.339e4,19.922,0.106,NaN,2017.702,NaN,0.006,4.104e5,698.307,4.57e-4,0.744,0.008,0.409,0.215,0.12,NaN,NaN,NaN,NaN,NaN,NaN,NaN,NaN,7.656e-5,165,213.825,84,0,2.075,15,1013.248,340.389,0.01,0.021
1.11,0.02,0.746,18.29,0.75,18.39,0.002,0,0.002,0,0.078,1.922,22.175,120.893,9.788,75.683,0,0,0,2.788e4,1.338e4,19.917,0.106,NaN,2017.401,NaN,0.006,4.214e5,784.022,0.002,0.742,0.025,0.407,0.215,0.12,NaN,NaN,NaN,NaN,NaN,NaN,NaN,NaN,1.014e-4,165,213.825,84,0,2.093,15,1013.248,340.389,0.01,0.021
1.12,0.029,0.96,21.441,0.966,21.559,0.003,0,0.003,0,0.101,2.253,22.175,120.893,9.788,70.476,0,0,0,2.786e4,1.336e4,19.911,0.106,NaN,2017.066,NaN,0.007,4.371e5,871.849,0.004,0.739,0.059,0.404,0.215,0.12,NaN,NaN,NaN,NaN,NaN,NaN,NaN,NaN,1.305e-4,165,213.825,84,0,2.112,15,1013.247,340.389,0.01,0.021
1.13,0.04,1.207,24.646,1.213,24.782,0.004,0,0.004,0,0.127,2.59,22.175,120.893,9.788,64.949,0,0,0,2.784e4,1.334e4,19.904,0.106,NaN,2016.696,NaN,0.007,4.588e5,961.049,0.008,0.735,0.115,0.399,0.215,0.12,NaN,NaN,NaN,NaN,NaN,NaN,NaN,NaN,1.64e-4,165,213.825,84,0,2.131,15,1013.245,340.389,0.01,0.022
1.14,0.053,1.482,27.565,1.49,27.717,0.006,0,0.006,0,0.156,2.897,22.175,120.893,9.788,59.377,0,0,0,2.782e4,1.332e4,19.897,0.106,NaN,2016.295,NaN,0.007,4.873e5,1042.073,0.016,0.729,0.192,0.394,0.215,0.12,NaN,NaN,NaN,NaN,NaN,NaN,NaN,NaN,2.015e-4,165,213.825,84,0,2.15,15,1013.244,340.389,0.01,0.022
1.15,0.069,1.783,30.094,1.793,30.26,0.007,0,0.007,0,0.187,3.163,22.175,120.893,9.788,54.016,0,0,0,2.78e4,1.33e4,19.889,0.106,NaN,2015.866,NaN,0.008,5.228e5,1112.029,0.026,0.724,0.284,0.388,0.215,0.12,NaN,NaN,NaN,NaN,NaN,NaN,NaN,NaN,2.424e-4,165,213.825,84,0,2.169,15,1013.242,340.389,0.01,0.022
1.16,0.089,2.106,32.29,2.117,32.468,0.009,0,0.009,0,0.221,3.394,22.175,120.893,9.788,48.53,0,0,0,2.778e4,1.328e4,19.881,0.106,NaN,2015.413,NaN,0.008,5.604e5,1172.553,0.042,0.718,0.393,0.383,0.215,0.12,NaN,NaN,NaN,NaN,NaN,NaN,NaN,NaN,2.862e-4,165,213.825,84,0,2.153,14.999,1013.24,340.389,0.01,0.022
1.17,0.112,2.446,34.03,2.459,34.217,0.012,0,0.012,0,0.257,3.577,22.175,120.893,9.788,43.548,0,0,0,2.776e4,1.326e4,19.873,0.105,NaN,2014.941,NaN,0.009,6.05e5,1220.187,0.062,0.712,0.499,0.377,0.215,0.12,NaN,NaN,NaN,NaN,NaN,NaN,NaN,NaN,3.325e-4,165,213.825,84,0,2.137,14.999,1013.237,340.388,0.01,0.022
1.18,0.138,2.799,35.306,2.814,35.501,0.014,0,0.014,0,0.294,3.711,22.175,120.893,9.788,39.138,0,0,0,2.774e4,1.324e4,19.864,0.105,NaN,2014.455,NaN,0.01,6.555e5,1254.818,0.087,0.706,0.593,0.371,0.215,0.12,NaN,NaN,NaN,NaN,NaN,NaN,NaN,NaN,3.804e-4,165,213.825,84,0,2.121,14.999,1013.234,340.388,0.01,0.022
1.19,0.168,3.16,36.108,3.177,36.307,0.018,0,0.018,0,0.332,3.795,22.175,120.893,9.788,35.304,0,0,0,2.771e4,1.321e4,19.855,0.105,NaN,2013.959,NaN,0.011,7.106e5,1276.135,0.115,0.7,0.67,0.364,0.215,0.12,NaN,NaN,NaN,NaN,NaN,NaN,NaN,NaN,4.295e-4,165,213.825,84,0,2.106,14.999,1013.23,340.388,0.01,0.023
1.2,0.201,3.526,36.661,3.546,36.863,0.021,0,0.021,0,0.371,3.853,22.175,120.893,9.788,31.991,0,0,0,2.769e4,1.319e4,19.846,0.105,NaN,2013.458,NaN,0.012,7.693e5,1290.479,0.147,0.694,0.731,0.359,0.215,0.12,NaN,NaN,NaN,NaN,NaN,NaN,NaN,NaN,4.793e-4,165,213.825,84,0,2.09,14.999,1013.226,340.388,0.01,0.023
1.21,0.238,3.896,36.967,3.917,37.171,0.025,0,0.025,0,0.409,3.885,22.175,120.893,9.788,29.206,0,0,0,2.767e4,1.317e4,19.837,0.105,NaN,2012.952,NaN,0.012,8.312e5,1297.933,0.183,0.688,0.776,0.353,0.215,0.12,NaN,NaN,NaN,NaN,NaN,NaN,NaN,NaN,5.295e-4,165,213.825,84,0,2.08,14.998,1013.222,340.388,0.01,0.023
1.22,0.279,4.266,37.026,4.289,37.23,0.029,0,0.029,0,0.448,3.892,22.175,120.893,9.788,26.809,0,0,0,2.764e4,1.314e4,19.828,0.105,NaN,2012.446,NaN,0.013,8.949e5,1298.512,0.22,0.683,0.808,0.348,0.215,0.12,NaN,NaN,NaN,NaN,NaN,NaN,NaN,NaN,5.798e-4,165,213.825,84,0,2.069,14.998,1013.217,340.388,0.01,0.023
1.23,0.324,4.636,37.069,4.662,37.273,0.034,0,0.034,0,0.487,3.896,22.175,120.893,9.788,24.731,0,0,0,2.762e4,1.312e4,19.819,0.105,NaN,2011.938,NaN,0.014,9.601e5,1298.633,0.261,0.678,0.83,0.343,0.215,0.12,NaN,NaN,NaN,NaN,NaN,NaN,NaN,NaN,6.302e-4,165,213.825,84,0,2.059,14.998,1013.212,340.388,0.01,0.023
1.24,0.372,5.006,36.975,5.033,37.179,0.039,0,0.039,0,0.526,3.886,22.175,120.893,9.788,22.923,0,0,0,2.76e4,1.31e4,19.81,0.105,NaN,2011.431,NaN,0.015,1.026e6,1294.965,0.303,0.674,0.845,0.338,0.215,0.12,NaN,NaN,NaN,NaN,NaN,NaN,NaN,NaN,6.804e-4,165,213.825,84,0,2.049,14.998,1013.206,340.387,0.01,0.024
1.25,0.424,5.374,36.89,5.404,37.093,0.045,0,0.045,0,0.565,3.877,22.175,120.893,9.788,21.339,0,0,0,2.757e4,1.307e4,19.801,0.105,NaN,2010.925,NaN,0.016,1.093e6,1291.53,0.347,0.669,0.853,0.334,0.215,0.12,NaN,NaN,NaN,NaN,NaN,NaN,NaN,NaN,7.305e-4,165,213.825,84,0,2.039,14.997,1013.2,340.387,0.01,0.024
1.26,0.479,5.742,36.802,5.774,37.005,0.05,0,0.05,0,0.604,3.868,22.175,120.893,9.788,20.118,0,0,0,2.755e4,1.305e4,19.792,0.105,NaN,2010.419,NaN,0.017,1.161e6,1288.052,0.393,0.665,0.856,0.33,0.215,0.12,NaN,NaN,NaN,NaN,NaN,NaN,NaN,NaN,7.805e-4,165,213.825,84,0,2.048,14.997,1013.194,340.387,0.01,0.024
1.27,0.538,6.109,36.69,6.143,36.892,0.057,0,0.057,0,0.642,3.856,22.175,120.893,9.788,19.037,0,0,0,2.753e4,1.303e4,19.783,0.105,NaN,2009.914,NaN,0.018,1.23e6,1283.912,0.441,0.662,0.856,0.327,0.215,0.12,NaN,NaN,NaN,NaN,NaN,NaN,NaN,NaN,8.304e-4,165,213.825,84,0,2.057,14.997,1013.187,340.387,0.01,0.024
1.28,0.601,6.475,36.657,6.511,36.859,0.063,0,0.063,0,0.681,3.853,22.175,120.893,9.788,18.071,0,0,0,2.75e4,1.3e4,19.774,0.105,NaN,2009.409,NaN,0.019,1.299e6,1281.967,0.491,0.658,0.855,0.323,0.215,0.12,NaN,NaN,NaN,NaN,NaN,NaN,NaN,NaN,8.802e-4,165,213.825,84,0,2.065,14.996,1013.179,340.387,0.01,0.024
1.29,0.668,6.841,36.575,6.879,36.776,0.07,0,0.07,0,0.719,3.844,22.175,120.893,9.788,17.204,0,0,0,2.748e4,1.298e4,19.765,0.105,NaN,2008.904,NaN,0.02,1.368e6,1278.651,0.542,0.655,0.852,0.32,0.215,0.12,NaN,NaN,NaN,NaN,NaN,NaN,NaN,NaN,9.298e-4,165,213.825,84,0,2.074,14.996,1013.172,340.386,0.01,0.024
1.3,0.738,7.206,36.533,7.246,36.735,0.078,0,0.078,0,0.757,3.84,22.175,120.893,9.788,16.422,0,0,0,2.746e4,1.296e4,19.756,0.105,NaN,2008.399,NaN,0.022,1.437e6,1276.485,0.596,0.652,0.847,0.317,0.215,0.12,NaN,NaN,NaN,NaN,NaN,NaN,NaN,NaN,9.795e-4,165,213.825,84,0,2.083,14.995,1013.163,340.386,0.01,0.025
1.31,0.812,7.571,36.528,7.613,36.729,0.085,0,0.085,0,0.796,3.839,22.175,120.893,9.788,15.501,0,0,0,2.743e4,1.293e4,19.747,0.105,NaN,2007.894,NaN,0.023,1.505e6,1275.318,0.648,0.649,0.84,0.314,0.215,0.12,NaN,NaN,NaN,NaN,NaN,NaN,NaN,NaN,0.001,165,213.825,84,0,2.063,14.995,1013.155,340.386,0.01,0.025
1.32,0.89,7.936,36.5,7.98,36.701,0.094,0,0.094,0,0.834,3.836,22.175,120.893,9.788,14.662,0,0,0,2.741e4,1.291e4,19.738,0.105,NaN,2007.388,NaN,0.024,1.574e6,1273.528,0.701,0.647,0.831,0.311,0.215,0.12,NaN,NaN,NaN,NaN,NaN,NaN,NaN,NaN,0.001,165,213.825,84,0,2.043,14.994,1013.146,340.385,0.01,0.025
1.33,0.971,8.301,36.551,8.347,36.752,0.102,0,0.102,0,0.873,3.842,22.175,120.893,9.788,13.891,0,0,0,2.739e4,1.289e4,19.729,0.105,NaN,2006.882,NaN,0.025,1.643e6,1273.891,0.755,0.644,0.82,0.309,0.215,0.12,NaN,NaN,NaN,NaN,NaN,NaN,NaN,NaN,0.001,165,213.825,84,0,2.023,14.994,1013.136,340.385,0.01,0.025
1.34,1.056,8.666,36.528,8.714,36.729,0.111,0,0.111,0,0.911,3.839,22.175,120.893,9.788,13.184,0,0,0,2.736e4,1.286e4,19.72,0.105,NaN,2006.376,NaN,0.026,1.713e6,1272.247,0.809,0.642,0.81,0.306,0.215,0.12,NaN,NaN,NaN,NaN,NaN,NaN,NaN,NaN,0.001,165,213.825,84,0,2.003,14.993,1013.126,340.385,0.01,0.025
1.35,1.144,9.032,36.538,9.081,36.74,0.12,0,0.12,0,0.949,3.84,22.175,120.893,9.788,12.531,0,0,0,2.734e4,1.284e4,19.711,0.105,NaN,2005.868,NaN,0.027,1.783e6,1271.517,0.864,0.639,0.799,0.304,0.215,0.12,NaN,NaN,NaN,NaN,NaN,NaN,NaN,NaN,0.001,165,213.825,84,0,1.983,14.993,1013.116,340.384,0.01,0.026
1.36,1.236,9.397,36.576,9.449,36.778,0.13,0,0.13,0,0.988,3.844,22.175,120.893,9.788,12.18,0,0,0,2.732e4,1.282e4,19.702,0.105,NaN,2005.361,NaN,0.028,1.854e6,1271.539,0.926,0.637,0.791,0.302,0.215,0.12,NaN,NaN,NaN,NaN,NaN,NaN,NaN,NaN,0.001,165,213.825,84,0,2.005,14.992,1013.105,340.384,0.01,0.026
1.37,1.332,9.763,36.593,9.817,36.794,0.14,0,0.14,0,1.026,3.846,22.175,120.893,9.788,11.854,0,0,0,2.729e4,1.279e4,19.693,0.105,NaN,2004.852,NaN,0.029,1.925e6,1270.983,0.989,0.635,0.784,0.3,0.215,0.12,NaN,NaN,NaN,NaN,NaN,NaN,NaN,NaN,0.001,165,213.825,84,0,2.027,14.991,1013.094,340.384,0.01,0.026
1.38,1.432,10.13,36.709,10.186,36.911,0.15,0,0.15,0,1.065,3.858,22.175,120.893,9.788,11.551,0,0,0,2.727e4,1.277e4,19.684,0.105,NaN,2004.342,NaN,0.03,1.996e6,1273.167,1.054,0.633,0.777,0.298,0.215,0.12,NaN,NaN,NaN,NaN,NaN,NaN,NaN,NaN,0.001,165,213.825,84,0,2.049,14.991,1013.082,340.383,0.01,0.026
1.39,1.535,10.497,36.75,10.555,36.953,0.161,0,0.161,0,1.103,3.863,22.175,120.893,9.788,11.267,0,0,0,2.725e4,1.275e4,19.675,0.105,NaN,2003.83,NaN,0.031,2.067e6,1273.278,1.121,0.631,0.771,0.296,0.215,0.12,NaN,NaN,NaN,NaN,NaN,NaN,NaN,NaN,0.001,165,213.825,84,0,2.071,14.99,1013.07,340.383,0.01,0.026
1.4,1.641,10.865,36.838,10.925,37.041,0.173,0,0.173,0,1.142,3.872,22.175,120.893,9.788,11.002,0,0,0,2.723e4,1.273e4,19.666,0.105,NaN,2003.318,NaN,0.032,2.139e6,1274.663,1.191,0.629,0.764,0.294,0.215,0.12,NaN,NaN,NaN,NaN,NaN,NaN,NaN,NaN,0.001,165,213.825,84,0,2.093,14.989,1013.057,340.382,0.01,0.026
1.41,1.752,11.235,36.945,11.297,37.149,0.184,0,0.184,0,1.181,3.883,22.175,120.893,9.788,10.736,0,0,0,2.72e4,1.27e4,19.657,0.105,NaN,2002.803,NaN,0.033,2.211e6,1276.588,1.262,0.628,0.758,0.292,0.215,0.12,NaN,NaN,NaN,NaN,NaN,NaN,NaN,NaN,0.002,165,213.825,84,0,2.112,14.989,1013.045,340.382,0.01,0.027
1.42,1.866,11.605,37.014,11.669,37.218,0.196,0,0.196,0,1.22,3.89,22.175,120.893,9.788,10.486,0,0,0,2.718e4,1.268e4,19.648,0.105,NaN,2002.288,NaN,0.034,2.283e6,1277.444,1.334,0.626,0.752,0.291,0.215,0.12,NaN,NaN,NaN,NaN,NaN,NaN,NaN,NaN,0.002,165,213.825,84,0,2.13,14.988,1013.031,340.382,0.01,0.027
1.43,1.984,11.976,37.15,12.042,37.354,0.209,0,0.209,0,1.259,3.905,22.175,120.893,9.788,10.251,0,0,0,2.716e4,1.266e4,19.639,0.105,NaN,2001.77,NaN,0.035,2.355e6,1280.14,1.41,0.624,0.746,0.289,0.215,0.12,NaN,NaN,NaN,NaN,NaN,NaN,NaN,NaN,0.002,165,213.825,84,0,2.149,14.987,1013.017,340.381,0.01,0.027
1.44,2.106,12.348,37.207,12.416,37.412,0.221,0,0.221,0,1.298,3.911,22.175,120.893,9.788,10.029,0,0,0,2.713e4,1.263e4,19.629,0.105,NaN,2001.252,NaN,0.036,2.427e6,1280.681,1.488,0.623,0.742,0.288,0.215,0.12,NaN,NaN,NaN,NaN,NaN,NaN,NaN,NaN,0.002,165,213.825,84,0,2.168,14.986,1013.003,340.381,0.01,0.027
1.45,2.231,12.721,37.317,12.791,37.522,0.234,0,0.234,0,1.337,3.922,22.175,120.893,9.788,9.819,0,0,0,2.711e4,1.261e4,19.62,0.105,NaN,2000.731,NaN,0.037,2.5e6,1282.653,1.571,0.623,0.738,0.288,0.215,0.12,NaN,NaN,NaN,NaN,NaN,NaN,NaN,NaN,0.002,165,213.825,84,0,2.186,14.985,1012.988,340.38,0.01,0.027
1.46,2.36,13.095,37.435,13.167,37.641,0.248,0,0.248,0,1.376,3.935,22.175,120.893,9.788,9.519,0,0,0,2.709e4,1.259e4,19.611,0.104,NaN,2000.209,NaN,0.039,2.573e6,1284.861,1.653,0.623,0.733,0.288,0.215,0.12,NaN,NaN,NaN,NaN,NaN,NaN,NaN,NaN,0.002,165,213.825,84,0,2.182,14.985,1012.973,340.38,0.01,0.027
1.47,2.493,13.47,37.489,13.544,37.695,0.262,0,0.262,0,1.416,3.94,22.175,120.893,9.788,9.236,0,0,0,2.706e4,1.256e4,19.602,0.104,NaN,1999.686,NaN,0.04,2.645e6,1285.292,1.737,0.623,0.729,0.288,0.215,0.12,NaN,NaN,NaN,NaN,NaN,NaN,NaN,NaN,0.002,165,213.825,84,0,2.177,14.984,1012.958,340.379,0.01,0.028
1.48,2.63,13.846,37.611,13.922,37.818,0.276,0,0.276,0,1.455,3.953,22.175,120.893,9.788,8.967,0,0,0,2.704e4,1.254e4,19.592,0.104,NaN,1999.161,NaN,0.041,2.718e6,1287.587,1.823,0.623,0.724,0.288,0.215,0.12,NaN,NaN,NaN,NaN,NaN,NaN,NaN,NaN,0.002,165,213.825,84,0,2.173,14.983,1012.942,340.379,0.01,0.028
1.49,2.77,14.222,37.657,14.3,37.865,0.291,0,0.291,0,1.495,3.958,22.175,120.893,9.788,8.712,0,0,0,2.702e4,1.252e4,19.583,0.104,NaN,1998.635,NaN,0.042,2.792e6,1287.832,1.912,0.623,0.72,0.288,0.215,0.12,NaN,NaN,NaN,NaN,NaN,NaN,NaN,NaN,0.002,165,213.825,84,0,2.168,14.982,1012.925,340.378,0.01,0.028
1.5,2.914,14.599,37.728,14.679,37.936,0.306,0,0.306,0,1.534,3.965,22.175,120.893,9.788,8.469,0,0,0,2.699e4,1.249e4,19.574,0.104,NaN,1998.108,NaN,0.043,2.865e6,1288.735,2.003,0.623,0.716,0.288,0.215,0.12,NaN,NaN,NaN,NaN,NaN,NaN,NaN,NaN,0.002,165,213.825,84,0,2.164,14.981,1012.908,340.377,0.01,0.028
1.51,3.062,14.977,37.811,15.059,38.019,0.322,0,0.322,0,1.574,3.974,22.175,120.893,9.788,8.21,0,0,0,2.697e4,1.247e4,19.564,0.104,NaN,1997.579,NaN,0.044,2.939e6,1289.948,2.094,0.623,0.712,0.288,0.215,0.12,NaN,NaN,NaN,NaN,NaN,NaN,NaN,NaN,0.002,165,213.825,84,0,2.152,14.98,1012.891,340.377,0.01,0.028
1.52,3.214,15.355,37.828,15.44,38.036,0.338,0,0.338,0,1.614,3.976,22.175,120.893,9.788,7.963,0,0,0,2.695e4,1.244e4,19.555,0.104,NaN,1997.049,NaN,0.045,3.012e6,1289.376,2.188,0.623,0.708,0.288,0.215,0.12,NaN,NaN,NaN,NaN,NaN,NaN,NaN,NaN,0.002,165,213.825,84,0,2.14,14.979,1012.873,340.376,0.01,0.029
1.53,3.369,15.735,37.969,15.821,38.178,0.354,0,0.354,0,1.654,3.991,22.175,120.893,9.788,7.728,0,0,0,2.692e4,1.242e4,19.546,0.104,NaN,1996.518,NaN,0.046,3.086e6,1292.164,2.285,0.623,0.704,0.288,0.215,0.12,NaN,NaN,NaN,NaN,NaN,NaN,NaN,NaN,0.002,165,213.825,84,0,2.128,14.978,1012.855,340.376,0.01,0.029
1.54,3.528,16.115,38.039,16.203,38.249,0.371,0,0.371,0,1.694,3.998,22.175,120.893,9.788,7.503,0,0,0,2.69e4,1.24e4,19.536,0.104,NaN,1995.985,NaN,0.047,3.161e6,1293.051,2.383,0.623,0.701,0.288,0.215,0.12,NaN,NaN,NaN,NaN,NaN,NaN,NaN,NaN,0.002,165,213.825,84,0,2.117,14.977,1012.836,340.375,0.01,0.029
1.55,3.691,16.496,38.146,16.587,38.356,0.388,0,0.388,0,1.734,4.009,22.175,120.893,9.788,7.288,0,0,0,2.687e4,1.237e4,19.527,0.104,NaN,1995.451,NaN,0.048,3.235e6,1294.89,2.485,0.623,0.697,0.288,0.215,0.12,NaN,NaN,NaN,NaN,NaN,NaN,NaN,NaN,0.002,165,213.825,84,0,2.105,14.976,1012.817,340.374,0.01,0.029
1.56,3.858,16.879,38.271,16.971,38.482,0.406,0,0.406,0,1.774,4.022,22.175,120.893,9.788,7.193,0,0,0,2.685e4,1.235e4,19.517,0.104,NaN,1994.914,NaN,0.05,3.31e6,1297.251,2.595,0.623,0.696,0.288,0.215,0.12,NaN,NaN,NaN,NaN,NaN,NaN,NaN,NaN,0.002,165,213.825,84,0,2.125,14.975,1012.798,340.374,0.01,0.029
1.57,4.029,17.261,38.291,17.356,38.502,0.423,0,0.423,0,1.814,4.025,22.175,120.893,9.788,7.102,0,0,0,2.683e4,1.233e4,19.508,0.104,NaN,1994.377,NaN,0.051,3.385e6,1296.778,2.709,0.623,0.694,0.288,0.215,0.12,NaN,NaN,NaN,NaN,NaN,NaN,NaN,NaN,0.002,165,213.825,84,0,2.146,14.974,1012.777,340.373,0.01,0.029
1.585,4.292,17.835,38.285,17.935,38.651,0.451,1.139e-8,0.451,1.446e-6,1.894,5.3,22.175,120.893,9.788,6.911,0,0.038,7.208e-6,2.679e4,1.229e4,19.493,0.104,2126.977,1993.568,0.809,0.052,3.497e6,1298.654,2.879,0.623,0.691,0.288,0.215,0.12,1.601,1.295,-4.148e-4,0,0,0,0,5.213e-6,0.002,165,213.825,84,-8.086e-8,2.177,14.972,1012.747,340.372,0.015,0.03
1.608,4.703,18.7,38.488,18.808,38.855,0.495,7.268e-8,0.495,8.409e-6,2.013,5.33,22.175,120.893,9.788,6.592,0,0.1,-3.242e-6,2.674e4,1.224e4,19.472,0.104,2132.495,1992.348,0.849,0.055,3.666e6,1301.804,3.141,0.624,0.686,0.288,0.215,0.12,1.513,1.285,3.675e-4,0,0,0,0,3.26e-5,0.003,165,213.825,84.002,1.883e-7,2.207,14.969,1012.698,340.37,0.023,0.03
1.641,5.356,20.008,38.826,20.128,39.196,0.566,2.703e-7,0.566,2.736e-5,2.194,5.369,22.175,120.893,9.788,6.014,0,0.202,-4.237e-6,2.666e4,1.216e4,19.439,0.104,2142.778,1990.501,0.923,0.059,3.922e6,1307.398,3.549,0.624,0.677,0.288,0.215,0.12,1.356,1.252,-1.016e-4,0,0,0,0,1.167e-4,0.003,165,213.825,84.007,-1.386e-6,2.202,14.965,1012.622,340.368,0.034,0.03
1.691,6.406,21.965,39.248,22.103,39.621,0.683,8.171e-7,0.683,6.858e-5,2.465,5.425,22.175,120.893,9.788,5.513,0,0.375,3.186e-5,2.654e4,1.204e4,19.39,0.104,2152.05,1987.731,0.996,0.065,4.306e6,1313.533,4.232,0.624,0.67,0.288,0.215,0.121,1.224,1.219,3.836e-5,0,0,0,0,3.343e-4,0.003,165,213.825,84.021,9.987e-6,2.286,14.958,1012.499,340.364,0.05,0.03
1.741,7.553,23.952,39.831,24.108,40.205,0.813,1.701e-6,0.813,1.199e-4,2.738,5.474,22.175,120.893,9.788,4.851,0,0.575,-4.149e-5,2.642e4,1.192e4,19.34,0.104,2164.764,1984.915,1.09,0.07,4.696e6,1323.765,4.964,0.624,0.661,0.288,0.216,0.121,1.055,1.15,5.248e-5,0,0,0,0,6.622e-4,0.003,165,213.825,84.045,1.992e-5,2.277,14.951,1012.364,340.359,0.05,0.03
1.791,8.801,25.97,40.466,26.144,40.838,0.957,2.958e-6,0.957,1.772e-4,3.014,5.5,22.175,120.893,9.788,4.068,0,0.794,-6.691e-5,2.63e4,1.18e4,19.29,0.103,2180.567,1982.048,1.203,0.076,5.092e6,1335.184,5.752,0.624,0.651,0.288,0.216,0.121,0.863,1.037,-4.753e-4,0,0,0,0,0.001,0.004,165,213.825,84.079,1.255e-5,2.174,14.943,1012.218,340.354,0.05,0.031
1.841,10.151,28.022,41.149,28.215,41.517,1.114,4.623e-6,1.114,2.377e-4,3.29,5.513,22.175,120.893,9.788,3.359,0,1.022,-7.265e-5,2.617e4,1.167e4,19.238,0.103,2195.647,1979.127,1.312,0.082,5.497e6,1347.677,6.622,0.624,0.643,0.288,0.216,0.121,0.696,0.912,1.774e-5,0,0,0,0,0.002,0.004,165,213.825,84.124,1.617e-5,2.059,14.934,1012.059,340.349,0.05,0.031
1.891,11.605,30.115,41.965,30.326,42.328,1.286,6.728e-6,1.286,2.999e-4,3.568,5.532,22.175,120.893,9.788,2.803,0,1.255,-8.145e-5,2.605e4,1.155e4,19.185,0.103,2208.018,1976.143,1.405,0.089,5.909e6,1363.475,7.591,0.624,0.638,0.288,0.216,0.121,0.57,0.799,2.651e-4,0,0,0,0,0.002,0.004,165,213.825,84.181,6.617e-6,1.982,14.925,1011.889,340.343,0.05,0.031
1.941,13.163,32.241,42.637,32.47,42.994,1.471,9.306e-6,1.471,3.625e-4,3.846,5.531,22.175,120.893,9.788,2.416,0,1.492,7.751e-6,2.593e4,1.143e4,19.132,0.103,2216.946,1973.105,1.478,0.095,6.327e6,1375.364,8.663,0.625,0.635,0.288,0.216,0.121,0.485,0.714,-7.14e-5,0,0,0,0,0.002,0.004,165,213.825,84.25,-4.62e-6,1.968,14.914,1011.706,340.337,0.05,0.031
1.991,14.83,34.406,43.4,34.652,43.749,1.67,1.238e-5,1.67,4.248e-4,4.124,5.518,22.175,120.893,9.788,2.018,0,1.733,-6.479e-5,2.58e4,1.13e4,19.077,0.103,2226.397,1970.006,1.554,0.101,6.754e6,1389.417,9.827,0.625,0.632,0.288,0.216,0.121,0.399,0.618,2.082e-4,0,0,0,0,0.003,0.005,165,213.825,84.33,-1.895e-7,1.928,14.904,1011.511,340.33,0.05,0.031
2.041,16.605,36.621,44.412,36.884,44.755,1.883,1.6e-5,1.883,4.867e-4,4.402,5.526,22.175,120.893,9.788,1.763,0,1.971,-2.369e-4,2.567e4,1.117e4,19.021,0.102,2232.627,1966.831,1.611,0.108,7.189e6,1409.711,11.11,0.625,0.631,0.288,0.216,0.122,0.346,0.554,-1.617e-4,0,0,0,0,0.003,0.005,165,213.825,84.423,1.756e-5,1.96,14.892,1011.302,340.323,0.05,0.031
2.091,18.493,38.88,45.307,39.161,45.641,2.11,2.018e-5,2.11,5.479e-4,4.679,5.514,22.175,120.893,9.788,1.585,0,2.219,-1.001e-5,2.554e4,1.104e4,18.964,0.102,2237.067,1963.584,1.657,0.115,7.632e6,1426.753,12.508,0.625,0.63,0.287,0.216,0.122,0.309,0.508,2.562e-4,0,0,0,0,0.004,0.005,165,213.825,84.528,4.163e-5,2.038,14.88,1011.081,340.316,0.05,0.032
2.141,20.494,41.17,45.932,41.467,46.249,2.351,2.497e-5,2.351,6.085e-4,4.954,5.412,22.175,120.893,9.788,1.149,0,2.457,-4.15e-4,2.541e4,1.091e4,18.906,0.102,2248.102,1960.282,1.744,0.121,8.084e6,1436.554,13.993,0.626,0.628,0.287,0.216,0.122,0.221,0.38,-2.256e-5,0,0,0,0,0.004,0.006,165,213.825,84.645,5.168e-5,1.926,14.867,1010.846,340.308,0.05,0.032
2.191,22.61,43.496,46.641,43.809,46.942,2.606,3.039e-5,2.606,6.683e-4,5.223,5.311,22.175,120.893,9.788,0.82,-6.025e-7,2.646,-6.846e-4,2.528e4,1.078e4,18.847,0.102,2256.696,1956.918,1.817,0.128,8.541e6,1448.404,15.602,0.626,0.627,0.287,0.216,0.122,0.155,0.278,4.634e-4,0,0,0,0,0.004,0.006,165,213.825,84.772,3.213e-5,1.87,14.853,1010.598,340.3,0.05,0.032
2.241,24.844,45.86,47.395,46.187,47.677,2.874,3.648e-5,2.874,7.274e-4,5.486,5.176,22.175,120.893,9.788,0.423,3.952e-7,2.789,-0.001,2.515e4,1.065e4,18.787,0.102,2267.306,1953.489,1.902,0.135,9.007e6,1461.178,17.336,0.626,0.627,0.287,0.217,0.122,0.079,0.146,1.644e-5,0,0,0,0,0.004,0.006,165,213.825,84.909,6.307e-6,1.741,14.839,1010.336,340.291,0.05,0.032
2.291,27.197,48.25,47.927,48.59,48.189,3.154,4.324e-5,3.154,7.854e-4,5.742,5.017,22.175,120.893,9.788,0.106,-5.228e-7,2.852,-0.005,2.501e4,1.051e4,18.726,0.101,2276.067,1950.006,1.976,0.142,9.477e6,1468.288,19.196,0.627,0.627,0.287,0.217,0.123,0.02,0.034,4.876e-4,0,0,0,0,0.004,0.007,165,213.825,85.05,1.433e-5,1.652,14.823,1010.06,340.282,0.05,0.032
2.341,29.669,50.645,48.032,50.998,48.272,3.448,5.07e-5,3.448,8.426e-4,5.987,4.81,22.175,120.893,9.788,0.183,0,-2.837,-0.003,2.488e4,1.038e4,18.664,0.101,2274.061,1946.495,1.985,0.149,9.948e6,1464.702,21.168,0.627,0.627,0.287,0.217,0.123,0.034,0.071,-1.68e-4,0,0,0,0,-0.004,0.007,165,213.825,85.192,3.179e-6,1.565,14.807,1009.77,340.272,0.05,0.033
2.391,32.262,53.045,48.109,53.409,48.33,3.753,5.887e-5,3.753,8.988e-4,6.222,4.613,22.175,120.893,9.788,0.383,0,-2.737,-0.001,2.475e4,1.025e4,18.602,0.101,2268.711,1942.956,1.974,0.157,1.042e7,1460.577,23.243,0.627,0.628,0.287,0.217,0.123,0.072,0.144,-2.034e-4,0,0,0,0,-0.003,0.007,165,213.825,85.332,4.271e-5,1.533,14.79,1009.466,340.262,0.05,0.033
2.441,34.974,55.451,48.235,55.824,48.434,4.07,6.778e-5,4.07,9.544e-4,6.447,4.385,22.175,120.893,9.788,0.675,4.328e-7,-2.546,-0.001,2.461e4,1.011e4,18.539,0.101,2261.027,1939.385,1.949,0.164,1.089e7,1457.734,25.445,0.628,0.629,0.287,0.217,0.123,0.128,0.251,2.773e-4,0,0,0,0,-0.002,0.008,165,213.825,85.465,2.233e-4,1.39,14.773,1009.148,340.251,0.05,0.033
2.491,37.806,57.842,47.937,58.224,48.119,4.397,7.749e-5,4.397,0.001,6.66,4.177,22.175,120.893,9.788,0.798,2.913e-7,-2.24,-7.304e-4,2.448e4,9982.7,18.477,0.101,2257.916,1935.809,1.952,0.171,1.136e7,1444.705,27.714,0.628,0.629,0.287,0.217,0.124,0.151,0.297,1.274e-4,0,0,0,0,-0.002,0.008,165,213.825,85.585,4.141e-4,1.382,14.754,1008.816,340.24,0.05,0.033
2.541,40.758,60.231,47.899,60.621,48.073,4.735,8.806e-5,4.735,0.001,6.866,4.089,22.175,120.893,9.788,0.678,6.345e-7,-1.908,-0.001,2.435e4,9851.919,18.414,0.1,2261.191,1932.21,1.994,0.178,1.182e7,1438.362,30.027,0.629,0.63,0.287,0.218,0.124,0.128,0.257,4.562e-4,0,0,0,0,-0.001,0.008,165,213.825,85.688,6.273e-4,1.606,14.735,1008.47,340.228,0.05,0.033
2.591,43.829,62.613,47.737,63.01,47.9,5.084,9.953e-5,5.084,0.001,7.066,3.953,22.175,120.893,9.788,0.713,0,-1.583,-7.584e-4,2.422e4,9721.977,18.351,0.1,2260.413,1928.595,2.011,0.185,1.228e7,1429.136,32.462,0.629,0.63,0.287,0.218,0.124,0.135,0.272,-3.001e-4,0,0,0,0,-7.287e-4,0.009,165,213.825,85.776,9.805e-4,1.657,14.715,1008.11,340.216,0.05,0.034
2.641,47.019,65.009,48.038,65.413,48.191,5.442,1.12e-4,5.442,0.001,7.261,3.837,22.175,120.893,9.788,0.81,6.245e-7,-1.178,-0.001,2.409e4,9591.843,18.287,0.1,2258.01,1924.936,2.019,0.192,1.275e7,1431.244,35.029,0.63,0.631,0.287,0.218,0.125,0.154,0.311,1.609e-6,0,0,0,0,-3.743e-4,0.009,165,213.825,85.845,0.001,1.613,14.694,1007.735,340.204,0.05,0.034
2.691,50.33,67.415,48.225,67.826,48.379,5.81,1.256e-4,5.81,0.001,7.453,3.849,22.175,120.893,9.788,0.652,0,-0.741,-0.001,2.396e4,9461.748,18.222,0.1,2262.317,1921.238,2.067,0.199,1.322e7,1430.823,37.639,0.63,0.631,0.287,0.218,0.125,0.123,0.255,-3.15e-4,0,0,0,0,-1.378e-4,0.009,165,213.825,85.893,0.002,1.84,14.673,1007.347,340.191,0.05,0.034
2.741,53.761,69.838,48.562,70.256,48.714,6.187,1.403e-4,6.187,0.001,7.645,3.843,22.175,120.893,9.788,0.609,0,-0.358,-6.463e-4,2.383e4,9331.363,18.157,0.1,2263.596,1917.492,2.098,0.206,1.369e7,1433.995,40.398,0.631,0.631,0.287,0.219,0.126,0.115,0.241,-1.429e-4,0,0,0,0,-3.004e-5,0.009,165,213.825,85.92,0.002,1.918,14.651,1006.945,340.177,0.05,0.034
2.791,57.314,72.287,49.075,72.711,49.229,6.574,1.565e-4,6.574,0.001,7.839,3.891,22.175,120.893,9.788,0.531,0,0.043,1.221e-4,2.37e4,9200.305,18.091,0.099,2265.821,1913.685,2.134,0.213,1.416e7,1441.415,43.282,0.631,0.632,0.287,0.219,0.126,0.1,0.213,4.252e-4,0,0,0,0,3.963e-7,0.01,165,213.825,85.928,0.003,2.019,14.627,1006.528,340.163,0.05,0.034
2.841,60.99,74.758,49.525,75.189,49.681,6.971,1.741e-4,6.971,0.001,8.035,3.937,22.175,120.893,9.788,0.492,0,0.42,-9.93e-4,2.357e4,9068.707,18.023,0.099,2267.04,1909.819,2.165,0.22,1.464e7,1447.346,46.308,0.632,0.632,0.286,0.219,0.126,0.092,0.2,6.293e-5,0,0,0,0,3.603e-5,0.01,165,213.825,85.916,0.003,2.052,14.604,1006.097,340.149,0.05,0.034
2.891,64.79,77.231,49.545,77.668,49.698,7.378,1.932e-4,7.378,0.002,8.231,3.9,22.175,120.893,9.787,0.568,0,0.843,1.618e-4,2.344e4,8937.495,17.955,0.099,2265.173,1905.922,2.177,0.228,1.512e7,1443.113,49.477,0.632,0.633,0.286,0.219,0.127,0.107,0.233,-8.922e-5,0,0,0,0,1.36e-4,0.01,165,213.825,85.885,0.003,1.904,14.579,1005.651,340.134,0.05,0.035
2.941,68.713,79.696,49.397,80.14,49.555,7.794,2.14e-4,7.794,0.002,8.426,3.945,22.175,120.893,9.787,0.532,3.113e-7,1.342,8.812e-4,2.331e4,8806.998,17.887,0.099,2266.307,1902.002,2.208,0.235,1.56e7,1435.232,52.714,0.633,0.634,0.286,0.22,0.127,0.1,0.221,4.621e-5,0,0,0,0,3.234e-4,0.011,165,213.825,85.83,0.003,1.871,14.553,1005.191,340.118,0.05,0.035
2.991,72.76,82.176,49.686,82.627,49.854,8.22,2.364e-4,8.22,0.002,8.627,4.089,22.175,120.893,9.787,0.443,-4.392e-7,1.805,1.672e-4,2.318e4,8676.274,17.818,0.099,2268.879,1898.031,2.248,0.242,1.608e7,1437.734,56.063,0.634,0.634,0.286,0.22,0.128,0.083,0.186,8.649e-6,0,0,0,0,5.504e-4,0.011,165,213.825,85.751,0.003,1.883,14.527,1004.716,340.102,0.05,0.035
3.041,76.931,84.681,50.203,85.141,50.389,8.657,2.604e-4,8.657,0.002,8.837,4.324,22.175,120.893,9.787,0.296,3.448e-7,2.189,1.373e-4,2.305e4,8544.831,17.748,0.098,2273.033,1893.993,2.297,0.25,1.657e7,1445.651,59.545,0.634,0.634,0.286,0.22,0.128,0.055,0.127,-8.579e-5,0,0,0,0,7.626e-4,0.012,165,213.825,85.651,0.003,1.957,14.5,1004.227,340.086,0.05,0.035
