# Time (s),Altitude (m),Vertical velocity (m/s),Vertical acceleration (m/s²),Total velocity (m/s),Total acceleration (m/s²),Position East of launch (m),Position North of launch (m),Lateral distance (m),Lateral direction (°),Lateral velocity (m/s),Lateral acceleration (m/s²),Latitude (°),Longitude (°),Gravitational acceleration (m/s²),Angle of attack (°),Roll rate (°/s),Pitch rate (°/s),Yaw rate (°/s),Mass (g),Motor mass (g),Longitudinal moment of inertia (kg·m²),Rotational moment of inertia (kg·m²),CP location (mm),CG location (mm),Stability margin calibers (​),Mach number (​),Reynolds number (​),Thrust (N),Drag force (N),Drag coefficient (​),Axial drag coefficient (​),Friction drag coefficient (​),Pressure drag coefficient (​),Base drag coefficient (​),Normal force coefficient (​),Pitch moment coefficient (​),Yaw moment coefficient (​),Side force coefficient (​),Roll moment coefficient (​),Roll forcing coefficient (​),Roll damping coefficient (​),Pitch damping coefficient (​),Coriolis acceleration (m/s²),Reference length (mm),Reference area (cm²),Vertical orientation (zenith) (°),Lateral orientation (azimuth) (°),Wind velocity (m/s),Air temperature (°C),Air pressure (mbar),Speed of sound (m/s),Simulation time step (s),Computation time (s)
0.01,-4.664e-4,-0.093,-9.324,0.095,9.468,-8.224e-5,0,8.224e-5,180,0.016,1.644,22.175,120.893,9.788,100.989,0,0,0,2.8e4,1.35e4,19.963,0.106,NaN,2019.994,NaN,0.016,1.059e6,4.784,-0.004,0.671,-0.011,0.336,0.215,0.12,NaN,NaN,NaN,NaN,NaN,NaN,NaN,NaN,1.282e-5,165,213.825,80,0,5.383,15,1013.25,340.389,0.01,0.001
0.02,-4.668e-4,-0.093,-9.336,0.095,9.48,-8.231e-5,0,8.231e-5,180,0.016,1.646,22.175,120.893,9.788,100.989,0,0,0,2.8e4,1.35e4,19.963,0.106,NaN,2019.992,NaN,0.016,1.061e6,4.461,-0.004,0.671,-0.011,0.336,0.215,0.12,NaN,NaN,NaN,NaN,NaN,NaN,NaN,NaN,1.283e-5,165,213.825,80,0,5.39,15,1013.25,340.389,0.01,0.001
0.03,-4.67e-4,-0.093,-9.34,0.095,9.484,-8.234e-5,0,8.234e-5,180,0.016,1.647,22.175,120.893,9.788,100.988,0,0,0,2.8e4,1.35e4,19.963,0.106,NaN,2019.991,NaN,0.016,1.062e6,4.343,-0.004,0.671,-0.011,0.336,0.215,0.12,NaN,NaN,NaN,NaN,NaN,NaN,NaN,NaN,1.284e-5,165,213.825,80,0,5.397,15,1013.25,340.389,0.01,0.002
0.04,-4.671e-4,-0.093,-9.343,0.095,9.487,-8.237e-5,0,8.237e-5,180,0.016,1.647,22.175,120.893,9.788,100.987,0,0,0,2.8e4,1.35e4,19.963,0.106,NaN,2019.989,NaN,0.016,1.063e6,4.249,-0.004,0.671,-0.011,0.336,0.215,0.12,NaN,NaN,NaN,NaN,NaN,NaN,NaN,NaN,1.284e-5,165,213.825,80,0,5.404,15,1013.25,340.389,0.01,0.002
0.05,-4.668e-4,-0.093,-9.336,0.095,9.48,-8.231e-5,0,8.231e-5,180,0.016,1.646,22.175,120.893,9.788,100.985,0,0,0,2.8e4,1.35e4,19.963,0.106,NaN,2019.988,NaN,0.016,1.065e6,4.443,-0.004,0.671,-0.011,0.336,0.215,0.12,NaN,NaN,NaN,NaN,NaN,NaN,NaN,NaN,1.284e-5,165,213.825,80,0,5.411,15,1013.25,340.389,0.01,0.002
0.06,-4.664e-4,-0.093,-9.328,0.095,9.472,-8.224e-5,0,8.224e-5,180,0.016,1.645,22.175,120.893,9.788,100.981,0,0,0,2.8e4,1.35e4,19.963,0.106,NaN,2019.986,NaN,0.016,1.069e6,4.681,-0.004,0.671,-0.011,0.336,0.215,0.12,NaN,NaN,NaN,NaN,NaN,NaN,NaN,NaN,1.282e-5,165,213.825,80,0,5.433,15,1013.25,340.389,0.01,0.002
0.07,-4.668e-4,-0.093,-9.336,0.095,9.48,-8.231e-5,0,8.231e-5,180,0.016,1.646,22.175,120.893,9.788,100.978,0,0,0,2.8e4,1.35e4,19.963,0.106,NaN,2019.984,NaN,0.016,1.073e6,4.438,-0.004,0.671,-0.011,0.335,0.215,0.12,NaN,NaN,NaN,NaN,NaN,NaN,NaN,NaN,1.284e-5,165,213.825,80,0,5.455,15,1013.25,340.389,0.01,0.002
0.08,-4.667e-4,-0.093,-9.335,0.095,9.479,-8.23e-5,0,8.23e-5,180,0.016,1.646,22.175,120.893,9.788,100.974,0,0,0,2.8e4,1.35e4,19.963,0.106,NaN,2019.982,NaN,0.016,1.078e6,4.479,-0.004,0.67,-0.011,0.335,0.215,0.12,NaN,NaN,NaN,NaN,NaN,NaN,NaN,NaN,1.283e-5,165,213.825,80,0,5.477,15,1013.25,340.389,0.01,0.003
0.09,-4.665e-4,-0.093,-9.331,0.095,9.474,-8.226e-5,0,8.226e-5,180,0.016,1.645,22.175,120.893,9.788,100.969,0,0,0,2.8e4,1.35e4,19.963,0.106,NaN,2019.981,NaN,0.016,1.082e6,4.603,-0.004,0.67,-0.01,0.335,0.215,0.12,NaN,NaN,NaN,NaN,NaN,NaN,NaN,NaN,1.283e-5,165,213.825,80,0,5.499,15,1013.25,340.389,0.01,0.003
0.1,-4.67e-4,-0.093,-9.341,0.095,9.485,-8.235e-5,0,8.235e-5,180,0.016,1.647,22.175,120.893,9.788,100.966,0,0,0,2.8e4,1.35e4,19.963,0.106,NaN,2019.979,NaN,0.016,1.086e6,4.315,-0.004,0.67,-0.01,0.335,0.215,0.12,NaN,NaN,NaN,NaN,NaN,NaN,NaN,NaN,1.284e-5,165,213.825,80,0,5.521,15,1013.25,340.389,0.01,0.003
0.11,-4.668e-4,-0.093,-9.337,0.095,9.481,-8.231e-5,0,8.231e-5,180,0.016,1.646,22.175,120.893,9.788,100.965,0,0,0,2.8e4,1.35e4,19.963,0.106,NaN,2019.977,NaN,0.016,1.087e6,4.431,-0.004,0.67,-0.01,0.335,0.215,0.12,NaN,NaN,NaN,NaN,NaN,NaN,NaN,NaN,1.284e-5,165,213.825,80,0,5.526,15,1013.25,340.389,0.01,0.003
0.12,-4.668e-4,-0.093,-9.336,0.095,9.48,-8.231e-5,0,8.231e-5,180,0.016,1.646,22.175,120.893,9.788,100.964,0,0,0,2.8e4,1.35e4,19.962,0.106,NaN,2019.976,NaN,0.016,1.088e6,4.436,-0.004,0.67,-0.01,0.334,0.215,0.12,NaN,NaN,NaN,NaN,NaN,NaN,NaN,NaN,1.284e-5,165,213.825,80,0,5.532,15,1013.25,340.389,0.01,0.003
0.13,-4.665e-4,-0.093,-9.33,0.095,9.474,-8.226e-5,0,8.226e-5,180,0.016,1.645,22.175,120.893,9.788,100.962,0,0,0,2.8e4,1.35e4,19.962,0.106,NaN,2019.974,NaN,0.016,1.089e6,4.62,-0.004,0.67,-0.01,0.334,0.215,0.12,NaN,NaN,NaN,NaN,NaN,NaN,NaN,NaN,1.283e-5,165,213.825,80,0,5.537,15,1013.25,340.389,0.01,0.004
0.14,-4.669e-4,-0.093,-9.337,0.095,9.482,-8.232e-5,0,8.232e-5,180,0.016,1.646,22.175,120.893,9.788,100.962,0,0,0,2.8e4,1.35e4,19.962,0.106,NaN,2019.972,NaN,0.016,1.09e6,4.404,-0.004,0.67,-0.01,0.334,0.215,0.12,NaN,NaN,NaN,NaN,NaN,NaN,NaN,NaN,1.284e-5,165,213.825,80,0,5.542,15,1013.25,340.389,0.01,0.004
0.15,-4.668e-4,-0.093,-9.336,0.095,9.48,-8.231e-5,0,8.231e-5,180,0.016,1.646,22.175,120.893,9.788,100.961,0,0,0,2.8e4,1.35e4,19.962,0.106,NaN,2019.97,NaN,0.016,1.091e6,4.444,-0.004,0.669,-0.01,0.334,0.215,0.12,NaN,NaN,NaN,NaN,NaN,NaN,NaN,NaN,1.284e-5,165,213.825,80,0,5.548,15,1013.25,340.389,0.01,0.004
0.16,-4.664e-4,-0.093,-9.329,0.095,9.473,-8.225e-5,0,8.225e-5,180,0.016,1.645,22.175,120.893,9.788,100.97,0,0,0,2.8e4,1.35e4,19.962,0.106,NaN,2019.969,NaN,0.016,1.08e6,4.651,-0.004,0.67,-0.01,0.335,0.215,0.12,NaN,NaN,NaN,NaN,NaN,NaN,NaN,NaN,1.283e-5,165,213.825,80,0,5.491,15,1013.25,340.389,0.01,0.004
0.17,-4.672e-4,-0.093,-9.344,0.095,9.488,-8.238e-5,0,8.238e-5,180,0.016,1.648,22.175,120.893,9.788,100.982,0,0,0,2.8e4,1.35e4,19.962,0.106,NaN,2019.967,NaN,0.016,1.069e6,4.218,-0.004,0.671,-0.011,0.336,0.215,0.12,NaN,NaN,NaN,NaN,NaN,NaN,NaN,NaN,1.285e-5,165,213.825,80,0,5.435,15,1013.25,340.389,0.01,0.004
0.18,-4.672e-4,-0.093,-9.344,0.095,9.488,-8.238e-5,0,8.238e-5,180,0.016,1.648,22.175,120.893,9.788,100.992,0,0,0,2.8e4,1.35e4,19.962,0.106,NaN,2019.965,NaN,0.016,1.058e6,4.225,-0.004,0.671,-0.011,0.336,0.215,0.12,NaN,NaN,NaN,NaN,NaN,NaN,NaN,NaN,1.285e-5,165,213.825,80,0,5.378,15,1013.25,340.389,0.01,0.005
0.19,-4.67e-4,-0.093,-9.34,0.095,9.485,-8.235e-5,0,8.235e-5,180,0.016,1.647,22.175,120.893,9.788,101.002,0,0,0,2.8e4,1.35e4,19.962,0.106,NaN,2019.964,NaN,0.016,1.047e6,4.321,-0.004,0.672,-0.011,0.337,0.215,0.12,NaN,NaN,NaN,NaN,NaN,NaN,NaN,NaN,1.284e-5,165,213.825,80,0,5.321,15,1013.25,340.389,0.01,0.005
0.2,-4.673e-4,-0.093,-9.346,0.095,9.49,-8.239e-5,0,8.239e-5,180,0.016,1.648,22.175,120.893,9.788,101.014,0,0,0,2.8e4,1.35e4,19.962,0.106,NaN,2019.962,NaN,0.016,1.036e6,4.174,-0.004,0.673,-0.011,0.338,0.215,0.12,NaN,NaN,NaN,NaN,NaN,NaN,NaN,NaN,1.285e-5,165,213.825,80,0,5.265,15,1013.25,340.389,0.01,0.005
0.21,-4.669e-4,-0.093,-9.338,0.095,9.482,-8.233e-5,0,8.233e-5,180,0.016,1.647,22.175,120.893,9.788,100.997,0,0,0,2.8e4,1.35e4,19.962,0.106,NaN,2019.961,NaN,0.016,1.053e6,4.381,-0.004,0.672,-0.011,0.337,0.215,0.12,NaN,NaN,NaN,NaN,NaN,NaN,NaN,NaN,1.284e-5,165,213.825,80,0,5.351,15,1013.25,340.389,0.01,0.005
0.22,-4.664e-4,-0.093,-9.329,0.095,9.473,-8.224e-5,0,8.224e-5,180,0.016,1.645,22.175,120.893,9.788,100.98,0,0,0,2.8e4,1.35e4,19.962,0.106,NaN,2019.959,NaN,0.016,1.07e6,4.657,-0.004,0.671,-0.011,0.336,0.215,0.12,NaN,NaN,NaN,NaN,NaN,NaN,NaN,NaN,1.283e-5,165,213.825,80,0,5.437,15,1013.25,340.389,0.01,0.005
0.23,-4.669e-4,-0.093,-9.338,0.095,9.482,-8.233e-5,0,8.233e-5,180,0.016,1.647,22.175,120.893,9.788,100.966,0,0,0,2.8e4,1.35e4,19.962,0.106,NaN,2019.957,NaN,0.016,1.087e6,4.392,-0.004,0.67,-0.01,0.335,0.215,0.12,NaN,NaN,NaN,NaN,NaN,NaN,NaN,NaN,1.284e-5,165,213.825,80,0,5.523,15,1013.25,340.389,0.01,0.005
0.24,-4.667e-4,-0.093,-9.334,0.095,9.478,-8.229e-5,0,8.229e-5,180,0.016,1.646,22.175,120.893,9.788,100.951,0,0,0,2.8e4,1.35e4,19.962,0.106,NaN,2019.955,NaN,0.017,1.103e6,4.513,-0.004,0.669,-0.01,0.334,0.215,0.12,NaN,NaN,NaN,NaN,NaN,NaN,NaN,NaN,1.283e-5,165,213.825,80,0,5.609,15,1013.25,340.389,0.01,0.006
0.25,-4.666e-4,-0.093,-9.331,0.095,9.475,-8.227e-5,0,8.227e-5,180,0.016,1.645,22.175,120.893,9.788,100.936,0,0,0,2.8e4,1.35e4,19.962,0.106,NaN,2019.954,NaN,0.017,1.12e6,4.587,-0.004,0.668,-0.01,0.333,0.215,0.12,NaN,NaN,NaN,NaN,NaN,NaN,NaN,NaN,1.283e-5,165,213.825,80,0,5.695,15,1013.25,340.389,0.01,0.006
0.26,-4.668e-4,-0.093,-9.337,0.095,9.481,-8.232e-5,0,8.232e-5,180,0.016,1.646,22.175,120.893,9.788,100.945,0,0,0,2.8e4,1.35e4,19.962,0.106,NaN,2019.952,NaN,0.017,1.11e6,4.429,-0.004,0.668,-0.01,0.333,0.215,0.12,NaN,NaN,NaN,NaN,NaN,NaN,NaN,NaN,1.284e-5,165,213.825,80,0,5.641,15,1013.25,340.389,0.01,0.006
0.27,-4.667e-4,-0.093,-9.333,0.095,9.477,-8.228e-5,0,8.228e-5,180,0.016,1.646,22.175,120.893,9.788,100.954,0,0,0,2.8e4,1.35e4,19.962,0.106,NaN,2019.95,NaN,0.016,1.099e6,4.527,-0.004,0.669,-0.01,0.334,0.215,0.12,NaN,NaN,NaN,NaN,NaN,NaN,NaN,NaN,1.283e-5,165,213.825,80,0,5.588,15,1013.25,340.389,0.01,0.006
0.28,-4.667e-4,-0.093,-9.335,0.095,9.479,-8.23e-5,0,8.23e-5,180,0.016,1.646,22.175,120.893,9.788,100.963,0,0,0,2.8e4,1.35e4,19.962,0.106,NaN,2019.949,NaN,0.016,1.089e6,4.488,-0.004,0.67,-0.01,0.334,0.215,0.12,NaN,NaN,NaN,NaN,NaN,NaN,NaN,NaN,1.283e-5,165,213.825,80,0,5.534,15,1013.25,340.389,0.01,0.006
0.29,-4.665e-4,-0.093,-9.33,0.095,9.474,-8.226e-5,0,8.226e-5,180,0.016,1.645,22.175,120.893,9.788,100.972,0,0,0,2.8e4,1.35e4,19.962,0.106,NaN,2019.947,NaN,0.016,1.078e6,4.616,-0.004,0.67,-0.011,0.335,0.215,0.12,NaN,NaN,NaN,NaN,NaN,NaN,NaN,NaN,1.283e-5,165,213.825,80,0,5.48,15,1013.25,340.389,0.01,0.007
0.3,-4.666e-4,-0.093,-9.332,0.095,9.476,-8.228e-5,0,8.228e-5,180,0.016,1.646,22.175,120.893,9.788,100.982,0,0,0,2.8e4,1.35e4,19.962,0.106,NaN,2019.945,NaN,0.016,1.068e6,4.548,-0.004,0.671,-0.011,0.336,0.215,0.12,NaN,NaN,NaN,NaN,NaN,NaN,NaN,NaN,1.283e-5,165,213.825,80,0,5.427,15,1013.25,340.389,0.01,0.007
0.31,-4.663e-4,-0.093,-9.327,0.095,9.471,-8.223e-5,0,8.223e-5,180,0.016,1.645,22.175,120.893,9.788,100.99,0,0,0,2.8e4,1.35e4,19.962,0.106,NaN,2019.943,NaN,0.016,1.059e6,4.706,-0.004,0.671,-0.011,0.336,0.215,0.12,NaN,NaN,NaN,NaN,NaN,NaN,NaN,NaN,1.282e-5,165,213.825,80,0,5.381,15,1013.25,340.389,0.01,0.007
0.32,-4.67e-4,-0.093,-9.34,0.095,9.484,-8.235e-5,0,8.235e-5,180,0.016,1.647,22.175,120.893,9.788,101,0,0,0,2.8e4,1.35e4,19.962,0.106,NaN,2019.942,NaN,0.016,1.05e6,4.332,-0.004,0.672,-0.011,0.337,0.215,0.12,NaN,NaN,NaN,NaN,NaN,NaN,NaN,NaN,1.284e-5,165,213.825,80,0,5.334,15,1013.25,340.389,0.01,0.007
0.33,-4.667e-4,-0.093,-9.335,0.095,9.479,-8.23e-5,0,8.23e-5,180,0.016,1.646,22.175,120.893,9.788,101.008,0,0,0,2.8e4,1.35e4,19.962,0.106,NaN,2019.94,NaN,0.016,1.041e6,4.483,-0.004,0.673,-0.011,0.337,0.215,0.12,NaN,NaN,NaN,NaN,NaN,NaN,NaN,NaN,1.283e-5,165,213.825,80,0,5.288,15,1013.25,340.389,0.01,0.007
0.34,-4.666e-4,-0.093,-9.332,0.095,9.476,-8.227e-5,0,8.227e-5,180,0.016,1.645,22.175,120.893,9.788,101.017,0,0,0,2.8e4,1.35e4,19.962,0.106,NaN,2019.938,NaN,0.015,1.031e6,4.57,-0.004,0.673,-0.011,0.338,0.215,0.12,NaN,NaN,NaN,NaN,NaN,NaN,NaN,NaN,1.283e-5,165,213.825,80,0,5.242,15,1013.25,340.389,0.01,0.007
0.35,-4.669e-4,-0.093,-9.337,0.095,9.481,-8.232e-5,0,8.232e-5,180,0.016,1.646,22.175,120.893,9.788,101.026,0,0,0,2.8e4,1.35e4,19.962,0.106,NaN,2019.936,NaN,0.015,1.022e6,4.419,-0.004,0.674,-0.011,0.339,0.215,0.12,NaN,NaN,NaN,NaN,NaN,NaN,NaN,NaN,1.284e-5,165,213.825,80,0,5.196,15,1013.25,340.389,0.01,0.008
0.36,-4.67e-4,-0.093,-9.341,0.095,9.485,-8.235e-5,0,8.235e-5,180,0.016,1.647,22.175,120.893,9.788,101.007,0,0,0,2.8e4,1.35e4,19.962,0.106,NaN,2019.935,NaN,0.016,1.043e6,4.317,-0.004,0.672,-0.011,0.337,0.215,0.12,NaN,NaN,NaN,NaN,NaN,NaN,NaN,NaN,1.284e-5,165,213.825,80,0,5.299,15,1013.25,340.389,0.01,0.008
0.37,-4.667e-4,-0.093,-9.333,0.095,9.477,-8.229e-5,0,8.229e-5,180,0.016,1.646,22.175,120.893,9.788,100.987,0,0,0,2.8e4,1.35e4,19.962,0.106,NaN,2019.933,NaN,0.016,1.063e6,4.522,-0.004,0.671,-0.011,0.336,0.215,0.12,NaN,NaN,NaN,NaN,NaN,NaN,NaN,NaN,1.283e-5,165,213.825,80,0,5.401,15,1013.25,340.389,0.01,0.008
0.38,-4.668e-4,-0.093,-9.336,0.095,9.481,-8.231e-5,0,8.231e-5,180,0.016,1.646,22.175,120.893,9.788,100.969,0,0,0,2.8e4,1.35e4,19.962,0.106,NaN,2019.931,NaN,0.016,1.083e6,4.433,-0.004,0.67,-0.01,0.335,0.215,0.12,NaN,NaN,NaN,NaN,NaN,NaN,NaN,NaN,1.284e-5,165,213.825,80,0,5.504,15,1013.25,340.389,0.01,0.008
0.39,-4.664e-4,-0.093,-9.328,0.095,9.472,-8.224e-5,0,8.224e-5,180,0.016,1.645,22.175,120.893,9.788,100.95,0,0,0,2.8e4,1.35e4,19.962,0.106,NaN,2019.93,NaN,0.017,1.103e6,4.673,-0.004,0.669,-0.01,0.334,0.215,0.12,NaN,NaN,NaN,NaN,NaN,NaN,NaN,NaN,1.282e-5,165,213.825,80,0,5.607,15,1013.25,340.389,0.01,0.008
0.4,-4.662e-4,-0.093,-9.323,0.095,9.467,-8.22e-5,0,8.22e-5,180,0.016,1.644,22.175,120.893,9.788,100.933,0,0,0,2.8e4,1.35e4,19.962,0.106,NaN,2019.928,NaN,0.017,1.123e6,4.812,-0.004,0.668,-0.01,0.332,0.215,0.12,NaN,NaN,NaN,NaN,NaN,NaN,NaN,NaN,1.282e-5,165,213.825,80,0,5.709,15,1013.25,340.389,0.01,0.009
0.41,-4.665e-4,-0.093,-9.331,0.095,9.475,-8.226e-5,0,8.226e-5,180,0.016,1.645,22.175,120.893,9.788,100.929,0,0,0,2.8e4,1.35e4,19.962,0.106,NaN,2019.926,NaN,0.017,1.128e6,4.595,-0.004,0.667,-0.01,0.332,0.215,0.12,NaN,NaN,NaN,NaN,NaN,NaN,NaN,NaN,1.283e-5,165,213.825,80,0,5.737,15,1013.25,340.389,0.01,0.009
0.42,-4.665e-4,-0.093,-9.329,0.095,9.473,-8.225e-5,0,8.225e-5,180,0.016,1.645,22.175,120.893,9.788,100.925,0,0,0,2.8e4,1.35e4,19.962,0.106,NaN,2019.924,NaN,0.017,1.134e6,4.638,-0.005,0.667,-0.01,0.332,0.215,0.12,NaN,NaN,NaN,NaN,NaN,NaN,NaN,NaN,1.283e-5,165,213.825,80,0,5.764,15,1013.25,340.389,0.01,0.009
0.43,-4.662e-4,-0.093,-9.323,0.095,9.467,-8.22e-5,0,8.22e-5,180,0.016,1.644,22.175,120.893,9.788,100.92,0,0,0,2.8e4,1.35e4,19.962,0.106,NaN,2019.922,NaN,0.017,1.139e6,4.811,-0.005,0.667,-0.01,0.331,0.215,0.12,NaN,NaN,NaN,NaN,NaN,NaN,NaN,NaN,1.282e-5,165,213.825,80,0,5.791,15,1013.25,340.389,0.01,0.009
0.44,-4.66e-4,-0.093,-9.319,0.095,9.463,-8.216e-5,0,8.216e-5,180,0.016,1.643,22.175,120.893,9.788,100.915,0,0,0,2.8e4,1.35e4,19.962,0.106,NaN,2019.921,NaN,0.017,1.144e6,4.919,-0.005,0.666,-0.01,0.331,0.215,0.12,NaN,NaN,NaN,NaN,NaN,NaN,NaN,NaN,1.281e-5,165,213.825,80,0,5.819,15,1013.25,340.389,0.01,0.009
0.45,-4.666e-4,-0.093,-9.331,0.095,9.475,-8.227e-5,0,8.227e-5,180,0.016,1.645,22.175,120.893,9.788,100.912,0,0,0,2.8e4,1.35e4,19.961,0.106,NaN,2019.919,NaN,0.017,1.15e6,4.583,-0.005,0.666,-0.01,0.331,0.215,0.12,NaN,NaN,NaN,NaN,NaN,NaN,NaN,NaN,1.283e-5,165,213.825,80,0,5.846,15,1013.25,340.389,0.01,0.009
0.46,-4.668e-4,-0.093,-9.337,0.095,9.481,-8.231e-5,0,8.231e-5,180,0.016,1.646,22.175,120.893,9.788,100.927,0,0,0,2.8e4,1.35e4,19.961,0.106,NaN,2019.917,NaN,0.017,1.132e6,4.429,-0.005,0.667,-0.01,0.332,0.215,0.12,NaN,NaN,NaN,NaN,NaN,NaN,NaN,NaN,1.284e-5,165,213.825,80,0,5.757,15,1013.25,340.389,0.01,0.01
0.47,-4.668e-4,-0.093,-9.336,0.095,9.48,-8.231e-5,0,8.231e-5,180,0.016,1.646,22.175,120.893,9.788,100.941,0,0,0,2.8e4,1.35e4,19.961,0.106,NaN,2019.915,NaN,0.017,1.115e6,4.45,-0.004,0.668,-0.01,0.333,0.215,0.12,NaN,NaN,NaN,NaN,NaN,NaN,NaN,NaN,1.284e-5,165,213.825,80,0,5.667,15,1013.25,340.389,0.01,0.01
0.48,-4.66e-4,-0.093,-9.32,0.095,9.464,-8.217e-5,0,8.217e-5,180,0.016,1.643,22.175,120.893,9.788,100.954,0,0,0,2.8e4,1.35e4,19.961,0.106,NaN,2019.914,NaN,0.016,1.097e6,4.905,-0.004,0.669,-0.01,0.334,0.215,0.12,NaN,NaN,NaN,NaN,NaN,NaN,NaN,NaN,1.281e-5,165,213.825,80,0,5.578,15,1013.25,340.389,0.01,0.01
0.49,-4.663e-4,-0.093,-9.325,0.095,9.469,-8.222e-5,0,8.222e-5,180,0.016,1.644,22.175,120.893,9.788,100.97,0,0,0,2.8e4,1.35e4,19.961,0.106,NaN,2019.912,NaN,0.016,1.08e6,4.746,-0.004,0.67,-0.01,0.335,0.215,0.12,NaN,NaN,NaN,NaN,NaN,NaN,NaN,NaN,1.282e-5,165,213.825,80,0,5.489,15,1013.25,340.389,0.01,0.01
0.5,-4.668e-4,-0.093,-9.335,0.095,9.479,-8.23e-5,0,8.23e-5,180,0.016,1.646,22.175,120.893,9.788,100.987,0,0,0,2.8e4,1.35e4,19.961,0.106,NaN,2019.91,NaN,0.016,1.062e6,4.47,-0.004,0.671,-0.011,0.336,0.215,0.12,NaN,NaN,NaN,NaN,NaN,NaN,NaN,NaN,1.283e-5,165,213.825,80,0,5.4,15,1013.25,340.389,0.01,0.01
0.51,-4.664e-4,-0.093,-9.329,0.095,9.473,-8.224e-5,0,8.224e-5,180,0.016,1.645,22.175,120.893,9.788,100.994,0,0,0,2.8e4,1.35e4,19.961,0.106,NaN,2019.908,NaN,0.016,1.054e6,4.657,-0.004,0.672,-0.011,0.337,0.215,0.12,NaN,NaN,NaN,NaN,NaN,NaN,NaN,NaN,1.283e-5,165,213.825,80,0,5.359,15,1013.25,340.389,0.01,0.01
0.52,-4.656e-4,-0.093,-9.312,0.095,9.456,-8.21e-5,0,8.21e-5,180,0.016,1.642,22.175,120.893,9.788,101,0,0,0,2.8e4,1.35e4,19.961,0.106,NaN,2019.906,NaN,0.016,1.047e6,5.115,-0.004,0.672,-0.011,0.337,0.215,0.12,NaN,NaN,NaN,NaN,NaN,NaN,NaN,NaN,1.28e-5,165,213.825,80,0,5.319,15,1013.25,340.389,0.01,0.011
0.53,-4.652e-4,-0.093,-9.305,0.094,9.448,-8.203e-5,0,8.203e-5,180,0.016,1.641,22.175,120.893,9.788,101.007,0,0,0,2.8e4,1.35e4,19.961,0.106,NaN,2019.904,NaN,0.016,1.039e6,5.339,-0.004,0.673,-0.011,0.338,0.215,0.12,NaN,NaN,NaN,NaN,NaN,NaN,NaN,NaN,1.279e-5,165,213.825,80,0,5.279,15,1013.25,340.389,0.01,0.011
0.54,-4.665e-4,-0.093,-9.329,0.095,9.473,-8.225e-5,0,8.225e-5,180,0.016,1.645,22.175,120.893,9.788,101.017,0,0,0,2.8e4,1.35e4,19.961,0.106,NaN,2019.903,NaN,0.015,1.031e6,4.638,-0.004,0.673,-0.011,0.338,0.215,0.12,NaN,NaN,NaN,NaN,NaN,NaN,NaN,NaN,1.283e-5,165,213.825,80,0,5.238,15,1013.25,340.389,0.01,0.011
0.55,-4.661e-4,-0.093,-9.323,0.095,9.467,-8.219e-5,0,8.219e-5,180,0.016,1.644,22.175,120.893,9.788,101.024,0,0,0,2.8e4,1.35e4,19.961,0.106,NaN,2019.901,NaN,0.015,1.023e6,4.82,-0.004,0.674,-0.011,0.339,0.215,0.12,NaN,NaN,NaN,NaN,NaN,NaN,NaN,NaN,1.282e-5,165,213.825,80,0,5.198,15,1013.25,340.389,0.01,0.011
0.56,-4.656e-4,-0.093,-9.312,0.095,9.455,-8.209e-5,0,8.209e-5,180,0.016,1.642,22.175,120.893,9.788,101.011,0,0,0,2.8e4,1.35e4,19.961,0.106,NaN,2019.899,NaN,0.015,1.035e6,5.14,-0.004,0.673,-0.011,0.338,0.215,0.12,NaN,NaN,NaN,NaN,NaN,NaN,NaN,NaN,1.28e-5,165,213.825,80,0,5.258,15,1013.25,340.389,0.01,0.011
0.57,-4.655e-4,-0.093,-9.311,0.095,9.454,-8.209e-5,0,8.209e-5,180,0.016,1.642,22.175,120.893,9.788,101,0,0,0,2.8e4,1.35e4,19.961,0.106,NaN,2019.897,NaN,0.016,1.046e6,5.164,-0.004,0.672,-0.011,0.337,0.215,0.12,NaN,NaN,NaN,NaN,NaN,NaN,NaN,NaN,1.28e-5,165,213.825,80,0,5.318,15,1013.25,340.389,0.01,0.011
0.58,-4.656e-4,-0.093,-9.312,0.095,9.456,-8.21e-5,0,8.21e-5,180,0.016,1.642,22.175,120.893,9.788,100.989,0,0,0,2.8e4,1.35e4,19.961,0.106,NaN,2019.895,NaN,0.016,1.058e6,5.125,-0.004,0.671,-0.011,0.336,0.215,0.12,NaN,NaN,NaN,NaN,NaN,NaN,NaN,NaN,1.28e-5,165,213.825,80,0,5.378,15,1013.25,340.389,0.01,0.012
0.59,-4.653e-4,-0.093,-9.306,0.094,9.45,-8.205e-5,0,8.205e-5,180,0.016,1.641,22.175,120.893,9.788,100.977,0,0,0,2.8e4,1.35e4,19.961,0.106,NaN,2019.893,NaN,0.016,1.07e6,5.296,-0.004,0.671,-0.011,0.336,0.215,0.12,NaN,NaN,NaN,NaN,NaN,NaN,NaN,NaN,1.279e-5,165,213.825,80,0,5.438,15,1013.25,340.389,0.01,0.012
0.6,-4.648e-4,-0.093,-9.297,0.094,9.44,-8.196e-5,0,8.196e-5,180,0.016,1.639,22.175,120.893,9.788,100.966,0,0,0,2.8e4,1.349e4,19.961,0.106,NaN,2019.891,NaN,0.016,1.082e6,5.567,-0.004,0.67,-0.01,0.335,0.215,0.12,NaN,NaN,NaN,NaN,NaN,NaN,NaN,NaN,1.278e-5,165,213.825,80,0,5.498,15,1013.25,340.389,0.01,0.012
0.61,-4.646e-4,-0.093,-9.291,0.094,9.435,-8.192e-5,0,8.192e-5,180,0.016,1.638,22.175,120.893,9.788,100.954,0,0,0,2.8e4,1.349e4,19.961,0.106,NaN,2019.889,NaN,0.016,1.094e6,5.717,-0.004,0.669,-0.01,0.334,0.215,0.12,NaN,NaN,NaN,NaN,NaN,NaN,NaN,NaN,1.277e-5,165,213.825,80,0,5.563,15,1013.25,340.389,0.01,0.012
0.62,-4.652e-4,-0.093,-9.304,0.094,9.447,-8.202e-5,0,8.202e-5,180,0.016,1.64,22.175,120.893,9.788,100.944,0,0,0,2.8e4,1.349e4,19.961,0.106,NaN,2019.887,NaN,0.017,1.107e6,5.366,-0.004,0.668,-0.01,0.333,0.215,0.12,NaN,NaN,NaN,NaN,NaN,NaN,NaN,NaN,1.279e-5,165,213.825,80,0,5.629,15,1013.25,340.389,0.01,0.012
0.63,-4.643e-4,-0.093,-9.287,0.094,9.43,-8.188e-5,0,8.188e-5,180,0.016,1.638,22.175,120.893,9.788,100.932,0,0,0,2.799e4,1.349e4,19.961,0.106,NaN,2019.884,NaN,0.017,1.12e6,5.844,-0.004,0.668,-0.01,0.333,0.215,0.12,NaN,NaN,NaN,NaN,NaN,NaN,NaN,NaN,1.277e-5,165,213.825,80,0,5.694,15,1013.25,340.389,0.01,0.013
0.64,-4.644e-4,-0.093,-9.289,0.094,9.432,-8.189e-5,0,8.189e-5,180,0.016,1.638,22.175,120.893,9.788,100.921,0,0,0,2.799e4,1.349e4,19.961,0.106,NaN,2019.882,NaN,0.017,1.133e6,5.786,-0.005,0.667,-0.01,0.332,0.215,0.12,NaN,NaN,NaN,NaN,NaN,NaN,NaN,NaN,1.277e-5,165,213.825,80,0,5.76,15,1013.25,340.389,0.01,0.013
0.65,-4.641e-4,-0.093,-9.282,0.094,9.426,-8.184e-5,0,8.184e-5,180,0.016,1.637,22.175,120.893,9.788,100.91,0,0,0,2.799e4,1.349e4,19.961,0.106,NaN,2019.88,NaN,0.017,1.146e6,5.968,-0.005,0.666,-0.01,0.331,0.215,0.12,NaN,NaN,NaN,NaN,NaN,NaN,NaN,NaN,1.276e-5,165,213.825,80,0,5.825,15,1013.25,340.389,0.01,0.013
0.66,-4.631e-4,-0.093,-9.262,0.094,9.405,-8.166e-5,0,8.166e-5,180,0.016,1.633,22.175,120.893,9.788,100.901,0,0,0,2.799e4,1.349e4,19.961,0.106,NaN,2019.877,NaN,0.017,1.155e6,6.551,-0.005,0.666,-0.01,0.331,0.215,0.12,NaN,NaN,NaN,NaN,NaN,NaN,NaN,NaN,1.273e-5,165,213.825,80,0,5.873,15,1013.25,340.389,0.01,0.013
0.67,-4.628e-4,-0.093,-9.256,0.094,9.399,-8.16e-5,0,8.16e-5,180,0.016,1.632,22.175,120.893,9.788,100.893,0,0,0,2.799e4,1.349e4,19.961,0.106,NaN,2019.875,NaN,0.017,1.165e6,6.72,-0.005,0.665,-0.01,0.33,0.215,0.12,NaN,NaN,NaN,NaN,NaN,NaN,NaN,NaN,1.273e-5,165,213.825,80,0,5.921,15,1013.25,340.389,0.01,0.013
0.68,-4.618e-4,-0.092,-9.236,0.094,9.378,-8.142e-5,0,8.142e-5,180,0.016,1.628,22.175,120.893,9.788,100.884,0,0,0,2.799e4,1.349e4,19.961,0.106,NaN,2019.872,NaN,0.018,1.174e6,7.299,-0.005,0.665,-0.01,0.33,0.215,0.12,NaN,NaN,NaN,NaN,NaN,NaN,NaN,NaN,1.27e-5,165,213.825,80,0,5.969,15,1013.25,340.389,0.01,0.013
0.69,-4.615e-4,-0.092,-9.23,0.094,9.372,-8.137e-5,0,8.137e-5,180,0.016,1.627,22.175,120.893,9.788,100.876,0,0,0,2.799e4,1.349e4,19.961,0.106,NaN,2019.869,NaN,0.018,1.183e6,7.467,-0.005,0.664,-0.01,0.329,0.215,0.12,NaN,NaN,NaN,NaN,NaN,NaN,NaN,NaN,1.269e-5,165,213.825,80,0,6.017,15,1013.25,340.389,0.01,0.014
0.7,-4.606e-4,-0.092,-9.213,0.094,9.355,-8.122e-5,0,8.122e-5,180,0.016,1.624,22.175,120.893,9.788,100.868,0,0,0,2.799e4,1.349e4,19.961,0.106,NaN,2019.866,NaN,0.018,1.193e6,7.951,-0.005,0.664,-0.01,0.329,0.215,0.12,NaN,NaN,NaN,NaN,NaN,NaN,NaN,NaN,1.267e-5,165,213.825,80,0,6.065,15,1013.25,340.389,0.01,0.014
0.71,-4.589e-4,-0.092,-9.178,0.093,9.32,-8.092e-5,0,8.092e-5,180,0.016,1.618,22.175,120.893,9.788,100.87,0,0,0,2.799e4,1.349e4,19.96,0.106,NaN,2019.863,NaN,0.018,1.185e6,8.938,-0.005,0.664,-0.01,0.329,0.215,0.12,NaN,NaN,NaN,NaN,NaN,NaN,NaN,NaN,1.262e-5,165,213.825,80,0,6.025,15,1013.25,340.389,0.01,0.014
0.72,-4.583e-4,-0.092,-9.167,0.093,9.308,-8.082e-5,0,8.082e-5,180,0.016,1.616,22.175,120.893,9.788,100.875,0,0,0,2.799e4,1.349e4,19.96,0.106,NaN,2019.859,NaN,0.018,1.177e6,9.255,-0.005,0.665,-0.01,0.329,0.215,0.12,NaN,NaN,NaN,NaN,NaN,NaN,NaN,NaN,1.26e-5,165,213.825,80,0,5.985,15,1013.25,340.389,0.01,0.014
0.73,-4.567e-4,-0.091,-9.134,0.093,9.275,-8.053e-5,0,8.053e-5,180,0.016,1.611,22.175,120.893,9.788,100.878,0,0,0,2.799e4,1.349e4,19.96,0.106,NaN,2019.855,NaN,0.018,1.169e6,10.185,-0.005,0.665,-0.01,0.33,0.215,0.12,NaN,NaN,NaN,NaN,NaN,NaN,NaN,NaN,1.256e-5,165,213.825,80,0,5.945,15,1013.25,340.389,0.01,0.014
0.74,-4.548e-4,-0.091,-9.096,0.092,9.236,-8.019e-5,0,8.019e-5,180,0.016,1.604,22.175,120.893,9.788,100.88,0,0,0,2.799e4,1.349e4,19.96,0.106,NaN,2019.851,NaN,0.017,1.161e6,11.275,-0.005,0.665,-0.01,0.33,0.215,0.12,NaN,NaN,NaN,NaN,NaN,NaN,NaN,NaN,1.251e-5,165,213.825,80,0,5.904,15,1013.25,340.389,0.01,0.014
0.75,-4.529e-4,-0.091,-9.059,0.092,9.199,-7.987e-5,0,7.987e-5,180,0.016,1.597,22.175,120.893,9.788,100.883,0,0,0,2.799e4,1.349e4,19.96,0.106,NaN,2019.846,NaN,0.017,1.153e6,12.322,-0.005,0.666,-0.01,0.331,0.215,0.12,NaN,NaN,NaN,NaN,NaN,NaN,NaN,NaN,1.245e-5,165,213.825,80,0,5.864,15,1013.25,340.389,0.01,0.015
0.76,-4.506e-4,-0.09,-9.012,0.092,9.151,-7.945e-5,0,7.945e-5,180,0.016,1.589,22.175,120.893,9.788,100.864,0,0,0,2.799e4,1.349e4,19.96,0.106,NaN,2019.841,NaN,0.018,1.171e6,13.663,-0.005,0.665,-0.01,0.33,0.215,0.12,NaN,NaN,NaN,NaN,NaN,NaN,NaN,NaN,1.239e-5,165,213.825,80,0,5.957,15,1013.25,340.389,0.01,0.015
0.77,-4.495e-4,-0.09,-8.989,0.091,9.128,-7.925e-5,0,7.925e-5,180,0.016,1.585,22.175,120.893,9.788,100.849,0,0,0,2.799e4,1.349e4,19.96,0.106,NaN,2019.836,NaN,0.018,1.19e6,14.302,-0.005,0.664,-0.01,0.329,0.215,0.12,NaN,NaN,NaN,NaN,NaN,NaN,NaN,NaN,1.236e-5,165,213.825,80,0,6.049,15,1013.25,340.389,0.01,0.015
0.78,-4.469e-4,-0.089,-8.938,0.091,9.075,-7.88e-5,0,7.88e-5,180,0.016,1.576,22.175,120.893,9.788,100.832,0,0,0,2.799e4,1.349e4,19.96,0.106,NaN,2019.83,NaN,0.018,1.208e6,15.77,-0.005,0.663,-0.01,0.328,0.215,0.12,NaN,NaN,NaN,NaN,NaN,NaN,NaN,NaN,1.229e-5,165,213.825,80,0,6.142,15,1013.25,340.389,0.01,0.015
0.79,-4.448e-4,-0.089,-8.897,0.09,9.034,-7.844e-5,0,7.844e-5,180,0.016,1.569,22.175,120.893,9.788,100.816,0,0,0,2.799e4,1.349e4,19.96,0.106,NaN,2019.823,NaN,0.018,1.226e6,16.927,-0.005,0.662,-0.01,0.327,0.215,0.12,NaN,NaN,NaN,NaN,NaN,NaN,NaN,NaN,1.223e-5,165,213.825,80,0,6.235,15,1013.25,340.389,0.01,0.015
0.8,-4.427e-4,-0.089,-8.855,0.09,8.991,-7.807e-5,0,7.807e-5,180,0.016,1.561,22.175,120.893,9.788,100.8,0,0,0,2.799e4,1.349e4,19.96,0.106,NaN,2019.816,NaN,0.019,1.244e6,18.121,-0.005,0.661,-0.01,0.326,0.215,0.12,NaN,NaN,NaN,NaN,NaN,NaN,NaN,NaN,1.217e-5,165,213.825,80,0,6.327,15,1013.25,340.389,0.01,0.016
0.81,-4.404e-4,-0.088,-8.808,0.089,8.944,-7.766e-5,0,7.766e-5,180,0.016,1.553,22.175,120.893,9.788,100.792,0,0,0,2.799e4,1.349e4,19.96,0.106,NaN,2019.809,NaN,0.019,1.25e6,19.438,-0.005,0.661,-0.01,0.326,0.215,0.12,NaN,NaN,NaN,NaN,NaN,NaN,NaN,NaN,1.211e-5,165,213.825,80,0,6.358,15,1013.25,340.389,0.01,0.016
0.82,-4.392e-4,-0.088,-8.783,0.089,8.919,-7.744e-5,0,7.744e-5,180,0.015,1.549,22.175,120.893,9.788,100.786,0,0,0,2.799e4,1.349e4,19.959,0.106,NaN,2019.801,NaN,0.019,1.256e6,20.155,-0.005,0.66,-0.01,0.325,0.215,0.12,NaN,NaN,NaN,NaN,NaN,NaN,NaN,NaN,1.208e-5,165,213.825,80,0,6.389,15,1013.25,340.389,0.01,0.016
0.83,-4.343e-4,-0.087,-8.687,0.088,8.821,-7.659e-5,0,7.659e-5,180,0.015,1.532,22.175,120.893,9.788,100.773,0,0,0,2.799e4,1.349e4,19.959,0.106,NaN,2019.793,NaN,0.019,1.262e6,22.899,-0.005,0.66,-0.01,0.325,0.215,0.12,NaN,NaN,NaN,NaN,NaN,NaN,NaN,NaN,1.194e-5,165,213.825,80,0,6.42,15,1013.25,340.389,0.01,0.016
0.84,-4.256e-4,-0.085,-8.511,0.086,8.643,-7.504e-5,0,7.504e-5,180,0.015,1.501,22.175,120.893,9.788,100.754,0,0,0,2.799e4,1.349e4,19.959,0.106,NaN,2019.782,NaN,0.019,1.268e6,27.886,-0.005,0.66,-0.01,0.325,0.215,0.12,NaN,NaN,NaN,NaN,NaN,NaN,NaN,NaN,1.17e-5,165,213.825,80,0,6.451,15,1013.25,340.389,0.01,0.016
0.85,-4.183e-4,-0.084,-8.365,0.085,8.494,-7.375e-5,0,7.375e-5,180,0.015,1.475,22.175,120.893,9.788,100.738,0,0,0,2.799e4,1.349e4,19.959,0.106,NaN,2019.77,NaN,0.019,1.274e6,32.036,-0.005,0.66,-0.01,0.324,0.215,0.12,NaN,NaN,NaN,NaN,NaN,NaN,NaN,NaN,1.15e-5,165,213.825,80,0,6.482,15,1013.25,340.389,0.01,0.016
0.86,-4.106e-4,-0.082,-8.212,0.083,8.339,-7.24e-5,0,7.24e-5,180,0.014,1.448,22.175,120.893,9.788,100.729,0,0,0,2.799e4,1.349e4,19.959,0.106,NaN,2019.756,NaN,0.019,1.266e6,36.392,-0.005,0.66,-0.01,0.325,0.215,0.12,NaN,NaN,NaN,NaN,NaN,NaN,NaN,NaN,1.129e-5,165,213.825,80,0,6.442,15,1013.25,340.389,0.01,0.017
0.87,-4.032e-4,-0.081,-8.064,0.082,8.189,-7.11e-5,0,7.11e-5,180,0.014,1.422,22.175,120.893,9.788,100.72,0,0,0,2.799e4,1.349e4,19.958,0.106,NaN,2019.74,NaN,0.019,1.258e6,40.581,-0.005,0.66,-0.01,0.325,0.215,0.12,NaN,NaN,NaN,NaN,NaN,NaN,NaN,NaN,1.109e-5,165,213.825,80,0,6.402,15,1013.25,340.389,0.01,0.017
0.88,-3.96e-4,-0.079,-7.92,0.08,8.042,-6.983e-5,0,6.983e-5,180,0.014,1.397,22.175,120.893,9.788,100.712,0,0,0,2.799e4,1.349e4,19.958,0.106,NaN,2019.723,NaN,0.019,1.251e6,44.682,-0.005,0.661,-0.01,0.326,0.215,0.12,NaN,NaN,NaN,NaN,NaN,NaN,NaN,NaN,1.089e-5,165,213.825,80,0,6.363,15,1013.25,340.389,0.01,0.017
0.89,-3.897e-4,-0.078,-7.793,0.079,7.913,-6.871e-5,0,6.871e-5,180,0.014,1.374,22.175,120.893,9.788,100.705,0,0,0,2.799e4,1.349e4,19.958,0.106,NaN,2019.705,NaN,0.019,1.243e6,48.294,-0.005,0.661,-0.01,0.326,0.215,0.12,NaN,NaN,NaN,NaN,NaN,NaN,NaN,NaN,1.071e-5,165,213.825,80,0,6.323,15,1013.25,340.389,0.01,0.017
0.9,-3.836e-4,-0.077,-7.671,0.078,7.79,-6.763e-5,0,6.763e-5,180,0.014,1.353,22.175,120.893,9.788,100.698,0,0,0,2.799e4,1.349e4,19.957,0.106,NaN,2019.685,NaN,0.019,1.235e6,51.752,-0.005,0.661,-0.01,0.326,0.215,0.12,NaN,NaN,NaN,NaN,NaN,NaN,NaN,NaN,1.055e-5,165,213.825,80,0,6.283,15,1013.25,340.389,0.01,0.017
0.91,-3.755e-4,-0.075,-7.51,0.076,7.626,-6.622e-5,0,6.622e-5,180,0.013,1.324,22.175,120.893,9.788,100.683,0,0,0,2.798e4,1.348e4,19.957,0.106,NaN,2019.664,NaN,0.019,1.236e6,56.319,-0.005,0.661,-0.01,0.326,0.215,0.12,NaN,NaN,NaN,NaN,NaN,NaN,NaN,NaN,1.033e-5,165,213.825,80,0,6.288,15,1013.25,340.389,0.01,0.017
0.92,-3.677e-4,-0.074,-7.354,0.075,7.468,-6.484e-5,0,6.484e-5,180,0.013,1.297,22.175,120.893,9.788,100.668,0,0,0,2.798e4,1.348e4,19.957,0.106,NaN,2019.641,NaN,0.019,1.237e6,60.748,-0.005,0.661,-0.01,0.326,0.215,0.12,NaN,NaN,NaN,NaN,NaN,NaN,NaN,NaN,1.011e-5,165,213.825,80,0,6.293,15,1013.25,340.389,0.01,0.018
0.93,-3.56e-4,-0.071,-7.121,0.072,7.231,-6.278e-5,0,6.278e-5,180,0.013,1.256,22.175,120.893,9.788,100.647,0,0,0,2.798e4,1.348e4,19.956,0.106,NaN,2019.615,NaN,0.019,1.238e6,67.387,-0.005,0.661,-0.01,0.326,0.215,0.12,NaN,NaN,NaN,NaN,NaN,NaN,NaN,NaN,9.79e-6,165,213.825,80,0,6.297,15,1013.25,340.389,0.01,0.018
0.94,-3.418e-4,-0.068,-6.837,0.069,6.942,-6.028e-5,0,6.028e-5,180,0.012,1.205,22.175,120.893,9.788,100.62,0,0,0,2.798e4,1.348e4,19.956,0.106,NaN,2019.586,NaN,0.019,1.238e6,75.455,-0.005,0.661,-0.009,0.326,0.215,0.12,NaN,NaN,NaN,NaN,NaN,NaN,NaN,NaN,9.399e-6,165,213.825,80,0,6.302,15,1013.25,340.389,0.01,0.018
0.95,-3.257e-4,-0.065,-6.515,0.066,6.615,-5.744e-5,0,5.744e-5,180,0.011,1.149,22.175,120.893,9.788,100.591,0,0,0,2.798e4,1.348e4,19.955,0.106,NaN,2019.554,NaN,0.019,1.239e6,84.603,-0.005,0.661,-0.009,0.326,0.215,0.12,NaN,NaN,NaN,NaN,NaN,NaN,NaN,NaN,8.956e-6,165,213.825,80,0,6.307,15,1013.25,340.389,0.01,0.018
0.96,-3.058e-4,-0.061,-6.116,0.062,6.21,-5.392e-5,0,5.392e-5,180,0.011,1.078,22.175,120.893,9.788,100.561,0,0,0,2.798e4,1.348e4,19.954,0.106,NaN,2019.517,NaN,0.018,1.226e6,95.934,-0.005,0.662,-0.009,0.327,0.215,0.12,NaN,NaN,NaN,NaN,NaN,NaN,NaN,NaN,8.408e-6,165,213.825,80,0,6.24,15,1013.25,340.389,0.01,0.018
0.97,-2.857e-4,-0.057,-5.714,0.058,5.802,-5.038e-5,0,5.038e-5,180,0.01,1.008,22.175,120.893,9.788,100.53,0,0,0,2.798e4,1.348e4,19.954,0.106,NaN,2019.476,NaN,0.018,1.213e6,107.326,-0.005,0.663,-0.009,0.327,0.215,0.12,NaN,NaN,NaN,NaN,NaN,NaN,NaN,NaN,7.856e-6,165,213.825,80,0,6.173,15,1013.25,340.389,0.01,0.019
0.98,-2.598e-4,-0.052,-5.196,0.053,5.276,-4.581e-5,0,4.581e-5,180,0.009,0.916,22.175,120.893,9.788,100.487,0,0,0,2.797e4,1.347e4,19.953,0.106,NaN,2019.43,NaN,0.018,1.199e6,122.033,-0.004,0.663,-0.009,0.328,0.215,0.12,NaN,NaN,NaN,NaN,NaN,NaN,NaN,NaN,7.144e-6,165,213.825,80,0,6.106,15,1013.25,340.389,0.01,0.019
0.99,-2.264e-4,-0.045,-4.527,0.046,4.597,-3.992e-5,0,3.992e-5,180,0.008,0.798,22.175,120.893,9.788,100.429,0,0,0,2.797e4,1.347e4,19.952,0.106,NaN,2019.376,NaN,0.018,1.186e6,141.022,-0.004,0.664,-0.009,0.329,0.215,0.12,NaN,NaN,NaN,NaN,NaN,NaN,NaN,NaN,6.224e-6,165,213.825,80,0,6.039,15,1013.25,340.389,0.01,0.019
1,-1.775e-4,-0.035,-3.549,0.036,3.603,-3.129e-5,0,3.129e-5,180,0.006,0.626,22.175,120.893,9.788,100.34,0,0,0,2.797e4,1.347e4,19.951,0.106,NaN,2019.312,NaN,0.018,1.173e6,168.795,-0.004,0.665,-0.009,0.33,0.215,0.12,NaN,NaN,NaN,NaN,NaN,NaN,NaN,NaN,4.879e-6,165,213.825,80,0,5.972,15,1013.25,340.389,0.01,0.019
1.01,-1.08e-4,-0.022,-2.159,0.022,2.193,-1.904e-5,0,1.904e-5,180,0.004,0.381,22.175,120.893,9.788,100.206,0,0,0,2.796e4,1.346e4,19.949,0.106,NaN,2019.232,NaN,0.018,1.178e6,208.221,-0.004,0.664,-0.008,0.329,0.215,0.12,NaN,NaN,NaN,NaN,NaN,NaN,NaN,NaN,2.97e-6,165,213.825,80,0,6.003,15,1013.25,340.389,0.01,0.019
1.02,-4.339e-5,-0.009,-0.867,0.009,0.88,-7.651e-6,0,7.651e-6,180,0.002,0.153,22.175,120.893,9.788,100.082,0,0,0,2.796e4,1.346e4,19.948,0.106,NaN,2019.139,NaN,0.018,1.184e6,244.886,-0.004,0.664,-0.008,0.329,0.215,0.12,NaN,NaN,NaN,NaN,NaN,NaN,NaN,NaN,1.193e-6,165,213.825,80,0,6.034,15,1013.25,340.389,0.01,0.019
1.03,2.652e-5,0.005,0.532,0.005,0.54,4.676e-6,0,4.676e-6,0,9.358e-4,0.094,22.175,120.893,9.788,99.95,0,0,0,2.795e4,1.345e4,19.946,0.106,NaN,2019.03,NaN,0.018,1.189e6,284.538,-0.004,0.664,-0.008,0.329,0.215,0.12,NaN,NaN,NaN,NaN,NaN,NaN,NaN,NaN,7.296e-7,165,213.825,80,0,6.064,15,1013.25,340.389,0.01,0.02
1.04,1.813e-4,0.026,2.035,0.026,2.066,3.196e-5,0,3.196e-5,0,0.005,0.359,22.175,120.893,9.788,99.759,0,0,0,2.795e4,1.345e4,19.943,0.106,NaN,2018.905,NaN,0.018,1.194e6,327.142,-0.004,0.664,-0.007,0.328,0.215,0.12,NaN,NaN,NaN,NaN,NaN,NaN,NaN,NaN,3.526e-6,165,213.825,80,0,6.095,15,1013.25,340.389,0.01,0.02
1.05,6.198e-4,0.062,3.643,0.063,3.699,1.093e-4,0,1.093e-4,0,0.011,0.642,22.175,120.893,9.788,99.418,0,0,0,2.794e4,1.344e4,19.941,0.106,NaN,2018.763,NaN,0.018,1.199e6,372.693,-0.003,0.663,-0.007,0.328,0.215,0.12,NaN,NaN,NaN,NaN,NaN,NaN,NaN,NaN,8.532e-6,165,213.825,80,0,6.126,15,1013.25,340.389,0.01,0.02
1.06,0.002,0.118,5.603,0.12,5.689,2.681e-4,0,2.681e-4,0,0.021,0.988,22.175,120.893,9.788,98.89,0,0,0,2.793e4,1.343e4,19.938,0.106,NaN,2018.599,NaN,0.018,1.195e6,428.171,-0.003,0.664,-0.006,0.328,0.215,0.12,NaN,NaN,NaN,NaN,NaN,NaN,NaN,NaN,1.623e-5,165,213.825,80,0,6.115,15,1013.25,340.389,0.01,0.02
1.07,0.003,0.193,7.537,0.196,7.653,5.427e-4,0,5.427e-4,0,0.034,1.329,22.175,120.893,9.788,98.175,0,0,0,2.792e4,1.342e4,19.935,0.106,NaN,2018.415,NaN,0.018,1.191e6,482.882,-0.002,0.664,-0.004,0.329,0.215,0.12,NaN,NaN,NaN,NaN,NaN,NaN,NaN,NaN,2.659e-5,165,213.825,80,0,6.104,15,1013.25,340.389,0.01,0.02
1.08,0.005,0.291,9.756,0.295,9.907,9.697e-4,0,9.697e-4,0,0.051,1.72,22.175,120.893,9.788,97.243,0,0,0,2.791e4,1.341e4,19.931,0.106,NaN,2018.206,NaN,0.018,1.186e6,545.617,-0.001,0.664,-0.003,0.329,0.215,0.12,NaN,NaN,NaN,NaN,NaN,NaN,NaN,NaN,4e-5,165,213.825,80,0,6.094,15,1013.249,340.389,0.01,0.021
1.09,0.009,0.414,12.278,0.42,12.468,0.002,0,0.002,0,0.073,2.165,22.175,120.893,9.788,96.063,0,0,0,2.79e4,1.34e4,19.927,0.106,NaN,2017.969,NaN,0.018,1.182e6,616.859,-8.82e-4,0.664,-0.002,0.329,0.215,0.12,NaN,NaN,NaN,NaN,NaN,NaN,NaN,NaN,5.687e-5,165,213.825,80,0,6.083,15,1013.249,340.389,0.01,0.021
1.1,0.014,0.565,15.164,0.574,15.398,0.002,0,0.002,0,0.1,2.674,22.175,120.893,9.788,94.594,0,0,0,2.789e4,1.339e4,19.922,0.106,NaN,2017.702,NaN,0.018,1.177e6,698.307,-3.869e-4,0.665,-8.206e-4,0.329,0.215,0.12,NaN,NaN,NaN,NaN,NaN,NaN,NaN,NaN,7.771e-5,165,213.825,80,0,6.073,15,1013.248,340.389,0.01,0.021
1.11,0.02,0.747,18.205,0.759,18.486,0.004,0,0.004,0,0.132,3.21,22.175,120.893,9.788,92.903,0,0,0,2.788e4,1.338e4,19.917,0.106,NaN,2017.401,NaN,0.018,1.186e6,784.022,-1.01e-4,0.664,-2.108e-4,0.329,0.215,0.12,NaN,NaN,NaN,NaN,NaN,NaN,NaN,NaN,1.027e-4,165,213.825,80,0,6.134,15,1013.248,340.389,0.01,0.021
1.12,0.029,0.96,21.325,0.975,21.654,0.005,0,0.005,0,0.169,3.76,22.175,120.893,9.788,90.944,0,0,0,2.786e4,1.336e4,19.911,0.106,NaN,2017.066,NaN,0.018,1.197e6,871.849,-3.602e-6,0.663,-7.387e-6,0.328,0.215,0.12,NaN,NaN,NaN,NaN,NaN,NaN,NaN,NaN,1.32e-4,165,213.825,80,0,6.195,15,1013.247,340.389,0.01,0.021
1.13,0.04,1.205,24.499,1.224,24.877,0.007,0,0.007,0,0.213,4.32,22.175,120.893,9.788,88.721,0,0,0,2.784e4,1.334e4,19.904,0.106,NaN,2016.696,NaN,0.018,1.209e6,961.049,9.096e-6,0.663,1.829e-5,0.328,0.215,0.12,NaN,NaN,NaN,NaN,NaN,NaN,NaN,NaN,1.657e-4,165,213.825,80,0,6.256,15,1013.245,340.389,0.01,0.021
1.14,0.053,1.479,27.39,1.502,27.813,0.009,0,0.009,0,0.261,4.83,22.175,120.893,9.788,86.276,0,0,0,2.782e4,1.332e4,19.897,0.106,NaN,2016.295,NaN,0.018,1.223e6,1042.073,2.238e-4,0.662,4.397e-4,0.327,0.215,0.12,NaN,NaN,NaN,NaN,NaN,NaN,NaN,NaN,2.033e-4,165,213.825,80,0,6.317,15,1013.244,340.389,0.01,0.022
1.15,0.07,1.778,29.895,1.805,30.356,0.012,0,0.012,0,0.313,5.271,22.175,120.893,9.788,83.661,0,0,0,2.78e4,1.33e4,19.889,0.106,NaN,2015.866,NaN,0.019,1.239e6,1112.029,0.001,0.661,0.002,0.326,0.215,0.12,NaN,NaN,NaN,NaN,NaN,NaN,NaN,NaN,2.444e-4,165,213.825,80,0,6.378,15,1013.242,340.389,0.01,0.022
1.16,0.089,2.098,32.07,2.131,32.565,0.016,0,0.016,0,0.37,5.655,22.175,120.893,9.788,80.886,0,0,0,2.778e4,1.328e4,19.881,0.106,NaN,2015.413,NaN,0.019,1.257e6,1172.553,0.003,0.66,0.006,0.325,0.215,0.12,NaN,NaN,NaN,NaN,NaN,NaN,NaN,NaN,2.885e-4,165,213.825,80,0,6.425,14.999,1013.24,340.389,0.01,0.022
1.17,0.112,2.436,33.793,2.474,34.314,0.02,0,0.02,0,0.43,5.959,22.175,120.893,9.788,78.041,0,0,0,2.776e4,1.326e4,19.873,0.105,NaN,2014.941,NaN,0.019,1.278e6,1220.187,0.007,0.659,0.013,0.324,0.215,0.12,NaN,NaN,NaN,NaN,NaN,NaN,NaN,NaN,3.349e-4,165,213.825,80,0,6.472,14.999,1013.237,340.388,0.01,0.022
1.18,0.138,2.787,35.058,2.83,35.599,0.024,0,0.024,0,0.491,6.182,22.175,120.893,9.788,75.188,0,0,0,2.774e4,1.324e4,19.864,0.105,NaN,2014.455,NaN,0.02,1.302e6,1254.818,0.014,0.658,0.024,0.323,0.215,0.12,NaN,NaN,NaN,NaN,NaN,NaN,NaN,NaN,3.831e-4,165,213.825,80,0,6.519,14.999,1013.234,340.388,0.01,0.022
1.19,0.167,3.145,35.852,3.193,36.405,0.03,0,0.03,0,0.555,6.322,22.175,120.893,9.788,72.381,0,0,0,2.771e4,1.321e4,19.855,0.105,NaN,2013.959,NaN,0.02,1.33e6,1276.135,0.024,0.657,0.039,0.322,0.215,0.12,NaN,NaN,NaN,NaN,NaN,NaN,NaN,NaN,4.324e-4,165,213.825,80,0,6.565,14.999,1013.23,340.388,0.01,0.022
1.2,0.201,3.509,36.4,3.563,36.962,0.035,0,0.035,0,0.619,6.418,22.175,120.893,9.788,69.655,0,0,0,2.769e4,1.319e4,19.846,0.105,NaN,2013.458,NaN,0.02,1.362e6,1290.479,0.037,0.655,0.058,0.32,0.215,0.12,NaN,NaN,NaN,NaN,NaN,NaN,NaN,NaN,4.824e-4,165,213.825,80,0,6.612,14.999,1013.226,340.388,0.01,0.023
1.21,0.238,3.876,36.704,3.935,37.27,0.042,0,0.042,0,0.683,6.472,22.175,120.893,9.788,66.923,0,0,0,2.767e4,1.317e4,19.837,0.105,NaN,2012.952,NaN,0.021,1.393e6,1297.933,0.054,0.654,0.082,0.319,0.215,0.12,NaN,NaN,NaN,NaN,NaN,NaN,NaN,NaN,5.328e-4,165,213.825,80,0,6.634,14.998,1013.222,340.388,0.01,0.023
1.22,0.278,4.243,36.763,4.308,37.331,0.049,0,0.049,0,0.748,6.482,22.175,120.893,9.788,64.31,0,0,0,2.764e4,1.314e4,19.828,0.105,NaN,2012.446,NaN,0.021,1.426e6,1298.512,0.075,0.653,0.109,0.317,0.215,0.12,NaN,NaN,NaN,NaN,NaN,NaN,NaN,NaN,5.833e-4,165,213.825,80,0,6.655,14.998,1013.217,340.388,0.01,0.023
1.23,0.322,4.611,36.806,4.682,37.374,0.057,0,0.057,0,0.813,6.49,22.175,120.893,9.788,61.82,0,0,0,2.762e4,1.312e4,19.819,0.105,NaN,2011.938,NaN,0.022,1.463e6,1298.633,0.101,0.651,0.138,0.316,0.215,0.12,NaN,NaN,NaN,NaN,NaN,NaN,NaN,NaN,6.339e-4,165,213.825,80,0,6.677,14.998,1013.212,340.388,0.01,0.023
1.24,0.37,4.978,36.714,5.055,37.28,0.065,0,0.065,0,0.878,6.474,22.175,120.893,9.788,59.462,0,0,0,2.76e4,1.31e4,19.81,0.105,NaN,2011.431,NaN,0.022,1.502e6,1294.965,0.13,0.649,0.17,0.314,0.215,0.12,NaN,NaN,NaN,NaN,NaN,NaN,NaN,NaN,6.844e-4,165,213.825,80,0,6.698,14.998,1013.207,340.387,0.01,0.023
1.25,0.422,5.344,36.629,5.426,37.194,0.074,0,0.074,0,0.942,6.459,22.175,120.893,9.788,57.232,0,0,0,2.757e4,1.307e4,19.801,0.105,NaN,2010.925,NaN,0.023,1.543e6,1291.53,0.164,0.648,0.202,0.313,0.215,0.12,NaN,NaN,NaN,NaN,NaN,NaN,NaN,NaN,7.347e-4,165,213.825,80,0,6.72,14.997,1013.201,340.387,0.01,0.024
1.26,0.477,5.709,36.543,5.797,37.107,0.084,0,0.084,0,1.007,6.444,22.175,120.893,9.788,55.179,0,0,0,2.755e4,1.305e4,19.792,0.105,NaN,2010.419,NaN,0.024,1.588e6,1288.052,0.201,0.646,0.234,0.311,0.215,0.12,NaN,NaN,NaN,NaN,NaN,NaN,NaN,NaN,7.849e-4,165,213.825,80,0,6.752,14.997,1013.194,340.387,0.01,0.024
1.27,0.536,6.073,36.432,6.167,36.994,0.095,0,0.095,0,1.071,6.424,22.175,120.893,9.788,53.247,0,0,0,2.753e4,1.303e4,19.783,0.105,NaN,2009.914,NaN,0.024,1.635e6,1283.912,0.242,0.644,0.266,0.309,0.215,0.12,NaN,NaN,NaN,NaN,NaN,NaN,NaN,NaN,8.35e-4,165,213.825,80,0,6.784,14.997,1013.187,340.387,0.01,0.024
1.28,0.599,6.437,36.4,6.536,36.962,0.106,0,0.106,0,1.135,6.418,22.175,120.893,9.788,51.427,0,0,0,2.75e4,1.3e4,19.774,0.105,NaN,2009.409,NaN,0.025,1.684e6,1281.967,0.287,0.643,0.298,0.307,0.215,0.12,NaN,NaN,NaN,NaN,NaN,NaN,NaN,NaN,8.85e-4,165,213.825,80,0,6.816,14.996,1013.18,340.387,0.01,0.024
1.29,0.665,6.8,36.318,6.905,36.879,0.117,0,0.117,0,1.199,6.404,22.175,120.893,9.788,49.715,0,0,0,2.748e4,1.298e4,19.765,0.105,NaN,2008.904,NaN,0.026,1.734e6,1278.651,0.336,0.641,0.328,0.306,0.215,0.12,NaN,NaN,NaN,NaN,NaN,NaN,NaN,NaN,9.349e-4,165,213.825,80,0,6.848,14.996,1013.172,340.386,0.01,0.024
1.3,0.735,7.163,36.277,7.273,36.837,0.13,0,0.13,0,1.263,6.397,22.175,120.893,9.788,48.101,0,0,0,2.746e4,1.296e4,19.756,0.105,NaN,2008.399,NaN,0.027,1.785e6,1276.485,0.388,0.639,0.358,0.304,0.215,0.12,NaN,NaN,NaN,NaN,NaN,NaN,NaN,NaN,9.847e-4,165,213.825,80,0,6.88,14.995,1013.164,340.386,0.01,0.024
1.31,0.808,7.525,36.272,7.641,36.832,0.142,0,0.142,0,1.327,6.396,22.175,120.893,9.788,46.279,0,0,0,2.743e4,1.293e4,19.747,0.105,NaN,2007.894,NaN,0.027,1.831e6,1275.318,0.448,0.638,0.393,0.303,0.215,0.12,NaN,NaN,NaN,NaN,NaN,NaN,NaN,NaN,0.001,165,213.825,80,0,6.851,14.995,1013.155,340.386,0.01,0.025
1.32,0.885,7.887,36.244,8.009,36.803,0.156,0,0.156,0,1.391,6.391,22.175,120.893,9.788,44.548,0,0,0,2.741e4,1.291e4,19.738,0.105,NaN,2007.388,NaN,0.028,1.878e6,1273.528,0.511,0.637,0.426,0.301,0.215,0.12,NaN,NaN,NaN,NaN,NaN,NaN,NaN,NaN,0.001,165,213.825,80,0,6.822,14.994,1013.146,340.385,0.01,0.025
1.33,0.966,8.25,36.293,8.378,36.853,0.17,0,0.17,0,1.455,6.4,22.175,120.893,9.788,42.902,0,0,0,2.739e4,1.289e4,19.729,0.105,NaN,2006.882,NaN,0.029,1.927e6,1273.891,0.579,0.635,0.458,0.3,0.215,0.12,NaN,NaN,NaN,NaN,NaN,NaN,NaN,NaN,0.001,165,213.825,80,0,6.793,14.994,1013.137,340.385,0.01,0.025
1.34,1.05,8.613,36.27,8.746,36.83,0.185,0,0.185,0,1.519,6.395,22.175,120.893,9.788,41.34,0,0,0,2.736e4,1.286e4,19.72,0.105,NaN,2006.376,NaN,0.03,1.977e6,1272.247,0.65,0.634,0.488,0.298,0.215,0.12,NaN,NaN,NaN,NaN,NaN,NaN,NaN,NaN,0.001,165,213.825,80,0,6.764,14.993,1013.127,340.385,0.01,0.025
1.35,1.138,8.975,36.28,9.114,36.84,0.201,0,0.201,0,1.583,6.397,22.175,120.893,9.788,39.856,0,0,0,2.734e4,1.284e4,19.711,0.105,NaN,2005.868,NaN,0.03,2.029e6,1271.517,0.725,0.632,0.517,0.297,0.215,0.12,NaN,NaN,NaN,NaN,NaN,NaN,NaN,NaN,0.001,165,213.825,80,0,6.735,14.993,1013.117,340.384,0.01,0.025
1.36,1.23,9.338,36.317,9.482,36.877,0.217,0,0.217,0,1.647,6.404,22.175,120.893,9.788,38.44,0,0,0,2.732e4,1.282e4,19.702,0.105,NaN,2005.361,NaN,0.031,2.083e6,1271.539,0.803,0.631,0.544,0.296,0.215,0.12,NaN,NaN,NaN,NaN,NaN,NaN,NaN,NaN,0.001,165,213.825,80,0,6.704,14.992,1013.106,340.384,0.01,0.026
1.37,1.325,9.702,36.333,9.851,36.893,0.234,0,0.234,0,1.711,6.406,22.175,120.893,9.788,37.094,0,0,0,2.729e4,1.279e4,19.693,0.105,NaN,2004.852,NaN,0.032,2.137e6,1270.983,0.884,0.629,0.569,0.294,0.215,0.12,NaN,NaN,NaN,NaN,NaN,NaN,NaN,NaN,0.001,165,213.825,80,0,6.674,14.991,1013.095,340.384,0.01,0.026
1.38,1.424,10.066,36.447,10.221,37.009,0.251,0,0.251,0,1.775,6.427,22.175,120.893,9.788,35.812,0,0,0,2.727e4,1.277e4,19.684,0.105,NaN,2004.342,NaN,0.033,2.193e6,1273.167,0.969,0.628,0.592,0.293,0.215,0.12,NaN,NaN,NaN,NaN,NaN,NaN,NaN,NaN,0.001,165,213.825,80,0,6.644,14.991,1013.083,340.383,0.01,0.026
1.39,1.526,10.43,36.487,10.591,37.05,0.269,0,0.269,0,1.839,6.434,22.175,120.893,9.788,34.594,0,0,0,2.725e4,1.275e4,19.675,0.105,NaN,2003.83,NaN,0.034,2.249e6,1273.278,1.058,0.627,0.614,0.291,0.215,0.12,NaN,NaN,NaN,NaN,NaN,NaN,NaN,NaN,0.001,165,213.825,80,0,6.613,14.99,1013.071,340.383,0.01,0.026
1.4,1.632,10.796,36.573,10.963,37.137,0.288,0,0.288,0,1.904,6.449,22.175,120.893,9.788,33.433,0,0,0,2.723e4,1.273e4,19.666,0.105,NaN,2003.318,NaN,0.035,2.307e6,1274.663,1.149,0.625,0.634,0.29,0.215,0.12,NaN,NaN,NaN,NaN,NaN,NaN,NaN,NaN,0.001,165,213.825,80,0,6.583,14.989,1013.059,340.382,0.01,0.026
1.41,1.742,11.163,36.679,11.335,37.244,0.307,0,0.307,0,1.968,6.467,22.175,120.893,9.788,32.516,0,0,0,2.72e4,1.27e4,19.657,0.105,NaN,2002.803,NaN,0.036,2.37e6,1276.588,1.24,0.624,0.649,0.289,0.215,0.12,NaN,NaN,NaN,NaN,NaN,NaN,NaN,NaN,0.002,165,213.825,80,0,6.596,14.989,1013.046,340.382,0.01,0.026
1.42,1.856,11.53,36.746,11.708,37.313,0.327,0,0.327,0,2.033,6.479,22.175,120.893,9.788,31.643,0,0,0,2.718e4,1.268e4,19.648,0.105,NaN,2002.288,NaN,0.036,2.432e6,1277.444,1.336,0.623,0.663,0.288,0.215,0.12,NaN,NaN,NaN,NaN,NaN,NaN,NaN,NaN,0.002,165,213.825,80,0,6.608,14.988,1013.032,340.382,0.01,0.027
1.43,1.973,11.899,36.879,12.082,37.448,0.348,0,0.348,0,2.098,6.503,22.175,120.893,9.788,30.812,0,0,0,2.716e4,1.266e4,19.639,0.105,NaN,2001.77,NaN,0.037,2.496e6,1280.14,1.436,0.623,0.677,0.288,0.215,0.12,NaN,NaN,NaN,NaN,NaN,NaN,NaN,NaN,0.002,165,213.825,80,0,6.621,14.987,1013.019,340.381,0.01,0.027
1.44,2.094,12.268,36.935,12.457,37.505,0.369,0,0.369,0,2.163,6.513,22.175,120.893,9.788,30.021,0,0,0,2.713e4,1.263e4,19.629,0.105,NaN,2001.252,NaN,0.038,2.56e6,1280.681,1.54,0.623,0.69,0.288,0.215,0.12,NaN,NaN,NaN,NaN,NaN,NaN,NaN,NaN,0.002,165,213.825,80,0,6.633,14.986,1013.004,340.381,0.01,0.027
1.45,2.218,12.638,37.043,12.833,37.614,0.391,0,0.391,0,2.228,6.532,22.175,120.893,9.788,29.267,0,0,0,2.711e4,1.261e4,19.62,0.105,NaN,2000.731,NaN,0.039,2.625e6,1282.653,1.647,0.623,0.702,0.288,0.215,0.12,NaN,NaN,NaN,NaN,NaN,NaN,NaN,NaN,0.002,165,213.825,80,0,6.646,14.986,1012.99,340.38,0.01,0.027
1.46,2.346,13.009,37.159,13.21,37.733,0.414,0,0.414,0,2.294,6.552,22.175,120.893,9.788,28.773,0,0,0,2.709e4,1.259e4,19.611,0.104,NaN,2000.209,NaN,0.04,2.694e6,1284.861,1.754,0.623,0.709,0.288,0.215,0.12,NaN,NaN,NaN,NaN,NaN,NaN,NaN,NaN,0.002,165,213.825,80,0,6.716,14.985,1012.975,340.38,0.01,0.027
1.47,2.478,13.381,37.211,13.588,37.785,0.437,0,0.437,0,2.359,6.561,22.175,120.893,9.788,28.302,0,0,0,2.706e4,1.256e4,19.602,0.104,NaN,1999.686,NaN,0.041,2.764e6,1285.292,1.863,0.623,0.716,0.288,0.215,0.12,NaN,NaN,NaN,NaN,NaN,NaN,NaN,NaN,0.002,165,213.825,80,0,6.785,14.984,1012.959,340.379,0.01,0.027
1.48,2.614,13.754,37.331,13.967,37.907,0.461,0,0.461,0,2.425,6.582,22.175,120.893,9.788,27.852,0,0,0,2.704e4,1.254e4,19.592,0.104,NaN,1999.161,NaN,0.042,2.833e6,1287.587,1.977,0.623,0.723,0.288,0.215,0.12,NaN,NaN,NaN,NaN,NaN,NaN,NaN,NaN,0.002,165,213.825,80,0,6.855,14.983,1012.943,340.379,0.01,0.028
1.49,2.753,14.128,37.376,14.346,37.953,0.485,0,0.485,0,2.491,6.59,22.175,120.893,9.788,27.423,0,0,0,2.702e4,1.252e4,19.583,0.104,NaN,1998.635,NaN,0.044,2.903e6,1287.832,2.093,0.623,0.729,0.288,0.215,0.12,NaN,NaN,NaN,NaN,NaN,NaN,NaN,NaN,0.002,165,213.825,80,0,6.925,14.982,1012.927,340.378,0.01,0.028
1.5,2.897,14.502,37.446,14.726,38.023,0.511,0,0.511,0,2.557,6.603,22.175,120.893,9.788,27.013,0,0,0,2.699e4,1.249e4,19.574,0.104,NaN,1998.108,NaN,0.045,2.974e6,1288.735,2.213,0.623,0.735,0.288,0.215,0.12,NaN,NaN,NaN,NaN,NaN,NaN,NaN,NaN,0.002,165,213.825,80,0,6.994,14.981,1012.91,340.377,0.01,0.028
1.51,3.043,14.877,37.526,15.107,38.105,0.537,0,0.537,0,2.623,6.617,22.175,120.893,9.788,26.066,0,0,0,2.697e4,1.247e4,19.564,0.104,NaN,1997.579,NaN,0.045,3.036e6,1289.948,2.345,0.623,0.747,0.288,0.215,0.12,NaN,NaN,NaN,NaN,NaN,NaN,NaN,NaN,0.002,165,213.825,80,0,6.908,14.98,1012.893,340.377,0.01,0.028
1.52,3.194,15.253,37.541,15.488,38.12,0.563,0,0.563,0,2.689,6.619,22.175,120.893,9.788,25.156,0,0,0,2.695e4,1.244e4,19.555,0.104,NaN,1997.049,NaN,0.046,3.098e6,1289.376,2.479,0.623,0.758,0.288,0.215,0.12,NaN,NaN,NaN,NaN,NaN,NaN,NaN,NaN,0.002,165,213.825,80,0,6.821,14.979,1012.875,340.376,0.01,0.028
1.53,3.349,15.629,37.679,15.87,38.26,0.59,0,0.59,0,2.756,6.644,22.175,120.893,9.788,24.281,0,0,0,2.692e4,1.242e4,19.546,0.104,NaN,1996.518,NaN,0.047,3.162e6,1292.164,2.616,0.623,0.768,0.288,0.215,0.12,NaN,NaN,NaN,NaN,NaN,NaN,NaN,NaN,0.002,165,213.825,80,0,6.734,14.978,1012.857,340.376,0.01,0.029
1.54,3.507,16.007,37.748,16.253,38.33,0.618,0,0.618,0,2.822,6.656,22.175,120.893,9.788,23.44,0,0,0,2.69e4,1.24e4,19.536,0.104,NaN,1995.985,NaN,0.048,3.227e6,1293.051,2.755,0.623,0.777,0.288,0.215,0.12,NaN,NaN,NaN,NaN,NaN,NaN,NaN,NaN,0.002,165,213.825,80,0,6.648,14.977,1012.839,340.375,0.01,0.029
1.55,3.669,16.385,37.851,16.638,38.435,0.647,0,0.647,0,2.889,6.674,22.175,120.893,9.788,22.631,0,0,0,2.687e4,1.237e4,19.527,0.104,NaN,1995.451,NaN,0.049,3.292e6,1294.89,2.896,0.623,0.784,0.288,0.215,0.12,NaN,NaN,NaN,NaN,NaN,NaN,NaN,NaN,0.002,165,213.825,80,0,6.561,14.976,1012.82,340.374,0.01,0.029
1.56,3.834,16.764,37.974,17.023,38.56,0.676,0,0.676,0,2.956,6.696,22.175,120.893,9.788,21.851,0,0,0,2.685e4,1.235e4,19.517,0.104,NaN,1994.914,NaN,0.05,3.358e6,1297.251,3.038,0.623,0.791,0.288,0.215,0.12,NaN,NaN,NaN,NaN,NaN,NaN,NaN,NaN,0.002,165,213.825,80,0,6.474,14.975,1012.8,340.374,0.01,0.029
1.57,4.004,17.144,37.993,17.409,38.579,0.706,0,0.706,0,3.023,6.699,22.175,120.893,9.788,21.101,0,0,0,2.683e4,1.233e4,19.508,0.104,NaN,1994.377,NaN,0.051,3.425e6,1296.778,3.182,0.623,0.796,0.288,0.215,0.12,NaN,NaN,NaN,NaN,NaN,NaN,NaN,NaN,0.002,165,213.825,80,0,6.387,14.974,1012.78,340.373,0.01,0.029
1.585,4.265,17.708,37.649,17.989,38.799,0.752,1.899e-8,0.752,1.446e-6,3.163,9.373,22.175,120.893,9.788,19.908,0,-0.04,3.475e-7,2.679e4,1.229e4,19.493,0.104,1973.602,1993.568,-0.121,0.053,3.524e6,1298.654,3.398,0.624,0.803,0.288,0.215,0.12,6.303,-0.763,-3.336e-5,0,0,0,0,-5.625e-6,0.002,165,213.825,80,1.257e-7,6.256,14.972,1012.75,340.372,0.015,0.029
1.608,4.673,18.559,37.85,18.863,38.999,0.826,1.213e-7,0.826,8.415e-6,3.375,9.396,22.175,120.893,9.788,18.502,0,-0.062,-1.457e-5,2.674e4,1.224e4,19.472,0.104,1985.239,1992.348,-0.043,0.055,3.679e6,1301.804,3.728,0.624,0.809,0.288,0.215,0.12,5.698,-0.246,-3.383e-4,0,0,0,0,-1.236e-5,0.003,165,213.825,79.998,1.293e-7,6.148,14.97,1012.702,340.37,0.023,0.03
1.641,5.321,19.845,38.174,20.186,39.338,0.945,4.518e-7,0.945,2.739e-5,3.694,9.498,22.175,120.893,9.788,17.34,0,-0.065,2.779e-5,2.666e4,1.216e4,19.439,0.104,1995.569,1990.501,0.031,0.059,3.923e6,1307.398,4.248,0.624,0.811,0.288,0.215,0.12,5.214,0.16,3.081e-4,0,0,0,0,-1.206e-5,0.003,165,213.825,79.996,1.526e-6,6.249,14.965,1012.626,340.368,0.034,0.03
1.691,6.362,21.77,38.602,22.166,39.755,1.142,1.368e-6,1.142,6.867e-5,4.171,9.506,22.175,120.893,9.788,14.434,0,0.012,5.795e-5,2.654e4,1.204e4,19.39,0.104,2024.514,1987.731,0.223,0.064,4.28e6,1313.533,4.989,0.624,0.799,0.288,0.215,0.121,4.072,0.908,5.984e-5,0,0,0,0,3.278e-7,0.003,165,213.825,79.994,5.02e-6,5.857,14.959,1012.504,340.364,0.05,0.03
1.741,7.499,23.724,39.17,24.175,40.337,1.362,2.85e-6,1.362,1.199e-4,4.65,9.632,22.175,120.893,9.788,12.953,0,0.194,7.927e-5,2.642e4,1.192e4,19.34,0.104,2041.249,1984.915,0.341,0.07,4.656e6,1323.765,5.792,0.624,0.784,0.288,0.216,0.121,3.529,1.204,3.23e-4,0,0,0,0,7.66e-5,0.003,165,213.825,79.999,1.293e-5,5.874,14.951,1012.37,340.359,0.05,0.03
1.791,8.735,25.708,39.766,26.216,40.972,1.607,4.96e-6,1.607,1.768e-4,5.139,9.867,22.175,120.893,9.788,12.659,0,0.441,8.817e-5,2.63e4,1.18e4,19.29,0.103,2044.785,1982.048,0.38,0.076,5.044e6,1335.184,6.768,0.624,0.781,0.288,0.216,0.121,3.424,1.302,-1.695e-4,0,0,0,0,3.367e-4,0.004,165,213.825,80.015,2.634e-5,6.34,14.943,1012.226,340.354,0.05,0.03
1.841,10.071,27.725,40.447,28.292,41.648,1.877,7.765e-6,1.877,2.371e-4,5.637,9.93,22.175,120.893,9.788,11.019,0,0.762,5.228e-5,2.617e4,1.167e4,19.238,0.103,2065.449,1979.127,0.523,0.081,5.434e6,1347.677,7.629,0.624,0.758,0.288,0.216,0.121,2.861,1.496,-2.751e-4,0,0,0,0,8.665e-4,0.004,165,213.825,80.044,4.364e-5,6.152,14.935,1012.069,340.349,0.05,0.031
1.891,11.508,29.782,41.255,30.408,42.458,2.171,1.133e-5,2.171,2.991e-4,6.139,10.032,22.175,120.893,9.788,9.847,0,1.174,1.721e-4,2.605e4,1.155e4,19.185,0.103,2081.537,1976.143,0.639,0.088,5.836e6,1363.475,8.588,0.624,0.74,0.288,0.216,0.121,2.479,1.582,3.101e-5,0,0,0,0,0.002,0.004,165,213.825,80.093,7.332e-5,6.107,14.925,1011.9,340.344,0.05,0.031
1.941,13.049,31.873,41.916,32.558,43.124,2.49,1.573e-5,2.49,3.619e-4,6.645,10.136,22.175,120.893,9.788,9.145,0,1.666,2.521e-4,2.593e4,1.143e4,19.132,0.103,2091.766,1973.105,0.719,0.094,6.245e6,1375.364,9.688,0.625,0.729,0.288,0.216,0.121,2.259,1.622,1.444e-4,0,0,0,0,0.003,0.004,165,213.825,80.163,1.109e-4,6.26,14.915,1011.72,340.337,0.05,0.031
1.991,14.696,34.001,42.671,34.745,43.878,2.836,2.104e-5,2.836,4.251e-4,7.156,10.22,22.175,120.893,9.788,8.464,0,2.239,-4.306e-5,2.58e4,1.13e4,19.077,0.103,2102.134,1970.006,0.801,0.1,6.662e6,1389.417,10.86,0.625,0.718,0.288,0.216,0.121,2.052,1.638,2.164e-4,0,0,0,0,0.005,0.005,165,213.825,80.26,1.341e-4,6.399,14.904,1011.526,340.331,0.05,0.031
2.041,16.451,36.179,43.685,36.983,44.881,3.206,2.732e-5,3.206,4.883e-4,7.673,10.293,22.175,120.893,9.788,7.731,0,2.894,-9.521e-5,2.567e4,1.117e4,19.021,0.102,2113.801,1966.831,0.891,0.106,7.09e6,1409.711,12.099,0.625,0.706,0.288,0.216,0.121,1.836,1.627,-4.356e-4,0,0,0,0,0.007,0.005,165,213.825,80.388,1.415e-4,6.485,14.893,1011.321,340.324,0.05,0.031
2.091,18.315,38.402,44.593,39.266,45.766,3.603,3.464e-5,3.603,5.509e-4,8.19,10.292,22.175,120.893,9.788,6.999,4.156e-7,3.624,9.627e-5,2.554e4,1.104e4,18.964,0.102,2126.018,1963.584,0.984,0.113,7.528e6,1426.753,13.416,0.625,0.695,0.287,0.216,0.122,1.627,1.591,4.853e-4,0,0,0,0,0.01,0.005,165,213.825,80.551,1.631e-4,6.547,14.881,1011.102,340.317,0.05,0.032
2.141,20.292,40.657,45.24,41.579,46.371,4.025,4.306e-5,4.025,6.129e-4,8.704,10.182,22.175,120.893,9.788,6.253,0,4.422,-1.982e-4,2.541e4,1.091e4,18.906,0.102,2139.08,1960.282,1.084,0.12,7.972e6,1436.554,14.801,0.626,0.683,0.287,0.216,0.122,1.422,1.527,1.027e-4,0,0,0,0,0.014,0.006,165,213.825,80.752,1.623e-4,6.577,14.868,1010.87,340.309,0.05,0.032
2.191,22.382,42.949,45.988,43.926,47.061,4.473,5.263e-5,4.473,6.741e-4,9.211,9.991,22.175,120.893,9.788,5.391,3.871e-7,5.269,-2.505e-4,2.528e4,1.078e4,18.847,0.102,2154.989,1956.918,1.2,0.126,8.426e6,1448.404,16.231,0.626,0.671,0.287,0.216,0.122,1.194,1.416,1.246e-4,0,0,0,0,0.017,0.006,165,213.825,80.994,1.453e-4,6.497,14.855,1010.625,340.301,0.05,0.032
2.241,24.587,45.281,46.777,46.31,47.791,4.946,6.339e-5,4.946,7.343e-4,9.707,9.792,22.175,120.893,9.788,4.767,3.804e-7,6.144,-2.472e-4,2.515e4,1.065e4,18.787,0.102,2167.104,1953.489,1.295,0.133,8.885e6,1461.178,17.828,0.626,0.662,0.287,0.217,0.122,1.035,1.32,-3.573e-4,0,0,0,0,0.021,0.006,165,213.825,81.279,1.212e-4,6.578,14.84,1010.366,340.292,0.05,0.032
2.291,26.91,47.641,47.344,48.719,48.3,5.444,7.537e-5,5.444,7.933e-4,10.192,9.56,22.175,120.893,9.788,4.406,4.97e-7,7.063,-1.317e-4,2.501e4,1.051e4,18.726,0.101,2174.412,1950.006,1.36,0.14,9.347e6,1468.288,19.602,0.627,0.658,0.287,0.217,0.123,0.946,1.262,3.507e-4,0,0,0,0,0.025,0.007,165,213.825,81.609,1.553e-4,6.873,14.825,1010.094,340.283,0.05,0.032
2.341,29.352,50.009,47.518,51.132,48.378,5.965,8.864e-5,5.965,8.514e-4,10.658,9.079,22.175,120.893,9.788,3.643,-5.128e-7,8.008,-7.734e-4,2.488e4,1.038e4,18.664,0.101,2190.348,1946.495,1.478,0.147,9.814e6,1464.702,21.327,0.627,0.649,0.287,0.217,0.123,0.763,1.099,-1.89e-4,0,0,0,0,0.029,0.007,165,213.825,81.986,1.981e-4,6.836,14.809,1009.808,340.273,0.05,0.033
2.391,31.911,52.385,47.675,53.547,48.428,6.509,1.032e-4,6.509,9.087e-4,11.098,8.508,22.175,120.893,9.788,2.854,1.272e-6,8.879,-8.732e-4,2.475e4,1.025e4,18.602,0.101,2207.734,1942.956,1.605,0.154,1.028e7,1460.577,23.143,0.627,0.641,0.287,0.217,0.123,0.582,0.902,-3.51e-4,0,0,0,0,0.033,0.007,165,213.825,82.409,2.083e-4,6.756,14.793,1009.507,340.263,0.05,0.033
2.441,34.59,54.771,47.901,55.966,48.524,7.074,1.192e-4,7.074,9.655e-4,11.504,7.749,22.175,120.893,9.788,1.705,-2.604e-6,9.598,-0.002,2.461e4,1.011e4,18.539,0.101,2234.807,1939.385,1.79,0.162,1.076e7,1457.734,25.014,0.628,0.633,0.287,0.217,0.123,0.334,0.564,-1.967e-4,0,0,0,0,0.035,0.008,165,213.825,82.871,2.011e-4,6.304,14.775,1009.193,340.253,0.05,0.033
2.491,37.388,57.148,47.7,58.368,48.195,7.659,1.366e-4,7.659,0.001,11.869,6.892,22.175,120.893,9.788,0.624,-1.911e-6,9.993,-0.005,2.448e4,9982.7,18.477,0.101,2262.472,1935.809,1.98,0.169,1.124e7,1444.705,27.104,0.628,0.629,0.287,0.217,0.124,0.118,0.198,2.112e-4,0,0,0,0,0.035,0.008,165,213.825,83.362,2.183e-4,5.847,14.757,1008.865,340.242,0.05,0.033
2.541,40.305,59.527,47.723,60.764,48.139,8.261,1.554e-4,8.261,0.001,12.197,6.317,22.175,120.893,9.788,0.397,1.085e-6,10.136,-0.009,2.435e4,9851.919,18.414,0.1,2268.661,1932.21,2.039,0.176,1.17e7,1438.362,29.37,0.629,0.629,0.287,0.218,0.124,0.074,0.118,-4.42e-4,0,0,0,0,0.033,0.008,165,213.825,83.866,2.531e-4,6.216,14.738,1008.523,340.23,0.05,0.033
2.591,43.341,61.902,47.627,63.15,47.956,8.878,1.756e-4,8.878,0.001,12.495,5.607,22.175,120.893,9.788,0.103,7.459e-7,-10.2,-0.036,2.422e4,9721.977,18.351,0.1,2276.831,1928.595,2.111,0.183,1.216e7,1429.136,31.758,0.629,0.629,0.287,0.218,0.124,0.019,0.071,-3.028e-5,0,0,0,0,-0.031,0.009,165,213.825,84.375,3.179e-4,6.286,14.718,1008.167,340.218,0.05,0.033
2.641,46.495,64.294,47.988,65.548,48.234,9.509,1.973e-4,9.509,0.001,12.757,4.871,22.175,120.893,9.788,0.696,-1.755e-6,-9.941,-0.005,2.409e4,9591.843,18.287,0.1,2260.951,1924.936,2.036,0.19,1.263e7,1431.244,34.336,0.63,0.63,0.287,0.218,0.125,0.132,0.296,-2.23e-4,0,0,0,0,-0.027,0.009,165,213.825,84.88,4.554e-4,6.206,14.698,1007.797,340.206,0.05,0.034
2.691,49.77,66.699,48.23,67.951,48.408,10.153,2.204e-4,10.153,0.001,12.983,4.155,22.175,120.893,9.788,1.149,2.211e-6,-9.375,-0.004,2.396e4,9461.748,18.222,0.1,2249.362,1921.238,1.989,0.197,1.31e7,1430.823,37.058,0.63,0.632,0.287,0.218,0.125,0.221,0.462,-2.698e-4,0,0,0,0,-0.022,0.009,165,213.825,85.364,7.835e-4,6.224,14.676,1007.413,340.193,0.05,0.034
2.741,53.166,69.124,48.612,70.368,48.729,10.807,2.451e-4,10.807,0.001,13.172,3.385,22.175,120.893,9.788,1.7,1.106e-6,-8.496,-0.002,2.383e4,9331.363,18.157,0.1,2235.757,1917.492,1.929,0.204,1.357e7,1433.995,40.013,0.631,0.636,0.287,0.218,0.125,0.334,0.661,2.941e-4,0,0,0,0,-0.017,0.01,165,213.825,85.812,0.001,6.041,14.654,1007.015,340.179,0.05,0.034
2.791,56.683,71.576,49.161,72.805,49.23,11.47,2.715e-4,11.47,0.001,13.321,2.592,22.175,120.893,9.788,2.289,-1.51e-6,-7.19,-0.002,2.37e4,9200.305,18.091,0.099,2221.825,1913.685,1.868,0.212,1.406e7,1441.415,43.23,0.631,0.64,0.287,0.219,0.126,0.459,0.868,-9.869e-5,0,0,0,0,-0.011,0.01,165,213.825,86.205,0.002,5.691,14.632,1006.602,340.166,0.05,0.034
2.841,60.324,74.052,49.636,75.261,49.675,12.139,2.996e-4,12.139,0.001,13.435,1.964,22.175,120.893,9.788,2.629,-1.186e-6,-5.472,-0.001,2.357e4,9068.707,18.023,0.099,2214.114,1909.819,1.844,0.219,1.454e7,1447.346,46.507,0.632,0.644,0.286,0.219,0.126,0.534,0.99,2.922e-4,0,0,0,0,-0.006,0.01,165,213.825,86.523,0.003,5.511,14.608,1006.175,340.151,0.05,0.034
2.891,64.088,76.53,49.668,77.716,49.693,12.813,3.296e-4,12.813,0.001,13.521,1.555,22.175,120.893,9.788,2.706,3.596e-7,-3.483,-0.002,2.344e4,8937.495,17.955,0.099,2212.524,1905.922,1.858,0.226,1.502e7,1443.113,49.725,0.632,0.645,0.286,0.219,0.127,0.551,1.027,3.228e-4,0,0,0,0,-0.002,0.011,165,213.825,86.748,0.004,5.532,14.583,1005.734,340.136,0.05,0.035
2.941,67.977,79.002,49.532,80.163,49.555,13.491,3.618e-4,13.491,0.002,13.596,1.526,22.175,120.893,9.787,2.406,0,-1.405,-0.001,2.331e4,8806.998,17.887,0.099,2219.602,1902.002,1.925,0.233,1.549e7,1435.232,52.73,0.633,0.643,0.286,0.219,0.127,0.485,0.934,-1.336e-4,0,0,0,0,-3.598e-4,0.011,165,213.825,86.87,0.006,5.938,14.558,1005.277,340.121,0.05,0.035
2.991,71.989,81.489,49.833,82.628,49.856,14.172,3.964e-4,14.172,0.002,13.672,1.509,22.175,120.893,9.787,2.276,0,0.62,-0.001,2.318e4,8676.274,17.818,0.099,2222.815,1898.031,1.968,0.241,1.596e7,1437.734,56.017,0.633,0.643,0.286,0.22,0.128,0.457,0.899,-3.095e-4,0,0,0,0,6.584e-5,0.011,165,213.825,86.889,0.007,5.988,14.532,1004.807,340.105,0.05,0.035
3.041,76.126,84.002,50.362,85.121,50.394,14.858,4.337e-4,14.858,0.002,13.755,1.81,22.175,120.893,9.787,1.925,0,2.656,-0.003,2.305e4,8544.831,17.748,0.098,2231.354,1893.993,2.045,0.248,1.645e7,1445.651,59.276,0.634,0.641,0.286,0.22,0.128,0.382,0.779,4.36e-4,0,0,0,0,0.001,0.012,165,213.825,86.806,0.009,6.23,14.505,1004.322,340.089,0.05,0.035
