# Time (s),Altitude (m),Vertical velocity (m/s),Vertical acceleration (m/s²),Total velocity (m/s),Total acceleration (m/s²),Position East of launch (m),Position North of launch (m),Lateral distance (m),Lateral direction (°),Lateral velocity (m/s),Lateral acceleration (m/s²),Latitude (°),Longitude (°),Gravitational acceleration (m/s²),Angle of attack (°),Roll rate (°/s),Pitch rate (°/s),Yaw rate (°/s),Mass (g),Motor mass (g),Longitudinal moment of inertia (kg·m²),Rotational moment of inertia (kg·m²),CP location (mm),CG location (mm),Stability margin calibers (​),Mach number (​),Reynolds number (​),Thrust (N),Drag force (N),Drag coefficient (​),Axial drag coefficient (​),Friction drag coefficient (​),Pressure drag coefficient (​),Base drag coefficient (​),Normal force coefficient (​),Pitch moment coefficient (​),Yaw moment coefficient (​),Side force coefficient (​),Roll moment coefficient (​),Roll forcing coefficient (​),Roll damping coefficient (​),Pitch damping coefficient (​),Coriolis acceleration (m/s²),Reference length (mm),Reference area (cm²),Vertical orientation (zenith) (°),Lateral orientation (azimuth) (°),Wind velocity (m/s),Air temperature (°C),Air pressure (mbar),Speed of sound (m/s),Simulation time step (s),Computation time (s)
0.01,-4.757e-4,-0.095,-9.511,0.096,9.563,-5e-5,0,5e-5,180,0.01,1,22.175,120.893,9.788,96.809,0,0,0,2.8e4,1.35e4,19.963,0.106,NaN,2019.994,NaN,0.006,4.171e5,4.784,-1.727e-4,0.743,-0.003,0.408,0.215,0.12,NaN,NaN,NaN,NaN,NaN,NaN,NaN,NaN,1.293e-5,165,213.825,84,0,2.118,15,1013.25,340.389,0.01,8.814e-4
0.02,-4.761e-4,-0.095,-9.522,0.096,9.575,-5.004e-5,0,5.004e-5,180,0.01,1.001,22.175,120.893,9.788,96.838,0,0,0,2.8e4,1.35e4,19.963,0.106,NaN,2019.992,NaN,0.006,4.129e5,4.461,-1.716e-4,0.744,-0.003,0.409,0.215,0.12,NaN,NaN,NaN,NaN,NaN,NaN,NaN,NaN,1.294e-5,165,213.825,84,0,2.096,15,1013.25,340.389,0.01,0.001
0.03,-4.763e-4,-0.095,-9.526,0.096,9.579,-5.006e-5,0,5.006e-5,180,0.01,1.001,22.175,120.893,9.788,96.866,0,0,0,2.8e4,1.35e4,19.963,0.106,NaN,2019.991,NaN,0.006,4.087e5,4.343,-1.703e-4,0.745,-0.003,0.41,0.215,0.12,NaN,NaN,NaN,NaN,NaN,NaN,NaN,NaN,1.295e-5,165,213.825,84,0,2.075,15,1013.25,340.389,0.01,0.001
0.04,-4.765e-4,-0.095,-9.53,0.096,9.582,-5.008e-5,0,5.008e-5,180,0.01,1.002,22.175,120.893,9.788,96.894,0,0,0,2.8e4,1.35e4,19.963,0.106,NaN,2019.989,NaN,0.006,4.045e5,4.249,-1.691e-4,0.746,-0.003,0.411,0.215,0.12,NaN,NaN,NaN,NaN,NaN,NaN,NaN,NaN,1.295e-5,165,213.825,84,0,2.053,15,1013.25,340.389,0.01,0.002
0.05,-4.761e-4,-0.095,-9.523,0.096,9.575,-5.005e-5,0,5.005e-5,180,0.01,1.001,22.175,120.893,9.788,96.92,0,0,0,2.8e4,1.35e4,19.963,0.106,NaN,2019.988,NaN,0.006,4.003e5,4.443,-1.676e-4,0.747,-0.003,0.411,0.215,0.12,NaN,NaN,NaN,NaN,NaN,NaN,NaN,NaN,1.294e-5,165,213.825,84,0,2.032,15,1013.25,340.389,0.01,0.002
0.06,-4.757e-4,-0.095,-9.514,0.096,9.567,-5e-5,0,5e-5,180,0.01,1,22.175,120.893,9.788,96.896,0,0,0,2.8e4,1.35e4,19.963,0.106,NaN,2019.986,NaN,0.006,4.036e5,4.681,-1.685e-4,0.746,-0.003,0.411,0.215,0.12,NaN,NaN,NaN,NaN,NaN,NaN,NaN,NaN,1.293e-5,165,213.825,84,0,2.049,15,1013.25,340.389,0.01,0.002
0.07,-4.762e-4,-0.095,-9.523,0.096,9.576,-5.005e-5,0,5.005e-5,180,0.01,1.001,22.175,120.893,9.788,96.877,0,0,0,2.8e4,1.35e4,19.963,0.106,NaN,2019.984,NaN,0.006,4.069e5,4.438,-1.697e-4,0.745,-0.003,0.41,0.215,0.12,NaN,NaN,NaN,NaN,NaN,NaN,NaN,NaN,1.294e-5,165,213.825,84,0,2.066,15,1013.25,340.389,0.01,0.002
0.08,-4.761e-4,-0.095,-9.522,0.096,9.574,-5.004e-5,0,5.004e-5,180,0.01,1.001,22.175,120.893,9.788,96.855,0,0,0,2.8e4,1.35e4,19.963,0.106,NaN,2019.982,NaN,0.006,4.102e5,4.479,-1.707e-4,0.744,-0.003,0.409,0.215,0.12,NaN,NaN,NaN,NaN,NaN,NaN,NaN,NaN,1.294e-5,165,213.825,84,0,2.082,15,1013.25,340.389,0.01,0.002
0.09,-4.759e-4,-0.095,-9.517,0.096,9.57,-5.002e-5,0,5.002e-5,180,0.01,1,22.175,120.893,9.788,96.833,0,0,0,2.8e4,1.35e4,19.963,0.106,NaN,2019.981,NaN,0.006,4.135e5,4.603,-1.717e-4,0.744,-0.003,0.409,0.215,0.12,NaN,NaN,NaN,NaN,NaN,NaN,NaN,NaN,1.294e-5,165,213.825,84,0,2.099,15,1013.25,340.389,0.01,0.002
0.1,-4.764e-4,-0.095,-9.527,0.096,9.58,-5.007e-5,0,5.007e-5,180,0.01,1.001,22.175,120.893,9.788,96.815,0,0,0,2.8e4,1.35e4,19.963,0.106,NaN,2019.979,NaN,0.006,4.168e5,4.315,-1.729e-4,0.743,-0.003,0.408,0.215,0.12,NaN,NaN,NaN,NaN,NaN,NaN,NaN,NaN,1.295e-5,165,213.825,84,0,2.116,15,1013.25,340.389,0.01,0.003
0.11,-4.762e-4,-0.095,-9.523,0.096,9.576,-5.005e-5,0,5.005e-5,180,0.01,1.001,22.175,120.893,9.788,96.824,0,0,0,2.8e4,1.35e4,19.963,0.106,NaN,2019.977,NaN,0.006,4.152e5,4.431,-1.723e-4,0.743,-0.003,0.408,0.215,0.12,NaN,NaN,NaN,NaN,NaN,NaN,NaN,NaN,1.294e-5,165,213.825,84,0,2.108,15,1013.25,340.389,0.01,0.003
0.12,-4.762e-4,-0.095,-9.523,0.096,9.576,-5.005e-5,0,5.005e-5,180,0.01,1.001,22.175,120.893,9.788,96.834,0,0,0,2.8e4,1.35e4,19.962,0.106,NaN,2019.976,NaN,0.006,4.136e5,4.436,-1.718e-4,0.744,-0.003,0.409,0.215,0.12,NaN,NaN,NaN,NaN,NaN,NaN,NaN,NaN,1.294e-5,165,213.825,84,0,2.1,15,1013.25,340.389,0.01,0.003
0.13,-4.758e-4,-0.095,-9.517,0.096,9.569,-5.001e-5,0,5.001e-5,180,0.01,1,22.175,120.893,9.788,96.842,0,0,0,2.8e4,1.35e4,19.962,0.106,NaN,2019.974,NaN,0.006,4.12e5,4.62,-1.712e-4,0.744,-0.003,0.409,0.215,0.12,NaN,NaN,NaN,NaN,NaN,NaN,NaN,NaN,1.294e-5,165,213.825,84,0,2.092,15,1013.25,340.389,0.01,0.003
0.14,-4.762e-4,-0.095,-9.524,0.096,9.577,-5.005e-5,0,5.005e-5,180,0.01,1.001,22.175,120.893,9.788,96.854,0,0,0,2.8e4,1.35e4,19.962,0.106,NaN,2019.972,NaN,0.006,4.104e5,4.404,-1.708e-4,0.744,-0.003,0.409,0.215,0.12,NaN,NaN,NaN,NaN,NaN,NaN,NaN,NaN,1.295e-5,165,213.825,84,0,2.084,15,1013.25,340.389,0.01,0.003
0.15,-4.761e-4,-0.095,-9.523,0.096,9.575,-5.004e-5,0,5.004e-5,180,0.01,1.001,22.175,120.893,9.788,96.864,0,0,0,2.8e4,1.35e4,19.962,0.106,NaN,2019.97,NaN,0.006,4.089e5,4.444,-1.703e-4,0.745,-0.003,0.41,0.215,0.12,NaN,NaN,NaN,NaN,NaN,NaN,NaN,NaN,1.294e-5,165,213.825,84,0,2.075,15,1013.25,340.389,0.01,0.004
0.16,-4.758e-4,-0.095,-9.516,0.096,9.568,-5.001e-5,0,5.001e-5,180,0.01,1,22.175,120.893,9.788,96.858,0,0,0,2.8e4,1.35e4,19.962,0.106,NaN,2019.969,NaN,0.006,4.096e5,4.651,-1.704e-4,0.744,-0.003,0.409,0.215,0.12,NaN,NaN,NaN,NaN,NaN,NaN,NaN,NaN,1.293e-5,165,213.825,84,0,2.079,15,1013.25,340.389,0.01,0.004
0.17,-4.765e-4,-0.095,-9.531,0.096,9.583,-5.009e-5,0,5.009e-5,180,0.01,1.002,22.175,120.893,9.788,96.857,0,0,0,2.8e4,1.35e4,19.962,0.106,NaN,2019.967,NaN,0.006,4.103e5,4.218,-1.709e-4,0.744,-0.003,0.409,0.215,0.12,NaN,NaN,NaN,NaN,NaN,NaN,NaN,NaN,1.295e-5,165,213.825,84,0,2.083,15,1013.25,340.389,0.01,0.004
0.18,-4.765e-4,-0.095,-9.531,0.096,9.583,-5.009e-5,0,5.009e-5,180,0.01,1.002,22.175,120.893,9.788,96.853,0,0,0,2.8e4,1.35e4,19.962,0.106,NaN,2019.965,NaN,0.006,4.11e5,4.225,-1.711e-4,0.744,-0.003,0.409,0.215,0.12,NaN,NaN,NaN,NaN,NaN,NaN,NaN,NaN,1.295e-5,165,213.825,84,0,2.086,15,1013.25,340.389,0.01,0.004
0.19,-4.764e-4,-0.095,-9.527,0.096,9.58,-5.007e-5,0,5.007e-5,180,0.01,1.001,22.175,120.893,9.788,96.847,0,0,0,2.8e4,1.35e4,19.962,0.106,NaN,2019.964,NaN,0.006,4.117e5,4.321,-1.713e-4,0.744,-0.003,0.409,0.215,0.12,NaN,NaN,NaN,NaN,NaN,NaN,NaN,NaN,1.295e-5,165,213.825,84,0,2.09,15,1013.25,340.389,0.01,0.004
0.2,-4.766e-4,-0.095,-9.532,0.096,9.585,-5.01e-5,0,5.01e-5,180,0.01,1.002,22.175,120.893,9.788,96.844,0,0,0,2.8e4,1.35e4,19.962,0.106,NaN,2019.962,NaN,0.006,4.124e5,4.174,-1.716e-4,0.744,-0.003,0.409,0.215,0.12,NaN,NaN,NaN,NaN,NaN,NaN,NaN,NaN,1.296e-5,165,213.825,84,0,2.094,15,1013.25,340.389,0.01,0.004
0.21,-4.763e-4,-0.095,-9.525,0.096,9.578,-5.006e-5,0,5.006e-5,180,0.01,1.001,22.175,120.893,9.788,96.855,0,0,0,2.8e4,1.35e4,19.962,0.106,NaN,2019.961,NaN,0.006,4.104e5,4.381,-1.708e-4,0.744,-0.003,0.409,0.215,0.12,NaN,NaN,NaN,NaN,NaN,NaN,NaN,NaN,1.295e-5,165,213.825,84,0,2.083,15,1013.25,340.389,0.01,0.005
0.22,-4.758e-4,-0.095,-9.515,0.096,9.568,-5.001e-5,0,5.001e-5,180,0.01,1,22.175,120.893,9.788,96.866,0,0,0,2.8e4,1.35e4,19.962,0.106,NaN,2019.959,NaN,0.006,4.083e5,4.657,-1.7e-4,0.745,-0.003,0.41,0.215,0.12,NaN,NaN,NaN,NaN,NaN,NaN,NaN,NaN,1.293e-5,165,213.825,84,0,2.073,15,1013.25,340.389,0.01,0.005
0.23,-4.762e-4,-0.095,-9.525,0.096,9.577,-5.005e-5,0,5.005e-5,180,0.01,1.001,22.175,120.893,9.788,96.881,0,0,0,2.8e4,1.35e4,19.962,0.106,NaN,2019.957,NaN,0.006,4.063e5,4.392,-1.695e-4,0.745,-0.003,0.41,0.215,0.12,NaN,NaN,NaN,NaN,NaN,NaN,NaN,NaN,1.295e-5,165,213.825,84,0,2.062,15,1013.25,340.389,0.01,0.005
0.24,-4.76e-4,-0.095,-9.52,0.096,9.573,-5.003e-5,0,5.003e-5,180,0.01,1.001,22.175,120.893,9.788,96.894,0,0,0,2.8e4,1.35e4,19.962,0.106,NaN,2019.955,NaN,0.006,4.042e5,4.513,-1.688e-4,0.746,-0.003,0.411,0.215,0.12,NaN,NaN,NaN,NaN,NaN,NaN,NaN,NaN,1.294e-5,165,213.825,84,0,2.052,15,1013.25,340.389,0.01,0.005
0.25,-4.759e-4,-0.095,-9.518,0.096,9.57,-5.002e-5,0,5.002e-5,180,0.01,1,22.175,120.893,9.788,96.906,0,0,0,2.8e4,1.35e4,19.962,0.106,NaN,2019.954,NaN,0.006,4.021e5,4.587,-1.681e-4,0.746,-0.003,0.411,0.215,0.12,NaN,NaN,NaN,NaN,NaN,NaN,NaN,NaN,1.294e-5,165,213.825,84,0,2.041,15,1013.25,340.389,0.01,0.005
0.26,-4.762e-4,-0.095,-9.523,0.096,9.576,-5.005e-5,0,5.005e-5,180,0.01,1.001,22.175,120.893,9.788,96.879,0,0,0,2.8e4,1.35e4,19.962,0.106,NaN,2019.952,NaN,0.006,4.065e5,4.429,-1.696e-4,0.745,-0.003,0.41,0.215,0.12,NaN,NaN,NaN,NaN,NaN,NaN,NaN,NaN,1.294e-5,165,213.825,84,0,2.064,15,1013.25,340.389,0.01,0.006
0.27,-4.76e-4,-0.095,-9.52,0.096,9.572,-5.003e-5,0,5.003e-5,180,0.01,1.001,22.175,120.893,9.788,96.85,0,0,0,2.8e4,1.35e4,19.962,0.106,NaN,2019.95,NaN,0.006,4.109e5,4.527,-1.709e-4,0.744,-0.003,0.409,0.215,0.12,NaN,NaN,NaN,NaN,NaN,NaN,NaN,NaN,1.294e-5,165,213.825,84,0,2.086,15,1013.25,340.389,0.01,0.006
0.28,-4.761e-4,-0.095,-9.521,0.096,9.574,-5.004e-5,0,5.004e-5,180,0.01,1.001,22.175,120.893,9.788,96.823,0,0,0,2.8e4,1.35e4,19.962,0.106,NaN,2019.949,NaN,0.006,4.153e5,4.488,-1.723e-4,0.743,-0.003,0.408,0.215,0.12,NaN,NaN,NaN,NaN,NaN,NaN,NaN,NaN,1.294e-5,165,213.825,84,0,2.109,15,1013.25,340.389,0.01,0.006
0.29,-4.758e-4,-0.095,-9.517,0.096,9.569,-5.001e-5,0,5.001e-5,180,0.01,1,22.175,120.893,9.788,96.794,0,0,0,2.8e4,1.35e4,19.962,0.106,NaN,2019.947,NaN,0.006,4.197e5,4.616,-1.737e-4,0.742,-0.003,0.407,0.215,0.12,NaN,NaN,NaN,NaN,NaN,NaN,NaN,NaN,1.294e-5,165,213.825,84,0,2.131,15,1013.25,340.389,0.01,0.006
0.3,-4.76e-4,-0.095,-9.519,0.096,9.572,-5.003e-5,0,5.003e-5,180,0.01,1.001,22.175,120.893,9.788,96.769,0,0,0,2.8e4,1.35e4,19.962,0.106,NaN,2019.945,NaN,0.006,4.241e5,4.548,-1.751e-4,0.741,-0.003,0.406,0.215,0.12,NaN,NaN,NaN,NaN,NaN,NaN,NaN,NaN,1.294e-5,165,213.825,84,0,2.153,15,1013.25,340.389,0.01,0.006
0.31,-4.757e-4,-0.095,-9.514,0.096,9.566,-5e-5,0,5e-5,180,0.01,1,22.175,120.893,9.788,96.782,0,0,0,2.8e4,1.35e4,19.962,0.106,NaN,2019.943,NaN,0.006,4.216e5,4.706,-1.742e-4,0.742,-0.003,0.407,0.215,0.12,NaN,NaN,NaN,NaN,NaN,NaN,NaN,NaN,1.293e-5,165,213.825,84,0,2.141,15,1013.25,340.389,0.01,0.006
0.32,-4.763e-4,-0.095,-9.527,0.096,9.579,-5.007e-5,0,5.007e-5,180,0.01,1.001,22.175,120.893,9.788,96.801,0,0,0,2.8e4,1.35e4,19.962,0.106,NaN,2019.942,NaN,0.006,4.191e5,4.332,-1.737e-4,0.742,-0.003,0.407,0.215,0.12,NaN,NaN,NaN,NaN,NaN,NaN,NaN,NaN,1.295e-5,165,213.825,84,0,2.128,15,1013.25,340.389,0.01,0.007
0.33,-4.761e-4,-0.095,-9.521,0.096,9.574,-5.004e-5,0,5.004e-5,180,0.01,1.001,22.175,120.893,9.788,96.815,0,0,0,2.8e4,1.35e4,19.962,0.106,NaN,2019.94,NaN,0.006,4.166e5,4.483,-1.727e-4,0.743,-0.003,0.408,0.215,0.12,NaN,NaN,NaN,NaN,NaN,NaN,NaN,NaN,1.294e-5,165,213.825,84,0,2.115,15,1013.25,340.389,0.01,0.007
0.34,-4.759e-4,-0.095,-9.518,0.096,9.571,-5.002e-5,0,5.002e-5,180,0.01,1,22.175,120.893,9.788,96.83,0,0,0,2.8e4,1.35e4,19.962,0.106,NaN,2019.938,NaN,0.006,4.141e5,4.57,-1.719e-4,0.744,-0.003,0.408,0.215,0.12,NaN,NaN,NaN,NaN,NaN,NaN,NaN,NaN,1.294e-5,165,213.825,84,0,2.102,15,1013.25,340.389,0.01,0.007
0.35,-4.762e-4,-0.095,-9.524,0.096,9.576,-5.005e-5,0,5.005e-5,180,0.01,1.001,22.175,120.893,9.788,96.847,0,0,0,2.8e4,1.35e4,19.962,0.106,NaN,2019.936,NaN,0.006,4.116e5,4.419,-1.712e-4,0.744,-0.003,0.409,0.215,0.12,NaN,NaN,NaN,NaN,NaN,NaN,NaN,NaN,1.294e-5,165,213.825,84,0,2.089,15,1013.25,340.389,0.01,0.007
0.36,-4.764e-4,-0.095,-9.527,0.096,9.58,-5.007e-5,0,5.007e-5,180,0.01,1.001,22.175,120.893,9.788,96.821,0,0,0,2.8e4,1.35e4,19.962,0.106,NaN,2019.935,NaN,0.006,4.159e5,4.317,-1.727e-4,0.743,-0.003,0.408,0.215,0.12,NaN,NaN,NaN,NaN,NaN,NaN,NaN,NaN,1.295e-5,165,213.825,84,0,2.112,15,1013.25,340.389,0.01,0.007
0.37,-4.76e-4,-0.095,-9.52,0.096,9.573,-5.003e-5,0,5.003e-5,180,0.01,1.001,22.175,120.893,9.788,96.792,0,0,0,2.8e4,1.35e4,19.962,0.106,NaN,2019.933,NaN,0.006,4.203e5,4.522,-1.739e-4,0.742,-0.003,0.407,0.215,0.12,NaN,NaN,NaN,NaN,NaN,NaN,NaN,NaN,1.294e-5,165,213.825,84,0,2.134,15,1013.25,340.389,0.01,0.007
0.38,-4.762e-4,-0.095,-9.523,0.096,9.576,-5.005e-5,0,5.005e-5,180,0.01,1.001,22.175,120.893,9.788,96.766,0,0,0,2.8e4,1.35e4,19.962,0.106,NaN,2019.931,NaN,0.006,4.247e5,4.433,-1.754e-4,0.741,-0.003,0.406,0.215,0.12,NaN,NaN,NaN,NaN,NaN,NaN,NaN,NaN,1.294e-5,165,213.825,84,0,2.156,15,1013.25,340.389,0.01,0.008
0.39,-4.757e-4,-0.095,-9.515,0.096,9.567,-5e-5,0,5e-5,180,0.01,1,22.175,120.893,9.788,96.738,0,0,0,2.8e4,1.35e4,19.962,0.106,NaN,2019.93,NaN,0.006,4.291e5,4.673,-1.767e-4,0.74,-0.003,0.405,0.215,0.12,NaN,NaN,NaN,NaN,NaN,NaN,NaN,NaN,1.293e-5,165,213.825,84,0,2.179,15,1013.25,340.389,0.01,0.008
0.4,-4.755e-4,-0.095,-9.51,0.096,9.562,-4.998e-5,0,4.998e-5,180,0.01,1,22.175,120.893,9.788,96.711,0,0,0,2.8e4,1.35e4,19.962,0.106,NaN,2019.928,NaN,0.006,4.335e5,4.812,-1.78e-4,0.739,-0.003,0.404,0.215,0.12,NaN,NaN,NaN,NaN,NaN,NaN,NaN,NaN,1.293e-5,165,213.825,84,0,2.201,15,1013.25,340.389,0.01,0.008
0.41,-4.759e-4,-0.095,-9.518,0.096,9.57,-5.002e-5,0,5.002e-5,180,0.01,1,22.175,120.893,9.788,96.723,0,0,0,2.8e4,1.35e4,19.962,0.106,NaN,2019.926,NaN,0.006,4.319e5,4.595,-1.776e-4,0.74,-0.003,0.405,0.215,0.12,NaN,NaN,NaN,NaN,NaN,NaN,NaN,NaN,1.294e-5,165,213.825,84,0,2.193,15,1013.25,340.389,0.01,0.008
0.42,-4.758e-4,-0.095,-9.516,0.096,9.568,-5.001e-5,0,5.001e-5,180,0.01,1,22.175,120.893,9.788,96.731,0,0,0,2.8e4,1.35e4,19.962,0.106,NaN,2019.924,NaN,0.006,4.303e5,4.638,-1.771e-4,0.74,-0.003,0.405,0.215,0.12,NaN,NaN,NaN,NaN,NaN,NaN,NaN,NaN,1.293e-5,165,213.825,84,0,2.185,15,1013.25,340.389,0.01,0.008
0.43,-4.755e-4,-0.095,-9.51,0.096,9.562,-4.998e-5,0,4.998e-5,180,0.01,1,22.175,120.893,9.788,96.739,0,0,0,2.8e4,1.35e4,19.962,0.106,NaN,2019.922,NaN,0.006,4.287e5,4.811,-1.764e-4,0.74,-0.003,0.405,0.215,0.12,NaN,NaN,NaN,NaN,NaN,NaN,NaN,NaN,1.293e-5,165,213.825,84,0,2.177,15,1013.25,340.389,0.01,0.009
0.44,-4.753e-4,-0.095,-9.506,0.096,9.558,-4.996e-5,0,4.996e-5,180,0.01,0.999,22.175,120.893,9.788,96.747,0,0,0,2.8e4,1.35e4,19.962,0.106,NaN,2019.921,NaN,0.006,4.271e5,4.919,-1.758e-4,0.741,-0.003,0.406,0.215,0.12,NaN,NaN,NaN,NaN,NaN,NaN,NaN,NaN,1.292e-5,165,213.825,84,0,2.169,15,1013.25,340.389,0.01,0.009
0.45,-4.759e-4,-0.095,-9.518,0.096,9.57,-5.002e-5,0,5.002e-5,180,0.01,1,22.175,120.893,9.788,96.76,0,0,0,2.8e4,1.35e4,19.961,0.106,NaN,2019.919,NaN,0.006,4.255e5,4.583,-1.756e-4,0.741,-0.003,0.406,0.215,0.12,NaN,NaN,NaN,NaN,NaN,NaN,NaN,NaN,1.294e-5,165,213.825,84,0,2.161,15,1013.25,340.389,0.01,0.009
0.46,-4.762e-4,-0.095,-9.523,0.096,9.576,-5.005e-5,0,5.005e-5,180,0.01,1.001,22.175,120.893,9.788,96.777,0,0,0,2.8e4,1.35e4,19.961,0.106,NaN,2019.917,NaN,0.006,4.23e5,4.429,-1.749e-4,0.742,-0.003,0.407,0.215,0.12,NaN,NaN,NaN,NaN,NaN,NaN,NaN,NaN,1.294e-5,165,213.825,84,0,2.148,15,1013.25,340.389,0.01,0.009
0.47,-4.761e-4,-0.095,-9.523,0.096,9.575,-5.004e-5,0,5.004e-5,180,0.01,1.001,22.175,120.893,9.788,96.792,0,0,0,2.8e4,1.35e4,19.961,0.106,NaN,2019.915,NaN,0.006,4.204e5,4.45,-1.74e-4,0.742,-0.003,0.407,0.215,0.12,NaN,NaN,NaN,NaN,NaN,NaN,NaN,NaN,1.294e-5,165,213.825,84,0,2.135,15,1013.25,340.389,0.01,0.009
0.48,-4.753e-4,-0.095,-9.507,0.096,9.559,-4.996e-5,0,4.996e-5,180,0.01,0.999,22.175,120.893,9.788,96.803,0,0,0,2.8e4,1.35e4,19.961,0.106,NaN,2019.914,NaN,0.006,4.179e5,4.905,-1.729e-4,0.743,-0.003,0.408,0.215,0.12,NaN,NaN,NaN,NaN,NaN,NaN,NaN,NaN,1.292e-5,165,213.825,84,0,2.122,15,1013.25,340.389,0.01,0.009
0.49,-4.756e-4,-0.095,-9.512,0.096,9.565,-4.999e-5,0,4.999e-5,180,0.01,1,22.175,120.893,9.788,96.82,0,0,0,2.8e4,1.35e4,19.961,0.106,NaN,2019.912,NaN,0.006,4.154e5,4.746,-1.722e-4,0.743,-0.003,0.408,0.215,0.12,NaN,NaN,NaN,NaN,NaN,NaN,NaN,NaN,1.293e-5,165,213.825,84,0,2.109,15,1013.25,340.389,0.01,0.01
0.5,-4.761e-4,-0.095,-9.522,0.096,9.574,-5.004e-5,0,5.004e-5,180,0.01,1.001,22.175,120.893,9.788,96.838,0,0,0,2.8e4,1.35e4,19.961,0.106,NaN,2019.91,NaN,0.006,4.128e5,4.47,-1.716e-4,0.744,-0.003,0.409,0.215,0.12,NaN,NaN,NaN,NaN,NaN,NaN,NaN,NaN,1.294e-5,165,213.825,84,0,2.096,15,1013.25,340.389,0.01,0.01
0.51,-4.758e-4,-0.095,-9.515,0.096,9.568,-5.001e-5,0,5.001e-5,180,0.01,1,22.175,120.893,9.788,96.819,0,0,0,2.8e4,1.35e4,19.961,0.106,NaN,2019.908,NaN,0.006,4.157e5,4.657,-1.723e-4,0.743,-0.003,0.408,0.215,0.12,NaN,NaN,NaN,NaN,NaN,NaN,NaN,NaN,1.293e-5,165,213.825,84,0,2.11,15,1013.25,340.389,0.01,0.01
0.52,-4.75e-4,-0.095,-9.499,0.096,9.551,-4.992e-5,0,4.992e-5,180,0.01,0.998,22.175,120.893,9.788,96.797,0,0,0,2.8e4,1.35e4,19.961,0.106,NaN,2019.906,NaN,0.006,4.185e5,5.115,-1.729e-4,0.743,-0.003,0.407,0.215,0.12,NaN,NaN,NaN,NaN,NaN,NaN,NaN,NaN,1.291e-5,165,213.825,84,0,2.125,15,1013.25,340.389,0.01,0.01
0.53,-4.746e-4,-0.095,-9.491,0.095,9.543,-4.988e-5,0,4.988e-5,180,0.01,0.998,22.175,120.893,9.788,96.778,0,0,0,2.8e4,1.35e4,19.961,0.106,NaN,2019.904,NaN,0.006,4.214e5,5.339,-1.737e-4,0.742,-0.003,0.407,0.215,0.12,NaN,NaN,NaN,NaN,NaN,NaN,NaN,NaN,1.29e-5,165,213.825,84,0,2.139,15,1013.25,340.389,0.01,0.01
0.54,-4.758e-4,-0.095,-9.516,0.096,9.568,-5.001e-5,0,5.001e-5,180,0.01,1,22.175,120.893,9.788,96.767,0,0,0,2.8e4,1.35e4,19.961,0.106,NaN,2019.903,NaN,0.006,4.242e5,4.638,-1.751e-4,0.741,-0.003,0.406,0.215,0.12,NaN,NaN,NaN,NaN,NaN,NaN,NaN,NaN,1.293e-5,165,213.825,84,0,2.154,15,1013.25,340.389,0.01,0.011
0.55,-4.755e-4,-0.095,-9.509,0.096,9.562,-4.997e-5,0,4.997e-5,180,0.01,0.999,22.175,120.893,9.788,96.749,0,0,0,2.8e4,1.35e4,19.961,0.106,NaN,2019.901,NaN,0.006,4.271e5,4.82,-1.759e-4,0.741,-0.003,0.406,0.215,0.12,NaN,NaN,NaN,NaN,NaN,NaN,NaN,NaN,1.293e-5,165,213.825,84,0,2.168,15,1013.25,340.389,0.01,0.011
0.56,-4.749e-4,-0.095,-9.498,0.096,9.55,-4.991e-5,0,4.991e-5,180,0.01,0.998,22.175,120.893,9.788,96.782,0,0,0,2.8e4,1.35e4,19.961,0.106,NaN,2019.899,NaN,0.006,4.209e5,5.14,-1.737e-4,0.742,-0.003,0.407,0.215,0.12,NaN,NaN,NaN,NaN,NaN,NaN,NaN,NaN,1.291e-5,165,213.825,84,0,2.137,15,1013.25,340.389,0.01,0.011
0.57,-4.749e-4,-0.095,-9.497,0.095,9.55,-4.991e-5,0,4.991e-5,180,0.01,0.998,22.175,120.893,9.788,96.82,0,0,0,2.8e4,1.35e4,19.961,0.106,NaN,2019.897,NaN,0.006,4.148e5,5.164,-1.717e-4,0.743,-0.003,0.408,0.215,0.12,NaN,NaN,NaN,NaN,NaN,NaN,NaN,NaN,1.291e-5,165,213.825,84,0,2.106,15,1013.25,340.389,0.01,0.011
0.58,-4.749e-4,-0.095,-9.499,0.096,9.551,-4.992e-5,0,4.992e-5,180,0.01,0.998,22.175,120.893,9.788,96.859,0,0,0,2.8e4,1.35e4,19.961,0.106,NaN,2019.895,NaN,0.006,4.086e5,5.125,-1.698e-4,0.745,-0.003,0.41,0.215,0.12,NaN,NaN,NaN,NaN,NaN,NaN,NaN,NaN,1.291e-5,165,213.825,84,0,2.074,15,1013.25,340.389,0.01,0.011
0.59,-4.746e-4,-0.095,-9.493,0.095,9.545,-4.989e-5,0,4.989e-5,180,0.01,0.998,22.175,120.893,9.788,96.897,0,0,0,2.8e4,1.35e4,19.961,0.106,NaN,2019.893,NaN,0.006,4.025e5,5.296,-1.677e-4,0.746,-0.003,0.411,0.215,0.12,NaN,NaN,NaN,NaN,NaN,NaN,NaN,NaN,1.29e-5,165,213.825,84,0,2.043,15,1013.25,340.389,0.01,0.011
0.6,-4.741e-4,-0.095,-9.483,0.095,9.535,-4.984e-5,0,4.984e-5,180,0.01,0.997,22.175,120.893,9.788,96.935,0,0,0,2.8e4,1.349e4,19.961,0.106,NaN,2019.891,NaN,0.006,3.964e5,5.567,-1.656e-4,0.747,-0.003,0.412,0.215,0.12,NaN,NaN,NaN,NaN,NaN,NaN,NaN,NaN,1.289e-5,165,213.825,84,0,2.012,15,1013.25,340.389,0.01,0.012
0.61,-4.739e-4,-0.095,-9.478,0.095,9.53,-4.981e-5,0,4.981e-5,180,0.01,0.996,22.175,120.893,9.788,96.894,0,0,0,2.8e4,1.349e4,19.961,0.106,NaN,2019.889,NaN,0.006,4.024e5,5.717,-1.674e-4,0.746,-0.003,0.411,0.215,0.12,NaN,NaN,NaN,NaN,NaN,NaN,NaN,NaN,1.288e-5,165,213.825,84,0,2.043,15,1013.25,340.389,0.01,0.012
0.62,-4.745e-4,-0.095,-9.49,0.095,9.542,-4.987e-5,0,4.987e-5,180,0.01,0.997,22.175,120.893,9.788,96.858,0,0,0,2.8e4,1.349e4,19.961,0.106,NaN,2019.887,NaN,0.006,4.084e5,5.366,-1.695e-4,0.745,-0.003,0.41,0.215,0.12,NaN,NaN,NaN,NaN,NaN,NaN,NaN,NaN,1.29e-5,165,213.825,84,0,2.073,15,1013.25,340.389,0.01,0.012
0.63,-4.737e-4,-0.095,-9.473,0.095,9.525,-4.978e-5,0,4.978e-5,180,0.01,0.996,22.175,120.893,9.788,96.815,0,0,0,2.799e4,1.349e4,19.961,0.106,NaN,2019.884,NaN,0.006,4.145e5,5.844,-1.711e-4,0.743,-0.003,0.408,0.215,0.12,NaN,NaN,NaN,NaN,NaN,NaN,NaN,NaN,1.288e-5,165,213.825,84,0,2.104,15,1013.25,340.389,0.01,0.012
0.64,-4.738e-4,-0.095,-9.475,0.095,9.527,-4.979e-5,0,4.979e-5,180,0.01,0.996,22.175,120.893,9.788,96.778,0,0,0,2.799e4,1.349e4,19.961,0.106,NaN,2019.882,NaN,0.006,4.205e5,5.786,-1.731e-4,0.742,-0.003,0.407,0.215,0.12,NaN,NaN,NaN,NaN,NaN,NaN,NaN,NaN,1.288e-5,165,213.825,84,0,2.135,15,1013.25,340.389,0.01,0.012
0.65,-4.734e-4,-0.095,-9.469,0.095,9.521,-4.976e-5,0,4.976e-5,180,0.01,0.995,22.175,120.893,9.788,96.741,0,0,0,2.799e4,1.349e4,19.961,0.106,NaN,2019.88,NaN,0.006,4.266e5,5.968,-1.749e-4,0.741,-0.003,0.406,0.215,0.12,NaN,NaN,NaN,NaN,NaN,NaN,NaN,NaN,1.287e-5,165,213.825,84,0,2.166,15,1013.25,340.389,0.01,0.013
0.66,-4.724e-4,-0.094,-9.448,0.095,9.5,-4.965e-5,0,4.965e-5,180,0.01,0.993,22.175,120.893,9.788,96.734,0,0,0,2.799e4,1.349e4,19.961,0.106,NaN,2019.877,NaN,0.006,4.267e5,6.551,-1.746e-4,0.741,-0.003,0.406,0.215,0.12,NaN,NaN,NaN,NaN,NaN,NaN,NaN,NaN,1.284e-5,165,213.825,84,0,2.167,15,1013.25,340.389,0.01,0.013
0.67,-4.721e-4,-0.094,-9.442,0.095,9.494,-4.962e-5,0,4.962e-5,180,0.01,0.992,22.175,120.893,9.788,96.732,0,0,0,2.799e4,1.349e4,19.961,0.106,NaN,2019.875,NaN,0.006,4.269e5,6.72,-1.745e-4,0.741,-0.003,0.406,0.215,0.12,NaN,NaN,NaN,NaN,NaN,NaN,NaN,NaN,1.283e-5,165,213.825,84,0,2.168,15,1013.25,340.389,0.01,0.013
0.68,-4.711e-4,-0.094,-9.421,0.095,9.473,-4.951e-5,0,4.951e-5,180,0.01,0.99,22.175,120.893,9.788,96.725,0,0,0,2.799e4,1.349e4,19.961,0.106,NaN,2019.872,NaN,0.006,4.271e5,7.299,-1.742e-4,0.741,-0.003,0.406,0.215,0.12,NaN,NaN,NaN,NaN,NaN,NaN,NaN,NaN,1.281e-5,165,213.825,84,0,2.169,15,1013.25,340.389,0.01,0.013
0.69,-4.708e-4,-0.094,-9.415,0.095,9.467,-4.948e-5,0,4.948e-5,180,0.01,0.99,22.175,120.893,9.788,96.722,0,0,0,2.799e4,1.349e4,19.961,0.106,NaN,2019.869,NaN,0.006,4.273e5,7.467,-1.741e-4,0.741,-0.003,0.406,0.215,0.12,NaN,NaN,NaN,NaN,NaN,NaN,NaN,NaN,1.28e-5,165,213.825,84,0,2.17,15,1013.25,340.389,0.01,0.013
0.7,-4.699e-4,-0.094,-9.398,0.095,9.45,-4.939e-5,0,4.939e-5,180,0.01,0.988,22.175,120.893,9.788,96.717,0,0,0,2.799e4,1.349e4,19.961,0.106,NaN,2019.866,NaN,0.006,4.275e5,7.951,-1.738e-4,0.741,-0.003,0.406,0.215,0.12,NaN,NaN,NaN,NaN,NaN,NaN,NaN,NaN,1.277e-5,165,213.825,84,0,2.171,15,1013.25,340.389,0.01,0.013
0.71,-4.682e-4,-0.094,-9.363,0.094,9.415,-4.921e-5,0,4.921e-5,180,0.01,0.984,22.175,120.893,9.788,96.741,0,0,0,2.799e4,1.349e4,19.96,0.106,NaN,2019.863,NaN,0.006,4.217e5,8.938,-1.712e-4,0.742,-0.003,0.407,0.215,0.12,NaN,NaN,NaN,NaN,NaN,NaN,NaN,NaN,1.273e-5,165,213.825,84,0,2.141,15,1013.25,340.389,0.01,0.014
0.72,-4.676e-4,-0.094,-9.352,0.094,9.403,-4.915e-5,0,4.915e-5,180,0.01,0.983,22.175,120.893,9.788,96.773,0,0,0,2.799e4,1.349e4,19.96,0.106,NaN,2019.859,NaN,0.006,4.16e5,9.255,-1.692e-4,0.743,-0.003,0.408,0.215,0.12,NaN,NaN,NaN,NaN,NaN,NaN,NaN,NaN,1.271e-5,165,213.825,84,0,2.112,15,1013.25,340.389,0.01,0.014
0.73,-4.659e-4,-0.093,-9.319,0.094,9.37,-4.897e-5,0,4.897e-5,180,0.01,0.979,22.175,120.893,9.788,96.799,0,0,0,2.799e4,1.349e4,19.96,0.106,NaN,2019.855,NaN,0.006,4.102e5,10.185,-1.667e-4,0.744,-0.003,0.409,0.215,0.12,NaN,NaN,NaN,NaN,NaN,NaN,NaN,NaN,1.267e-5,165,213.825,84,0,2.083,15,1013.25,340.389,0.01,0.014
0.74,-4.64e-4,-0.093,-9.28,0.093,9.331,-4.877e-5,0,4.877e-5,180,0.01,0.975,22.175,120.893,9.788,96.825,0,0,0,2.799e4,1.349e4,19.96,0.106,NaN,2019.851,NaN,0.006,4.044e5,11.275,-1.641e-4,0.746,-0.003,0.411,0.215,0.12,NaN,NaN,NaN,NaN,NaN,NaN,NaN,NaN,1.261e-5,165,213.825,84,0,2.053,15,1013.25,340.389,0.01,0.014
0.75,-4.621e-4,-0.092,-9.243,0.093,9.294,-4.857e-5,0,4.857e-5,180,0.01,0.971,22.175,120.893,9.788,96.852,0,0,0,2.799e4,1.349e4,19.96,0.106,NaN,2019.846,NaN,0.006,3.986e5,12.322,-1.616e-4,0.747,-0.003,0.412,0.215,0.12,NaN,NaN,NaN,NaN,NaN,NaN,NaN,NaN,1.256e-5,165,213.825,84,0,2.024,15,1013.25,340.389,0.01,0.014
0.76,-4.598e-4,-0.092,-9.195,0.092,9.246,-4.832e-5,0,4.832e-5,180,0.01,0.966,22.175,120.893,9.788,96.8,0,0,0,2.799e4,1.349e4,19.96,0.106,NaN,2019.841,NaN,0.006,4.046e5,13.663,-1.625e-4,0.746,-0.003,0.41,0.215,0.12,NaN,NaN,NaN,NaN,NaN,NaN,NaN,NaN,1.25e-5,165,213.825,84,0,2.054,15,1013.25,340.389,0.01,0.015
0.77,-4.586e-4,-0.092,-9.173,0.092,9.223,-4.82e-5,0,4.82e-5,180,0.01,0.964,22.175,120.893,9.788,96.756,0,0,0,2.799e4,1.349e4,19.96,0.106,NaN,2019.836,NaN,0.006,4.106e5,14.302,-1.64e-4,0.744,-0.003,0.409,0.215,0.12,NaN,NaN,NaN,NaN,NaN,NaN,NaN,NaN,1.247e-5,165,213.825,84,0,2.085,15,1013.25,340.389,0.01,0.015
0.78,-4.56e-4,-0.091,-9.12,0.092,9.171,-4.793e-5,0,4.793e-5,180,0.01,0.959,22.175,120.893,9.788,96.706,0,0,0,2.799e4,1.349e4,19.96,0.106,NaN,2019.83,NaN,0.006,4.166e5,15.77,-1.648e-4,0.743,-0.003,0.408,0.215,0.12,NaN,NaN,NaN,NaN,NaN,NaN,NaN,NaN,1.24e-5,165,213.825,84,0,2.116,15,1013.25,340.389,0.01,0.015
0.79,-4.54e-4,-0.091,-9.079,0.091,9.129,-4.771e-5,0,4.771e-5,180,0.01,0.954,22.175,120.893,9.788,96.66,0,0,0,2.799e4,1.349e4,19.96,0.106,NaN,2019.823,NaN,0.006,4.226e5,16.927,-1.66e-4,0.742,-0.003,0.407,0.215,0.12,NaN,NaN,NaN,NaN,NaN,NaN,NaN,NaN,1.234e-5,165,213.825,84,0,2.146,15,1013.25,340.389,0.01,0.015
0.8,-4.518e-4,-0.09,-9.037,0.091,9.087,-4.749e-5,0,4.749e-5,180,0.009,0.95,22.175,120.893,9.788,96.615,0,0,0,2.799e4,1.349e4,19.96,0.106,NaN,2019.816,NaN,0.006,4.286e5,18.121,-1.671e-4,0.74,-0.003,0.405,0.215,0.12,NaN,NaN,NaN,NaN,NaN,NaN,NaN,NaN,1.228e-5,165,213.825,84,0,2.177,15,1013.25,340.389,0.01,0.015
0.81,-4.495e-4,-0.09,-8.99,0.09,9.04,-4.725e-5,0,4.725e-5,180,0.009,0.945,22.175,120.893,9.788,96.602,0,0,0,2.799e4,1.349e4,19.96,0.106,NaN,2019.809,NaN,0.006,4.288e5,19.438,-1.662e-4,0.74,-0.003,0.405,0.215,0.12,NaN,NaN,NaN,NaN,NaN,NaN,NaN,NaN,1.222e-5,165,213.825,84,0,2.178,15,1013.25,340.389,0.01,0.015
0.82,-4.482e-4,-0.09,-8.965,0.09,9.014,-4.711e-5,0,4.711e-5,180,0.009,0.942,22.175,120.893,9.788,96.594,0,0,0,2.799e4,1.349e4,19.959,0.106,NaN,2019.801,NaN,0.006,4.29e5,20.155,-1.658e-4,0.74,-0.003,0.405,0.215,0.12,NaN,NaN,NaN,NaN,NaN,NaN,NaN,NaN,1.218e-5,165,213.825,84,0,2.179,15,1013.25,340.389,0.01,0.016
0.83,-4.434e-4,-0.089,-8.867,0.089,8.916,-4.66e-5,0,4.66e-5,180,0.009,0.932,22.175,120.893,9.788,96.568,0,0,0,2.799e4,1.349e4,19.959,0.106,NaN,2019.793,NaN,0.006,4.292e5,22.899,-1.639e-4,0.74,-0.003,0.405,0.215,0.12,NaN,NaN,NaN,NaN,NaN,NaN,NaN,NaN,1.205e-5,165,213.825,84,0,2.18,15,1013.25,340.389,0.01,0.016
0.84,-4.345e-4,-0.087,-8.69,0.087,8.738,-4.567e-5,0,4.567e-5,180,0.009,0.913,22.175,120.893,9.788,96.52,0,0,0,2.799e4,1.349e4,19.959,0.106,NaN,2019.782,NaN,0.006,4.293e5,27.886,-1.606e-4,0.74,-0.003,0.405,0.215,0.12,NaN,NaN,NaN,NaN,NaN,NaN,NaN,NaN,1.181e-5,165,213.825,84,0,2.181,15,1013.25,340.389,0.01,0.016
0.85,-4.271e-4,-0.085,-8.542,0.086,8.589,-4.489e-5,0,4.489e-5,180,0.009,0.898,22.175,120.893,9.788,96.481,0,0,0,2.799e4,1.349e4,19.959,0.106,NaN,2019.77,NaN,0.006,4.294e5,32.036,-1.579e-4,0.74,-0.003,0.405,0.215,0.12,NaN,NaN,NaN,NaN,NaN,NaN,NaN,NaN,1.161e-5,165,213.825,84,0,2.182,15,1013.25,340.389,0.01,0.016
0.86,-4.194e-4,-0.084,-8.388,0.084,8.434,-4.408e-5,0,4.408e-5,180,0.009,0.882,22.175,120.893,9.788,96.458,0,0,0,2.799e4,1.349e4,19.959,0.106,NaN,2019.756,NaN,0.006,4.26e5,36.392,-1.539e-4,0.741,-0.002,0.406,0.215,0.12,NaN,NaN,NaN,NaN,NaN,NaN,NaN,NaN,1.14e-5,165,213.825,84,0,2.164,15,1013.25,340.389,0.01,0.016
0.87,-4.119e-4,-0.082,-8.239,0.083,8.284,-4.33e-5,0,4.33e-5,180,0.009,0.866,22.175,120.893,9.788,96.437,0,0,0,2.799e4,1.349e4,19.958,0.106,NaN,2019.74,NaN,0.006,4.225e5,40.581,-1.501e-4,0.742,-0.002,0.407,0.215,0.12,NaN,NaN,NaN,NaN,NaN,NaN,NaN,NaN,1.12e-5,165,213.825,84,0,2.146,15,1013.25,340.389,0.01,0.017
0.88,-4.047e-4,-0.081,-8.093,0.081,8.138,-4.253e-5,0,4.253e-5,180,0.009,0.851,22.175,120.893,9.788,96.416,0,0,0,2.799e4,1.349e4,19.958,0.106,NaN,2019.723,NaN,0.006,4.19e5,44.682,-1.463e-4,0.742,-0.002,0.407,0.215,0.12,NaN,NaN,NaN,NaN,NaN,NaN,NaN,NaN,1.1e-5,165,213.825,84,0,2.129,15,1013.25,340.389,0.01,0.017
0.89,-3.982e-4,-0.08,-7.965,0.08,8.008,-4.186e-5,0,4.186e-5,180,0.008,0.837,22.175,120.893,9.788,96.399,0,0,0,2.799e4,1.349e4,19.958,0.106,NaN,2019.705,NaN,0.006,4.155e5,48.294,-1.43e-4,0.743,-0.002,0.408,0.215,0.12,NaN,NaN,NaN,NaN,NaN,NaN,NaN,NaN,1.083e-5,165,213.825,84,0,2.111,15,1013.25,340.389,0.01,0.017
0.9,-3.921e-4,-0.078,-7.842,0.079,7.885,-4.121e-5,0,4.121e-5,180,0.008,0.824,22.175,120.893,9.788,96.384,0,0,0,2.799e4,1.349e4,19.957,0.106,NaN,2019.685,NaN,0.006,4.12e5,51.752,-1.397e-4,0.744,-0.002,0.409,0.215,0.12,NaN,NaN,NaN,NaN,NaN,NaN,NaN,NaN,1.066e-5,165,213.825,84,0,2.093,15,1013.25,340.389,0.01,0.017
0.91,-3.84e-4,-0.077,-7.679,0.077,7.722,-4.036e-5,0,4.036e-5,180,0.008,0.807,22.175,120.893,9.788,96.351,0,0,0,2.798e4,1.348e4,19.957,0.106,NaN,2019.664,NaN,0.006,4.098e5,56.319,-1.362e-4,0.744,-0.002,0.409,0.215,0.12,NaN,NaN,NaN,NaN,NaN,NaN,NaN,NaN,1.044e-5,165,213.825,84,0,2.082,15,1013.25,340.389,0.01,0.017
0.92,-3.761e-4,-0.075,-7.522,0.076,7.563,-3.953e-5,0,3.953e-5,180,0.008,0.791,22.175,120.893,9.788,96.319,0,0,0,2.798e4,1.348e4,19.957,0.106,NaN,2019.641,NaN,0.006,4.075e5,60.748,-1.329e-4,0.745,-0.002,0.41,0.215,0.12,NaN,NaN,NaN,NaN,NaN,NaN,NaN,NaN,1.022e-5,165,213.825,84,0,2.071,15,1013.25,340.389,0.01,0.017
0.93,-3.643e-4,-0.073,-7.286,0.073,7.326,-3.829e-5,0,3.829e-5,180,0.008,0.766,22.175,120.893,9.788,96.265,0,0,0,2.798e4,1.348e4,19.956,0.106,NaN,2019.615,NaN,0.006,4.053e5,67.387,-1.282e-4,0.745,-0.002,0.41,0.215,0.12,NaN,NaN,NaN,NaN,NaN,NaN,NaN,NaN,9.903e-6,165,213.825,84,0,2.06,15,1013.25,340.389,0.01,0.018
0.94,-3.499e-4,-0.07,-6.999,0.07,7.037,-3.678e-5,0,3.678e-5,180,0.007,0.736,22.175,120.893,9.788,96.196,0,0,0,2.798e4,1.348e4,19.956,0.106,NaN,2019.586,NaN,0.006,4.031e5,75.455,-1.228e-4,0.746,-0.002,0.411,0.215,0.12,NaN,NaN,NaN,NaN,NaN,NaN,NaN,NaN,9.513e-6,165,213.825,84,0,2.049,15,1013.25,340.389,0.01,0.018
0.95,-3.337e-4,-0.067,-6.674,0.067,6.71,-3.507e-5,0,3.507e-5,180,0.007,0.701,22.175,120.893,9.788,96.115,0,0,0,2.798e4,1.348e4,19.955,0.106,NaN,2019.554,NaN,0.006,4.008e5,84.603,-1.17e-4,0.746,-0.002,0.411,0.215,0.12,NaN,NaN,NaN,NaN,NaN,NaN,NaN,NaN,9.071e-6,165,213.825,84,0,2.038,15,1013.25,340.389,0.01,0.018
0.96,-3.135e-4,-0.063,-6.271,0.063,6.305,-3.295e-5,0,3.295e-5,180,0.007,0.659,22.175,120.893,9.788,95.99,0,0,0,2.798e4,1.348e4,19.954,0.106,NaN,2019.517,NaN,0.006,4.035e5,95.934,-1.115e-4,0.746,-0.002,0.411,0.215,0.12,NaN,NaN,NaN,NaN,NaN,NaN,NaN,NaN,8.523e-6,165,213.825,84,0,2.052,15,1013.25,340.389,0.01,0.018
0.97,-2.933e-4,-0.059,-5.865,0.059,5.898,-3.082e-5,0,3.082e-5,180,0.006,0.616,22.175,120.893,9.788,95.866,0,0,0,2.798e4,1.348e4,19.954,0.106,NaN,2019.476,NaN,0.006,4.062e5,107.326,-1.062e-4,0.745,-0.002,0.41,0.215,0.12,NaN,NaN,NaN,NaN,NaN,NaN,NaN,NaN,7.972e-6,165,213.825,84,0,2.066,15,1013.25,340.389,0.01,0.018
0.98,-2.671e-4,-0.053,-5.342,0.054,5.372,-2.808e-5,0,2.808e-5,180,0.006,0.561,22.175,120.893,9.788,95.711,0,0,0,2.797e4,1.347e4,19.953,0.106,NaN,2019.43,NaN,0.006,4.089e5,122.033,-9.936e-5,0.745,-0.002,0.41,0.215,0.12,NaN,NaN,NaN,NaN,NaN,NaN,NaN,NaN,7.261e-6,165,213.825,84,0,2.08,15,1013.25,340.389,0.01,0.019
0.99,-2.333e-4,-0.047,-4.667,0.047,4.692,-2.453e-5,0,2.453e-5,180,0.005,0.49,22.175,120.893,9.788,95.517,0,0,0,2.797e4,1.347e4,19.952,0.106,NaN,2019.376,NaN,0.006,4.115e5,141.022,-9.084e-5,0.744,-0.002,0.409,0.215,0.12,NaN,NaN,NaN,NaN,NaN,NaN,NaN,NaN,6.343e-6,165,213.825,84,0,2.094,15,1013.25,340.389,0.01,0.019
1,-1.839e-4,-0.037,-3.678,0.037,3.699,-1.933e-5,0,1.933e-5,180,0.004,0.387,22.175,120.893,9.788,95.24,0,0,0,2.797e4,1.347e4,19.951,0.106,NaN,2019.312,NaN,0.006,4.141e5,168.795,-7.9e-5,0.744,-0.001,0.408,0.215,0.12,NaN,NaN,NaN,NaN,NaN,NaN,NaN,NaN,5e-6,165,213.825,84,0,2.109,15,1013.25,340.389,0.01,0.019
1.01,-1.138e-4,-0.023,-2.275,0.023,2.288,-1.196e-5,0,1.196e-5,180,0.002,0.239,22.175,120.893,9.788,94.856,0,0,0,2.796e4,1.346e4,19.949,0.106,NaN,2019.232,NaN,0.006,4.156e5,208.221,-6.357e-5,0.743,-0.001,0.408,0.215,0.12,NaN,NaN,NaN,NaN,NaN,NaN,NaN,NaN,3.094e-6,165,213.825,84,0,2.117,15,1013.25,340.389,0.01,0.019
1.02,-4.855e-5,-0.01,-0.97,0.01,0.975,-5.103e-6,0,5.103e-6,180,0.001,0.102,22.175,120.893,9.788,94.501,0,0,0,2.796e4,1.346e4,19.948,0.106,NaN,2019.139,NaN,0.006,4.172e5,244.886,-5.117e-5,0.743,-8.636e-4,0.408,0.215,0.12,NaN,NaN,NaN,NaN,NaN,NaN,NaN,NaN,1.32e-6,165,213.825,84,0,2.126,15,1013.25,340.389,0.01,0.019
1.03,2.205e-5,0.004,0.442,0.004,0.445,2.317e-6,0,2.317e-6,0,4.638e-4,0.046,22.175,120.893,9.788,94.12,0,0,0,2.795e4,1.345e4,19.946,0.106,NaN,2019.03,NaN,0.006,4.187e5,284.538,-3.968e-5,0.743,-6.648e-4,0.407,0.215,0.12,NaN,NaN,NaN,NaN,NaN,NaN,NaN,NaN,5.998e-7,165,213.825,84,0,2.135,15,1013.25,340.389,0.01,0.019
1.04,1.641e-4,0.024,1.96,0.024,1.971,1.725e-5,0,1.725e-5,0,0.003,0.206,22.175,120.893,9.788,93.595,0,0,0,2.795e4,1.345e4,19.943,0.106,NaN,2018.905,NaN,0.006,4.202e5,327.142,-2.669e-5,0.742,-4.44e-4,0.407,0.215,0.12,NaN,NaN,NaN,NaN,NaN,NaN,NaN,NaN,3.263e-6,165,213.825,84,0,2.144,15,1013.25,340.389,0.01,0.02
1.05,5.833e-4,0.06,3.585,0.06,3.604,6.13e-5,0,6.13e-5,0,0.006,0.377,22.175,120.893,9.788,92.639,0,0,0,2.794e4,1.344e4,19.941,0.106,NaN,2018.763,NaN,0.006,4.215e5,372.693,-1.073e-5,0.742,-1.774e-4,0.407,0.215,0.12,NaN,NaN,NaN,NaN,NaN,NaN,NaN,NaN,8.133e-6,165,213.825,84,0,2.153,15,1013.25,340.389,0.01,0.02
1.06,0.001,0.115,5.563,0.116,5.594,1.534e-4,0,1.534e-4,0,0.012,0.585,22.175,120.893,9.788,91.127,0,0,0,2.793e4,1.343e4,19.938,0.106,NaN,2018.599,NaN,0.006,4.182e5,428.171,-8.363e-7,0.743,-1.404e-5,0.408,0.215,0.12,NaN,NaN,NaN,NaN,NaN,NaN,NaN,NaN,1.569e-5,165,213.825,84,0,2.138,15,1013.25,340.389,0.01,0.02
1.07,0.003,0.191,7.517,0.192,7.558,3.142e-4,0,3.142e-4,0,0.02,0.79,22.175,120.893,9.788,89.06,0,0,0,2.792e4,1.342e4,19.935,0.106,NaN,2018.415,NaN,0.006,4.152e5,482.882,4.795e-7,0.743,8.167e-6,0.408,0.215,0.12,NaN,NaN,NaN,NaN,NaN,NaN,NaN,NaN,2.59e-5,165,213.825,84,0,2.123,15,1013.25,340.389,0.01,0.02
1.08,0.005,0.288,9.758,0.29,9.812,5.658e-4,0,5.658e-4,0,0.03,1.026,22.175,120.893,9.788,86.355,0,0,0,2.791e4,1.341e4,19.931,0.106,NaN,2018.206,NaN,0.006,4.131e5,545.617,2.694e-5,0.744,4.636e-4,0.409,0.215,0.12,NaN,NaN,NaN,NaN,NaN,NaN,NaN,NaN,3.916e-5,165,213.825,84,0,2.108,15,1013.249,340.389,0.01,0.02
1.09,0.009,0.411,12.305,0.413,12.373,9.333e-4,0,9.333e-4,0,0.043,1.293,22.175,120.893,9.788,82.933,0,0,0,2.79e4,1.34e4,19.927,0.106,NaN,2017.969,NaN,0.006,4.124e5,616.859,1.885e-4,0.744,0.003,0.409,0.215,0.12,NaN,NaN,NaN,NaN,NaN,NaN,NaN,NaN,5.588e-5,165,213.825,84,0,2.093,15,1013.249,340.389,0.01,0.021
1.1,0.014,0.563,15.219,0.566,15.303,0.001,0,0.001,0,0.059,1.6,22.175,120.893,9.788,78.732,0,0,0,2.789e4,1.339e4,19.922,0.106,NaN,2017.702,NaN,0.006,4.143e5,698.307,7.348e-4,0.743,0.013,0.408,0.215,0.12,NaN,NaN,NaN,NaN,NaN,NaN,NaN,NaN,7.656e-5,165,213.825,84,0,2.078,15,1013.248,340.389,0.01,0.021
1.11,0.02,0.746,18.29,0.75,18.39,0.002,0,0.002,0,0.078,1.922,22.175,120.893,9.788,73.914,0,0,0,2.788e4,1.338e4,19.917,0.106,NaN,2017.401,NaN,0.006,4.224e5,784.022,0.002,0.742,0.034,0.407,0.215,0.12,NaN,NaN,NaN,NaN,NaN,NaN,NaN,NaN,1.014e-4,165,213.825,84,0,2.075,15,1013.248,340.389,0.01,0.021
1.12,0.029,0.96,21.44,0.966,21.559,0.003,0,0.003,0,0.101,2.253,22.175,120.893,9.788,68.544,0,0,0,2.786e4,1.336e4,19.911,0.106,NaN,2017.066,NaN,0.007,4.356e5,871.849,0.005,0.739,0.076,0.404,0.215,0.12,NaN,NaN,NaN,NaN,NaN,NaN,NaN,NaN,1.305e-4,165,213.825,84,0,2.073,15,1013.247,340.389,0.01,0.021
1.13,0.04,1.207,24.646,1.213,24.782,0.004,0,0.004,0,0.127,2.59,22.175,120.893,9.788,62.818,0,0,0,2.784e4,1.334e4,19.904,0.106,NaN,2016.696,NaN,0.007,4.552e5,961.049,0.01,0.735,0.142,0.4,0.215,0.12,NaN,NaN,NaN,NaN,NaN,NaN,NaN,NaN,1.64e-4,165,213.825,84,0,2.07,15,1013.245,340.389,0.01,0.021
1.14,0.053,1.482,27.565,1.49,27.717,0.006,0,0.006,0,0.156,2.897,22.175,120.893,9.788,57.035,0,0,0,2.782e4,1.332e4,19.897,0.106,NaN,2016.295,NaN,0.007,4.821e5,1042.073,0.018,0.73,0.231,0.395,0.215,0.12,NaN,NaN,NaN,NaN,NaN,NaN,NaN,NaN,2.015e-4,165,213.825,84,0,2.068,15,1013.244,340.389,0.01,0.022
1.15,0.069,1.783,30.094,1.793,30.26,0.007,0,0.007,0,0.187,3.163,22.175,120.893,9.788,51.474,0,0,0,2.78e4,1.33e4,19.889,0.106,NaN,2015.866,NaN,0.008,5.164e5,1112.029,0.03,0.725,0.335,0.389,0.215,0.12,NaN,NaN,NaN,NaN,NaN,NaN,NaN,NaN,2.424e-4,165,213.825,84,0,2.066,15,1013.242,340.389,0.01,0.022
1.16,0.089,2.106,32.29,2.117,32.468,0.009,0,0.009,0,0.221,3.394,22.175,120.893,9.788,46.92,0,0,0,2.778e4,1.328e4,19.881,0.106,NaN,2015.413,NaN,0.008,5.633e5,1172.553,0.046,0.718,0.427,0.382,0.215,0.12,NaN,NaN,NaN,NaN,NaN,NaN,NaN,NaN,2.862e-4,165,213.825,84,0,2.104,14.999,1013.24,340.389,0.01,0.022
1.17,0.112,2.446,34.03,2.459,34.217,0.012,0,0.012,0,0.257,3.577,22.175,120.893,9.788,42.868,0,0,0,2.776e4,1.326e4,19.873,0.105,NaN,2014.941,NaN,0.009,6.157e5,1220.187,0.066,0.71,0.513,0.375,0.215,0.12,NaN,NaN,NaN,NaN,NaN,NaN,NaN,NaN,3.325e-4,165,213.825,84,0,2.142,14.999,1013.237,340.388,0.01,0.022
1.18,0.138,2.799,35.306,2.814,35.501,0.014,0,0.014,0,0.294,3.711,22.175,120.893,9.788,39.33,0,0,0,2.774e4,1.324e4,19.864,0.105,NaN,2014.455,NaN,0.01,6.727e5,1254.818,0.09,0.704,0.587,0.369,0.215,0.12,NaN,NaN,NaN,NaN,NaN,NaN,NaN,NaN,3.804e-4,165,213.825,84,0,2.18,14.999,1013.234,340.388,0.01,0.022
1.19,0.168,3.16,36.108,3.177,36.307,0.018,0,0.018,0,0.332,3.795,22.175,120.893,9.788,36.281,0,0,0,2.771e4,1.321e4,19.855,0.105,NaN,2013.959,NaN,0.011,7.33e5,1276.135,0.118,0.697,0.647,0.362,0.215,0.12,NaN,NaN,NaN,NaN,NaN,NaN,NaN,NaN,4.295e-4,165,213.825,84,0,2.218,14.999,1013.23,340.388,0.01,0.022
1.2,0.201,3.526,36.661,3.546,36.863,0.021,0,0.021,0,0.371,3.853,22.175,120.893,9.788,33.657,0,0,0,2.769e4,1.319e4,19.846,0.105,NaN,2013.458,NaN,0.012,7.961e5,1290.479,0.15,0.691,0.696,0.356,0.215,0.12,NaN,NaN,NaN,NaN,NaN,NaN,NaN,NaN,4.793e-4,165,213.825,84,0,2.256,14.999,1013.226,340.388,0.01,0.023
1.21,0.238,3.896,36.967,3.917,37.171,0.025,0,0.025,0,0.409,3.885,22.175,120.893,9.788,31.235,0,0,0,2.767e4,1.317e4,19.837,0.105,NaN,2012.952,NaN,0.013,8.598e5,1297.933,0.186,0.686,0.737,0.351,0.215,0.12,NaN,NaN,NaN,NaN,NaN,NaN,NaN,NaN,5.295e-4,165,213.825,84,0,2.28,14.998,1013.222,340.388,0.01,0.023
1.22,0.279,4.266,37.026,4.289,37.23,0.029,0,0.029,0,0.448,3.892,22.175,120.893,9.788,29.146,0,0,0,2.764e4,1.314e4,19.828,0.105,NaN,2012.446,NaN,0.014,9.249e5,1298.512,0.224,0.681,0.768,0.345,0.215,0.12,NaN,NaN,NaN,NaN,NaN,NaN,NaN,NaN,5.798e-4,165,213.825,84,0,2.303,14.998,1013.217,340.388,0.01,0.023
1.23,0.324,4.636,37.069,4.662,37.273,0.034,0,0.034,0,0.487,3.896,22.175,120.893,9.788,27.332,0,0,0,2.762e4,1.312e4,19.819,0.105,NaN,2011.938,NaN,0.015,9.911e5,1298.633,0.265,0.676,0.792,0.341,0.215,0.12,NaN,NaN,NaN,NaN,NaN,NaN,NaN,NaN,6.302e-4,165,213.825,84,0,2.327,14.998,1013.212,340.388,0.01,0.023
1.24,0.372,5.006,36.975,5.033,37.179,0.039,0,0.039,0,0.526,3.886,22.175,120.893,9.788,25.751,0,0,0,2.76e4,1.31e4,19.81,0.105,NaN,2011.431,NaN,0.016,1.058e6,1294.965,0.308,0.671,0.809,0.336,0.215,0.12,NaN,NaN,NaN,NaN,NaN,NaN,NaN,NaN,6.804e-4,165,213.825,84,0,2.35,14.998,1013.206,340.387,0.01,0.023
1.25,0.424,5.374,36.889,5.404,37.093,0.045,0,0.045,0,0.565,3.877,22.175,120.893,9.788,24.362,0,0,0,2.757e4,1.307e4,19.801,0.105,NaN,2010.925,NaN,0.017,1.126e6,1291.53,0.354,0.667,0.822,0.332,0.215,0.12,NaN,NaN,NaN,NaN,NaN,NaN,NaN,NaN,7.305e-4,165,213.825,84,0,2.374,14.997,1013.2,340.387,0.01,0.024
1.26,0.479,5.742,36.802,5.774,37.004,0.05,0,0.05,0,0.604,3.868,22.175,120.893,9.788,23.012,0,0,0,2.755e4,1.305e4,19.792,0.105,NaN,2010.419,NaN,0.018,1.193e6,1288.052,0.403,0.664,0.831,0.329,0.215,0.12,NaN,NaN,NaN,NaN,NaN,NaN,NaN,NaN,7.805e-4,165,213.825,84,0,2.384,14.997,1013.194,340.387,0.01,0.024
1.27,0.538,6.109,36.69,6.143,36.892,0.057,0,0.057,0,0.642,3.856,22.175,120.893,9.788,21.809,0,0,0,2.753e4,1.303e4,19.783,0.105,NaN,2009.914,NaN,0.019,1.26e6,1283.912,0.453,0.66,0.838,0.325,0.215,0.12,NaN,NaN,NaN,NaN,NaN,NaN,NaN,NaN,8.303e-4,165,213.825,84,0,2.394,14.997,1013.187,340.387,0.01,0.024
1.28,0.601,6.475,36.657,6.511,36.859,0.063,0,0.063,0,0.681,3.853,22.175,120.893,9.788,20.73,0,0,0,2.75e4,1.3e4,19.774,0.105,NaN,2009.409,NaN,0.02,1.328e6,1281.967,0.505,0.657,0.842,0.322,0.215,0.12,NaN,NaN,NaN,NaN,NaN,NaN,NaN,NaN,8.801e-4,165,213.825,84,0,2.404,14.996,1013.179,340.387,0.01,0.024
1.29,0.668,6.841,36.574,6.879,36.775,0.07,0,0.07,0,0.719,3.844,22.175,120.893,9.788,19.759,0,0,0,2.748e4,1.298e4,19.765,0.105,NaN,2008.904,NaN,0.021,1.396e6,1278.651,0.56,0.654,0.843,0.319,0.215,0.12,NaN,NaN,NaN,NaN,NaN,NaN,NaN,NaN,9.298e-4,165,213.825,84,0,2.413,14.996,1013.172,340.386,0.01,0.024
1.3,0.738,7.206,36.533,7.246,36.734,0.078,0,0.078,0,0.757,3.84,22.175,120.893,9.788,18.879,0,0,0,2.746e4,1.296e4,19.756,0.105,NaN,2008.399,NaN,0.022,1.465e6,1276.485,0.616,0.651,0.843,0.316,0.215,0.12,NaN,NaN,NaN,NaN,NaN,NaN,NaN,NaN,9.795e-4,165,213.825,84,0,2.423,14.995,1013.163,340.386,0.01,0.024
1.31,0.812,7.571,36.527,7.613,36.728,0.085,0,0.085,0,0.796,3.839,22.175,120.893,9.788,17.752,0,0,0,2.743e4,1.293e4,19.747,0.105,NaN,2007.894,NaN,0.023,1.531e6,1275.318,0.672,0.648,0.842,0.313,0.215,0.12,NaN,NaN,NaN,NaN,NaN,NaN,NaN,NaN,0.001,165,213.825,84,0,2.387,14.995,1013.155,340.386,0.01,0.025
1.32,0.89,7.936,36.499,7.98,36.7,0.094,0,0.094,0,0.834,3.836,22.175,120.893,9.788,16.719,0,0,0,2.741e4,1.291e4,19.738,0.105,NaN,2007.388,NaN,0.024,1.598e6,1273.528,0.73,0.646,0.839,0.311,0.215,0.12,NaN,NaN,NaN,NaN,NaN,NaN,NaN,NaN,0.001,165,213.825,84,0,2.351,14.994,1013.146,340.385,0.01,0.025
1.33,0.971,8.301,36.549,8.347,36.751,0.102,0,0.102,0,0.872,3.841,22.175,120.893,9.788,15.77,0,0,0,2.739e4,1.289e4,19.729,0.105,NaN,2006.882,NaN,0.025,1.666e6,1273.891,0.788,0.643,0.833,0.308,0.215,0.12,NaN,NaN,NaN,NaN,NaN,NaN,NaN,NaN,0.001,165,213.825,84,0,2.315,14.994,1013.136,340.385,0.01,0.025
1.34,1.056,8.666,36.527,8.714,36.728,0.111,0,0.111,0,0.911,3.839,22.175,120.893,9.788,14.894,0,0,0,2.736e4,1.286e4,19.72,0.105,NaN,2006.376,NaN,0.026,1.734e6,1272.247,0.845,0.641,0.825,0.306,0.215,0.12,NaN,NaN,NaN,NaN,NaN,NaN,NaN,NaN,0.001,165,213.825,84,0,2.279,14.993,1013.126,340.385,0.01,0.025
1.35,1.144,9.032,36.537,9.081,36.738,0.12,0,0.12,0,0.949,3.84,22.175,120.893,9.788,14.085,0,0,0,2.734e4,1.284e4,19.711,0.105,NaN,2005.868,NaN,0.027,1.803e6,1271.517,0.902,0.639,0.816,0.304,0.215,0.12,NaN,NaN,NaN,NaN,NaN,NaN,NaN,NaN,0.001,165,213.825,84,0,2.243,14.993,1013.116,340.384,0.01,0.025
1.36,1.236,9.397,36.575,9.449,36.776,0.13,0,0.13,0,0.988,3.844,22.175,120.893,9.788,13.555,0,0,0,2.732e4,1.282e4,19.702,0.105,NaN,2005.361,NaN,0.028,1.873e6,1271.539,0.964,0.637,0.807,0.301,0.215,0.12,NaN,NaN,NaN,NaN,NaN,NaN,NaN,NaN,0.001,165,213.825,84,0,2.244,14.992,1013.105,340.384,0.01,0.026
1.37,1.332,9.763,36.591,9.817,36.793,0.14,0,0.14,0,1.026,3.846,22.175,120.893,9.788,13.063,0,0,0,2.729e4,1.279e4,19.693,0.105,NaN,2004.852,NaN,0.029,1.943e6,1270.983,1.027,0.635,0.799,0.299,0.215,0.12,NaN,NaN,NaN,NaN,NaN,NaN,NaN,NaN,0.001,165,213.825,84,0,2.245,14.991,1013.094,340.384,0.01,0.026
1.38,1.432,10.13,36.708,10.186,36.91,0.15,0,0.15,0,1.065,3.858,22.175,120.893,9.788,12.603,0,0,0,2.727e4,1.277e4,19.684,0.105,NaN,2004.342,NaN,0.03,2.013e6,1273.167,1.092,0.633,0.791,0.297,0.215,0.12,NaN,NaN,NaN,NaN,NaN,NaN,NaN,NaN,0.001,165,213.825,84,0,2.246,14.991,1013.082,340.383,0.01,0.026
1.39,1.535,10.497,36.749,10.555,36.951,0.161,0,0.161,0,1.103,3.862,22.175,120.893,9.788,12.174,0,0,0,2.725e4,1.275e4,19.675,0.105,NaN,2003.83,NaN,0.031,2.084e6,1273.278,1.158,0.631,0.783,0.295,0.215,0.12,NaN,NaN,NaN,NaN,NaN,NaN,NaN,NaN,0.001,165,213.825,84,0,2.247,14.99,1013.07,340.383,0.01,0.026
1.4,1.641,10.865,36.837,10.925,37.039,0.173,0,0.173,0,1.142,3.872,22.175,120.893,9.788,11.773,0,0,0,2.723e4,1.273e4,19.666,0.105,NaN,2003.318,NaN,0.032,2.155e6,1274.663,1.226,0.629,0.775,0.294,0.215,0.12,NaN,NaN,NaN,NaN,NaN,NaN,NaN,NaN,0.001,165,213.825,84,0,2.248,14.989,1013.057,340.382,0.01,0.026
1.41,1.752,11.234,36.944,11.296,37.148,0.184,0,0.184,0,1.181,3.883,22.175,120.893,9.788,11.405,0,0,0,2.72e4,1.27e4,19.657,0.105,NaN,2002.803,NaN,0.033,2.226e6,1276.588,1.296,0.627,0.768,0.292,0.215,0.12,NaN,NaN,NaN,NaN,NaN,NaN,NaN,NaN,0.002,165,213.825,84,0,2.251,14.989,1013.045,340.382,0.01,0.026
1.42,1.866,11.604,37.013,11.668,37.216,0.196,0,0.196,0,1.22,3.89,22.175,120.893,9.788,11.06,0,0,0,2.718e4,1.268e4,19.648,0.105,NaN,2002.288,NaN,0.034,2.298e6,1277.444,1.368,0.626,0.761,0.29,0.215,0.12,NaN,NaN,NaN,NaN,NaN,NaN,NaN,NaN,0.002,165,213.825,84,0,2.254,14.988,1013.031,340.382,0.01,0.027
1.43,1.984,11.976,37.149,12.042,37.353,0.209,0,0.209,0,1.259,3.904,22.175,120.893,9.788,10.734,0,0,0,2.716e4,1.266e4,19.639,0.105,NaN,2001.77,NaN,0.036,2.37e6,1280.14,1.441,0.624,0.754,0.289,0.215,0.12,NaN,NaN,NaN,NaN,NaN,NaN,NaN,NaN,0.002,165,213.825,84,0,2.257,14.987,1013.017,340.381,0.01,0.027
1.44,2.106,12.348,37.206,12.416,37.411,0.221,0,0.221,0,1.298,3.91,22.175,120.893,9.788,10.427,0,0,0,2.713e4,1.263e4,19.629,0.105,NaN,2001.252,NaN,0.037,2.442e6,1280.681,1.519,0.623,0.748,0.288,0.215,0.12,NaN,NaN,NaN,NaN,NaN,NaN,NaN,NaN,0.002,165,213.825,84,0,2.26,14.986,1013.003,340.381,0.01,0.027
1.45,2.231,12.721,37.316,12.791,37.521,0.234,0,0.234,0,1.337,3.922,22.175,120.893,9.788,10.136,0,0,0,2.711e4,1.261e4,19.62,0.105,NaN,2000.731,NaN,0.038,2.514e6,1282.653,1.601,0.623,0.743,0.288,0.215,0.12,NaN,NaN,NaN,NaN,NaN,NaN,NaN,NaN,0.002,165,213.825,84,0,2.263,14.985,1012.988,340.38,0.01,0.027
1.46,2.36,13.095,37.434,13.167,37.64,0.248,0,0.248,0,1.376,3.934,22.175,120.893,9.788,10.091,0,0,0,2.709e4,1.259e4,19.611,0.104,NaN,2000.209,NaN,0.039,2.588e6,1284.861,1.694,0.623,0.743,0.288,0.215,0.12,NaN,NaN,NaN,NaN,NaN,NaN,NaN,NaN,0.002,165,213.825,84,0,2.319,14.985,1012.973,340.38,0.01,0.027
1.47,2.493,13.469,37.487,13.544,37.693,0.262,0,0.262,0,1.416,3.94,22.175,120.893,9.788,10.047,0,0,0,2.706e4,1.256e4,19.602,0.104,NaN,1999.686,NaN,0.04,2.662e6,1285.292,1.791,0.623,0.742,0.288,0.215,0.12,NaN,NaN,NaN,NaN,NaN,NaN,NaN,NaN,0.002,165,213.825,84,0,2.375,14.984,1012.958,340.379,0.01,0.028
1.48,2.629,13.845,37.608,13.922,37.815,0.276,0,0.276,0,1.455,3.953,22.175,120.893,9.788,10.005,0,0,0,2.704e4,1.254e4,19.592,0.104,NaN,1999.161,NaN,0.041,2.736e6,1287.587,1.89,0.623,0.741,0.288,0.215,0.12,NaN,NaN,NaN,NaN,NaN,NaN,NaN,NaN,0.002,165,213.825,84,0,2.431,14.983,1012.942,340.379,0.01,0.028
1.49,2.77,14.222,37.655,14.3,37.862,0.291,0,0.291,0,1.495,3.958,22.175,120.893,9.788,9.965,0,0,0,2.702e4,1.252e4,19.583,0.104,NaN,1998.635,NaN,0.042,2.81e6,1287.832,1.992,0.623,0.741,0.288,0.215,0.12,NaN,NaN,NaN,NaN,NaN,NaN,NaN,NaN,0.002,165,213.825,84,0,2.487,14.982,1012.925,340.378,0.01,0.028
1.5,2.914,14.599,37.725,14.679,37.933,0.306,0,0.306,0,1.534,3.965,22.175,120.893,9.788,9.926,0,0,0,2.699e4,1.249e4,19.574,0.104,NaN,1998.108,NaN,0.043,2.885e6,1288.735,2.097,0.623,0.74,0.288,0.215,0.12,NaN,NaN,NaN,NaN,NaN,NaN,NaN,NaN,0.002,165,213.825,84,0,2.543,14.981,1012.908,340.377,0.01,0.028
1.51,3.062,14.977,37.808,15.059,38.016,0.322,0,0.322,0,1.574,3.974,22.175,120.893,9.788,9.544,0,0,0,2.697e4,1.247e4,19.564,0.104,NaN,1997.579,NaN,0.044,2.957e6,1289.948,2.186,0.623,0.734,0.288,0.215,0.12,NaN,NaN,NaN,NaN,NaN,NaN,NaN,NaN,0.002,165,213.825,84,0,2.508,14.98,1012.891,340.377,0.01,0.028
1.52,3.213,15.355,37.825,15.439,38.033,0.338,0,0.338,0,1.614,3.976,22.175,120.893,9.788,9.18,0,0,0,2.695e4,1.244e4,19.555,0.104,NaN,1997.049,NaN,0.045,3.03e6,1289.376,2.277,0.623,0.728,0.288,0.215,0.12,NaN,NaN,NaN,NaN,NaN,NaN,NaN,NaN,0.002,165,213.825,84,0,2.472,14.979,1012.873,340.376,0.01,0.029
1.53,3.369,15.734,37.966,15.821,38.175,0.354,0,0.354,0,1.654,3.99,22.175,120.893,9.788,8.833,0,0,0,2.692e4,1.242e4,19.546,0.104,NaN,1996.518,NaN,0.047,3.103e6,1292.164,2.37,0.623,0.722,0.288,0.215,0.12,NaN,NaN,NaN,NaN,NaN,NaN,NaN,NaN,0.002,165,213.825,84,0,2.437,14.978,1012.855,340.376,0.01,0.029
1.54,3.528,16.114,38.036,16.203,38.246,0.371,0,0.371,0,1.694,3.998,22.175,120.893,9.788,8.501,0,0,0,2.69e4,1.24e4,19.536,0.104,NaN,1995.985,NaN,0.048,3.177e6,1293.051,2.464,0.623,0.717,0.288,0.215,0.12,NaN,NaN,NaN,NaN,NaN,NaN,NaN,NaN,0.002,165,213.825,84,0,2.402,14.977,1012.836,340.375,0.01,0.029
1.55,3.691,16.496,38.143,16.586,38.353,0.388,0,0.388,0,1.734,4.009,22.175,120.893,9.788,8.184,0,0,0,2.687e4,1.237e4,19.527,0.104,NaN,1995.451,NaN,0.049,3.251e6,1294.89,2.562,0.623,0.712,0.288,0.215,0.12,NaN,NaN,NaN,NaN,NaN,NaN,NaN,NaN,0.002,165,213.825,84,0,2.367,14.976,1012.817,340.374,0.01,0.029
1.56,3.858,16.878,38.268,16.971,38.479,0.405,0,0.405,0,1.774,4.022,22.175,120.893,9.788,7.999,0,0,0,2.685e4,1.235e4,19.517,0.104,NaN,1994.914,NaN,0.05,3.325e6,1297.251,2.669,0.623,0.709,0.288,0.215,0.12,NaN,NaN,NaN,NaN,NaN,NaN,NaN,NaN,0.002,165,213.825,84,0,2.367,14.975,1012.798,340.374,0.01,0.029
1.57,4.029,17.261,38.289,17.356,38.5,0.423,0,0.423,0,1.814,4.024,22.175,120.893,9.788,7.823,0,0,0,2.683e4,1.233e4,19.508,0.104,NaN,1994.377,NaN,0.051,3.4e6,1296.778,2.779,0.623,0.706,0.288,0.215,0.12,NaN,NaN,NaN,NaN,NaN,NaN,NaN,NaN,0.002,165,213.825,84,0,2.367,14.974,1012.777,340.373,0.01,0.029
1.585,4.292,17.835,38.289,17.935,38.647,0.451,2.197e-5,0.451,0.003,1.893,5.251,22.175,120.893,9.788,7.524,0,0.039,8.017e-5,2.679e4,1.229e4,19.493,0.104,2116.722,1993.568,0.746,0.053,3.512e6,1298.654,2.945,0.623,0.701,0.288,0.215,0.12,1.775,1.325,-4.754e-4,0,0,0,0,5.499e-6,0.002,165,213.825,84,-0.002,2.367,14.972,1012.747,340.372,0.015,0.03
1.608,4.703,18.7,38.492,18.807,38.851,0.495,1.388e-4,0.495,0.016,2.011,5.274,22.175,120.893,9.788,7.093,0,0.103,5.779e-4,2.674e4,1.224e4,19.472,0.104,2123.902,1992.348,0.797,0.055,3.681e6,1301.804,3.203,0.624,0.694,0.288,0.215,0.12,1.652,1.317,1.242e-4,0,0,0,0,3.441e-5,0.003,165,213.825,84.001,-0.013,2.363,14.969,1012.698,340.37,0.023,0.03
1.641,5.356,20.008,38.83,20.127,39.192,0.566,5.076e-4,0.566,0.051,2.19,5.31,22.175,120.893,9.788,6.473,0,0.209,0.002,2.666e4,1.216e4,19.439,0.104,2134.599,1990.501,0.873,0.059,3.937e6,1307.398,3.613,0.624,0.684,0.288,0.215,0.12,1.48,1.292,3.25e-4,0,0,0,0,1.239e-4,0.003,165,213.825,84.005,-0.049,2.344,14.965,1012.622,340.368,0.034,0.03
1.691,6.405,21.965,39.256,22.102,39.618,0.682,0.001,0.682,0.125,2.457,5.346,22.175,120.893,9.788,5.604,0,0.387,0.008,2.654e4,1.204e4,19.39,0.104,2150.357,1987.731,0.986,0.065,4.32e6,1313.533,4.268,0.624,0.671,0.288,0.215,0.121,1.248,1.23,2.608e-4,0,0,0,0,3.547e-4,0.003,165,213.825,84.015,-0.151,2.287,14.958,1012.499,340.364,0.05,0.03
1.741,7.553,23.952,39.838,24.107,40.201,0.812,0.003,0.812,0.211,2.726,5.396,22.175,120.893,9.788,4.981,0,0.59,0.017,2.642e4,1.192e4,19.34,0.104,2162.247,1984.915,1.075,0.071,4.71e6,1323.765,5.008,0.624,0.663,0.288,0.216,0.121,1.088,1.168,-1.852e-4,0,0,0,0,6.923e-4,0.003,165,213.825,84.032,-0.321,2.28,14.951,1012.364,340.359,0.05,0.03
1.791,8.801,25.97,40.467,26.143,40.834,0.955,0.005,0.955,0.3,2.999,5.46,22.175,120.893,9.788,4.735,0,0.822,0.026,2.63e4,1.18e4,19.29,0.103,2167.099,1982.048,1.122,0.077,5.107e6,1335.184,5.859,0.624,0.66,0.288,0.216,0.121,1.026,1.149,2.323e-4,0,0,0,0,0.001,0.004,165,213.825,84.056,-0.572,2.409,14.943,1012.218,340.354,0.05,0.031
1.841,10.151,28.022,41.142,28.213,41.511,1.112,0.008,1.112,0.389,3.275,5.522,22.175,120.893,9.788,4.52,0,1.09,0.039,2.617e4,1.167e4,19.238,0.103,2171.421,1979.127,1.165,0.083,5.51e6,1347.677,6.794,0.624,0.657,0.288,0.216,0.121,0.973,1.133,-3.603e-4,0,0,0,0,0.002,0.004,165,213.825,84.087,-0.918,2.548,14.934,1012.059,340.349,0.05,0.031
1.891,11.604,30.115,41.957,30.324,42.323,1.282,0.011,1.282,0.473,3.553,5.555,22.175,120.893,9.788,3.885,0,1.388,0.068,2.605e4,1.155e4,19.185,0.103,2184.496,1976.143,1.263,0.089,5.921e6,1363.475,7.756,0.624,0.649,0.288,0.216,0.121,0.819,1.032,6.931e-5,0,0,0,0,0.002,0.004,165,213.825,84.127,-1.376,2.46,14.925,1011.889,340.343,0.05,0.031
1.941,13.163,32.241,42.629,32.468,42.99,1.467,0.014,1.467,0.549,3.832,5.56,22.175,120.893,9.788,3.324,0,1.694,0.109,2.593e4,1.143e4,19.132,0.103,2196.527,1973.105,1.354,0.095,6.339e6,1375.364,8.808,0.625,0.643,0.288,0.216,0.121,0.688,0.929,-1.636e-4,0,0,0,0,0.003,0.004,165,213.825,84.176,-1.961,2.378,14.914,1011.706,340.337,0.05,0.031
1.991,14.829,34.405,43.389,34.65,43.746,1.666,0.018,1.666,0.612,4.112,5.577,22.175,120.893,9.788,2.986,0,2.014,0.15,2.58e4,1.13e4,19.077,0.103,2204.04,1970.006,1.418,0.101,6.764e6,1389.417,9.982,0.625,0.64,0.288,0.216,0.121,0.611,0.863,3.666e-4,0,0,0,0,0.004,0.005,165,213.825,84.234,-2.685,2.401,14.904,1011.511,340.33,0.05,0.031
2.041,16.605,36.619,44.4,36.882,44.751,1.878,0.022,1.878,0.659,4.393,5.595,22.175,120.893,9.788,2.569,6.348e-7,2.346,0.219,2.567e4,1.117e4,19.021,0.102,2213.556,1966.831,1.495,0.108,7.199e6,1409.711,11.247,0.625,0.637,0.288,0.216,0.122,0.518,0.771,-1.792e-4,0,0,0,0,0.005,0.005,165,213.825,84.299,-3.564,2.361,14.892,1011.303,340.323,0.05,0.032
2.091,18.492,38.878,45.296,39.158,45.639,2.105,0.025,2.105,0.69,4.675,5.587,22.175,120.893,9.788,2.174,6.219e-7,2.673,0.316,2.554e4,1.104e4,18.964,0.102,2222.854,1963.584,1.571,0.115,7.643e6,1426.753,12.622,0.625,0.634,0.287,0.216,0.122,0.433,0.675,1.164e-4,0,0,0,0,0.005,0.005,165,213.825,84.371,-4.613,2.316,14.88,1011.081,340.316,0.05,0.032
2.141,20.493,41.168,45.915,41.465,46.248,2.346,0.029,2.346,0.701,4.953,5.543,22.175,120.893,9.788,1.83,1.068e-6,2.987,0.442,2.541e4,1.091e4,18.906,0.102,2231.161,1960.282,1.642,0.121,8.093e6,1436.554,14.107,0.626,0.632,0.287,0.216,0.122,0.36,0.585,1.913e-4,0,0,0,0,0.006,0.006,165,213.825,84.448,-5.844,2.291,14.867,1010.846,340.308,0.05,0.032
2.191,22.61,43.493,46.623,43.806,46.943,2.6,0.031,2.6,0.69,5.229,5.472,22.175,120.893,9.788,1.323,5.214e-7,3.229,0.772,2.528e4,1.078e4,18.847,0.102,2243.792,1956.918,1.739,0.128,8.551e6,1448.404,15.688,0.626,0.629,0.287,0.216,0.122,0.256,0.438,-3.916e-4,0,0,0,0,0.006,0.006,165,213.825,84.529,-7.266,2.116,14.853,1010.598,340.3,0.05,0.032
2.241,24.844,45.855,47.37,46.184,47.679,2.868,0.033,2.869,0.656,5.501,5.415,22.175,120.893,9.788,0.973,1.513e-6,3.344,1.214,2.515e4,1.065e4,18.787,0.102,2252.804,1953.489,1.814,0.135,9.016e6,1461.178,17.409,0.626,0.628,0.287,0.217,0.122,0.186,0.331,-1.504e-4,0,0,0,0,0.006,0.006,165,213.825,84.61,-8.871,2.031,14.839,1010.336,340.291,0.05,0.032
2.291,27.196,48.244,47.896,48.587,48.193,3.15,0.033,3.15,0.596,5.768,5.342,22.175,120.893,9.788,0.707,3.323e-7,3.255,1.863,2.501e4,1.051e4,18.726,0.101,2259.838,1950.006,1.878,0.142,9.485e6,1468.288,19.256,0.627,0.628,0.287,0.217,0.123,0.134,0.246,-1.048e-4,0,0,0,0,0.005,0.007,165,213.825,84.688,-10.647,1.986,14.823,1010.06,340.282,0.05,0.032
2.341,29.668,50.638,47.993,50.995,48.278,3.445,0.031,3.445,0.509,6.028,5.234,22.175,120.893,9.788,0.498,1.194e-6,2.553,2.929,2.488e4,1.038e4,18.664,0.101,2265.508,1946.495,1.933,0.15,9.954e6,1464.702,21.21,0.627,0.628,0.287,0.217,0.123,0.093,0.177,-6.259e-5,0,0,0,0,0.003,0.007,165,213.825,84.759,-12.577,1.936,14.807,1009.77,340.272,0.05,0.033
2.391,32.26,53.035,48.065,53.406,48.337,3.753,0.026,3.753,0.395,6.281,5.121,22.175,120.893,9.788,0.429,3.687e-6,-0.271,3.925,2.475e4,1.025e4,18.602,0.101,2267.484,1942.956,1.967,0.157,1.043e7,1460.577,23.278,0.627,0.628,0.287,0.217,0.123,0.08,0.158,3.255e-4,0,0,0,0,-2.968e-5,0.007,165,213.825,84.819,-14.627,1.795,14.79,1009.466,340.262,0.05,0.033
2.441,34.972,55.438,48.181,55.821,48.444,4.073,0.018,4.073,0.252,6.527,5.049,22.175,120.893,9.788,0.504,2.217e-6,-1.689,3.493,2.461e4,1.011e4,18.539,0.101,2265.577,1939.385,1.977,0.164,1.09e7,1457.734,25.453,0.628,0.628,0.287,0.217,0.123,0.095,0.188,8.977e-5,0,0,0,0,-0.001,0.008,165,213.825,84.866,-16.74,1.786,14.773,1009.148,340.251,0.05,0.033
2.491,37.803,57.826,47.874,58.221,48.131,4.405,0.006,4.405,0.082,6.766,4.968,22.175,120.893,9.788,0.591,2.547e-6,-2.237,3.029,2.448e4,9982.7,18.477,0.101,2263.391,1935.809,1.985,0.171,1.136e7,1444.705,27.713,0.628,0.629,0.287,0.217,0.124,0.111,0.223,-3.573e-4,0,0,0,0,-0.002,0.008,165,213.825,84.897,-18.858,1.814,14.754,1008.816,340.24,0.05,0.033
2.541,40.754,60.213,47.83,60.618,48.085,4.749,-0.01,4.749,-0.115,6.999,4.937,22.175,120.893,9.788,0.682,1.988e-6,-2.418,2.645,2.435e4,9851.919,18.414,0.1,2261.106,1932.21,1.993,0.178,1.183e7,1438.362,30.07,0.629,0.63,0.287,0.218,0.124,0.129,0.259,-4.956e-4,0,0,0,0,-0.002,0.008,165,213.825,84.91,-20.923,1.842,14.735,1008.47,340.228,0.05,0.033
2.591,43.824,62.59,47.659,63.007,47.914,5.104,-0.03,5.104,-0.339,7.229,4.929,22.175,120.893,9.788,0.708,4.352e-6,-2.315,2.42,2.422e4,9721.977,18.351,0.1,2260.549,1928.595,2.012,0.185,1.229e7,1429.136,32.507,0.629,0.63,0.287,0.218,0.124,0.134,0.271,1.501e-4,0,0,0,0,-0.002,0.009,165,213.825,84.905,-22.875,1.937,14.715,1008.11,340.216,0.05,0.034
2.641,47.013,64.983,47.949,65.409,48.207,5.47,-0.056,5.471,-0.588,7.458,4.984,22.175,120.893,9.788,0.757,3.942e-6,-2.152,2.204,2.409e4,9591.843,18.287,0.1,2259.407,1924.936,2.027,0.192,1.276e7,1431.244,35.061,0.63,0.631,0.287,0.218,0.125,0.144,0.292,3.278e-4,0,0,0,0,-0.001,0.009,165,213.825,84.882,-24.664,1.99,14.694,1007.736,340.204,0.05,0.034
2.691,50.322,67.384,48.13,67.821,48.394,5.848,-0.088,5.848,-0.861,7.686,5.049,22.175,120.893,9.788,0.832,4.615e-6,-1.886,2.017,2.396e4,9461.748,18.222,0.1,2257.568,1921.238,2.038,0.199,1.323e7,1430.823,37.734,0.63,0.631,0.287,0.218,0.125,0.158,0.324,4.429e-4,0,0,0,0,-8.909e-4,0.009,165,213.825,84.843,-26.238,1.99,14.673,1007.348,340.191,0.05,0.034
2.741,53.752,69.802,48.457,70.25,48.73,6.236,-0.126,6.237,-1.158,7.916,5.15,22.175,120.893,9.788,0.892,5.326e-6,-1.489,1.889,2.383e4,9331.363,18.157,0.1,2256.177,1917.492,2.053,0.206,1.37e7,1433.995,40.525,0.631,0.632,0.287,0.219,0.126,0.17,0.35,-1.42e-4,0,0,0,0,-5.176e-4,0.01,165,213.825,84.79,-27.537,1.981,14.651,1006.946,340.177,0.05,0.034
2.791,57.303,72.246,48.96,72.704,49.245,6.635,-0.171,6.637,-1.477,8.15,5.291,22.175,120.893,9.788,0.91,6.828e-6,-0.992,1.807,2.37e4,9200.305,18.091,0.099,2255.86,1913.685,2.074,0.213,1.418e7,1441.415,43.44,0.631,0.633,0.287,0.219,0.126,0.174,0.36,2.059e-4,0,0,0,0,-2.143e-4,0.01,165,213.825,84.724,-28.514,1.987,14.628,1006.529,340.163,0.05,0.034
2.841,60.977,74.711,49.4,75.18,49.7,7.045,-0.223,7.048,-1.816,8.39,5.452,22.175,120.893,9.788,0.816,6.39e-6,-0.462,1.76,2.357e4,9068.707,18.023,0.099,2258.477,1909.819,2.113,0.221,1.465e7,1447.346,46.455,0.632,0.633,0.286,0.219,0.126,0.155,0.328,6.276e-5,0,0,0,0,-4.353e-5,0.01,165,213.825,84.647,-29.138,2.105,14.604,1006.098,340.149,0.05,0.035
2.891,64.774,77.177,49.406,77.658,49.721,7.466,-0.283,7.472,-2.174,8.638,5.585,22.175,120.893,9.787,0.682,7.496e-6,-0.01,1.742,2.344e4,8937.495,17.955,0.099,2262.168,1905.922,2.159,0.228,1.513e7,1443.113,49.567,0.632,0.633,0.286,0.219,0.127,0.129,0.279,-4.213e-4,0,0,0,0,-1.892e-8,0.011,165,213.825,84.563,-29.42,2.252,14.579,1005.653,340.134,0.05,0.035
2.941,68.695,79.635,49.251,80.13,49.58,7.899,-0.351,7.907,-2.546,8.894,5.704,22.175,120.893,9.787,0.583,6.987e-6,0.362,1.761,2.331e4,8806.998,17.887,0.099,2264.97,1902.002,2.2,0.235,1.561e7,1435.232,52.787,0.633,0.634,0.286,0.22,0.127,0.11,0.242,-8.453e-5,0,0,0,0,2.347e-5,0.011,165,213.825,84.476,-29.396,2.332,14.553,1005.193,340.118,0.05,0.035
2.991,72.738,82.107,49.535,82.616,49.88,8.344,-0.427,8.355,-2.928,9.159,5.858,22.175,120.893,9.787,0.53,7.123e-6,0.714,1.814,2.318e4,8676.274,17.818,0.099,2266.549,1898.031,2.233,0.243,1.609e7,1437.734,56.146,0.634,0.634,0.286,0.22,0.128,0.1,0.223,-4.14e-4,0,0,0,0,8.613e-5,0.011,165,213.825,84.387,-29.098,2.323,14.527,1004.719,340.102,0.05,0.035
3.041,76.906,84.605,50.05,85.13,50.414,8.801,-0.51,8.816,-3.319,9.436,6.041,22.175,120.893,9.787,0.421,8.696e-6,0.899,1.955,2.305e4,8544.831,17.748,0.098,2269.665,1893.993,2.277,0.25,1.658e7,1445.651,59.638,0.634,0.635,0.286,0.22,0.128,0.079,0.18,4.633e-5,0,0,0,0,1.285e-4,0.012,165,213.825,84.3,-28.552,2.382,14.5,1004.23,340.086,0.05,0.035
3.091,81.199,87.122,50.424,87.663,50.804,9.272,-0.602,9.291,-3.714,9.724,6.202,22.175,120.893,9.787,0.338,9.845e-6,0.907,2.136,2.291e4,8412.968,17.677,0.098,2272.103,1889.896,2.316,0.257,1.706e7,1450.255,63.277,0.635,0.635,0.286,0.22,0.129,0.063,0.147,1.352e-4,0,0,0,0,1.233e-4,0.012,165,213.825,84.217,-27.802,2.393,14.472,1003.727,340.069,0.05,0.035
