# Time (s),Altitude (m),Vertical velocity (m/s),Vertical acceleration (m/s²),Total velocity (m/s),Total acceleration (m/s²),Position East of launch (m),Position North of launch (m),Lateral distance (m),Lateral direction (°),Lateral velocity (m/s),Lateral acceleration (m/s²),Latitude (°),Longitude (°),Gravitational acceleration (m/s²),Angle of attack (°),Roll rate (°/s),Pitch rate (°/s),Yaw rate (°/s),Mass (g),Motor mass (g),Longitudinal moment of inertia (kg·m²),Rotational moment of inertia (kg·m²),CP location (mm),CG location (mm),Stability margin calibers (​),Mach number (​),Reynolds number (​),Thrust (N),Drag force (N),Drag coefficient (​),Axial drag coefficient (​),Friction drag coefficient (​),Pressure drag coefficient (​),Base drag coefficient (​),Normal force coefficient (​),Pitch moment coefficient (​),Yaw moment coefficient (​),Side force coefficient (​),Roll moment coefficient (​),Roll forcing coefficient (​),Roll damping coefficient (​),Pitch damping coefficient (​),Coriolis acceleration (m/s²),Reference length (mm),Reference area (cm²),Vertical orientation (zenith) (°),Lateral orientation (azimuth) (°),Wind velocity (m/s),Air temperature (°C),Air pressure (mbar),Speed of sound (m/s),Simulation time step (s),Computation time (s)
0.01,-4.757e-4,-0.095,-9.511,0.096,9.563,-5e-5,0,5e-5,180,0.01,1,22.175,120.893,9.788,95.77,0,0,0,2.8e4,1.35e4,19.963,0.106,NaN,2019.994,NaN,0.01,6.999e5,4.784,-2.823e-4,0.701,-0.002,0.366,0.215,0.12,NaN,NaN,NaN,NaN,NaN,NaN,NaN,NaN,1.293e-5,165,213.825,84,0,3.56,15,1013.25,340.389,0.01,0.002
0.02,-4.761e-4,-0.095,-9.522,0.096,9.575,-5.004e-5,0,5.004e-5,180,0.01,1.001,22.175,120.893,9.788,95.757,0,0,0,2.8e4,1.35e4,19.963,0.106,NaN,2019.992,NaN,0.011,7.068e5,4.461,-2.857e-4,0.7,-0.002,0.365,0.215,0.12,NaN,NaN,NaN,NaN,NaN,NaN,NaN,NaN,1.294e-5,165,213.825,84,0,3.596,15,1013.25,340.389,0.01,0.002
0.03,-4.763e-4,-0.095,-9.526,0.096,9.579,-5.006e-5,0,5.006e-5,180,0.01,1.001,22.175,120.893,9.788,95.743,0,0,0,2.8e4,1.35e4,19.963,0.106,NaN,2019.991,NaN,0.011,7.137e5,4.343,-2.889e-4,0.699,-0.002,0.364,0.215,0.12,NaN,NaN,NaN,NaN,NaN,NaN,NaN,NaN,1.295e-5,165,213.825,84,0,3.631,15,1013.25,340.389,0.01,0.003
0.04,-4.765e-4,-0.095,-9.53,0.096,9.582,-5.008e-5,0,5.008e-5,180,0.01,1.002,22.175,120.893,9.788,95.729,0,0,0,2.8e4,1.35e4,19.963,0.106,NaN,2019.989,NaN,0.011,7.207e5,4.249,-2.922e-4,0.698,-0.002,0.363,0.215,0.12,NaN,NaN,NaN,NaN,NaN,NaN,NaN,NaN,1.295e-5,165,213.825,84,0,3.666,15,1013.25,340.389,0.01,0.003
0.05,-4.761e-4,-0.095,-9.523,0.096,9.575,-5.005e-5,0,5.005e-5,180,0.01,1.001,22.175,120.893,9.788,95.714,0,0,0,2.8e4,1.35e4,19.963,0.106,NaN,2019.988,NaN,0.011,7.276e5,4.443,-2.952e-4,0.698,-0.002,0.363,0.215,0.12,NaN,NaN,NaN,NaN,NaN,NaN,NaN,NaN,1.294e-5,165,213.825,84,0,3.702,15,1013.25,340.389,0.01,0.004
0.06,-4.757e-4,-0.095,-9.514,0.096,9.567,-5e-5,0,5e-5,180,0.01,1,22.175,120.893,9.788,95.721,0,0,0,2.8e4,1.35e4,19.963,0.106,NaN,2019.986,NaN,0.011,7.233e5,4.681,-2.93e-4,0.698,-0.002,0.363,0.215,0.12,NaN,NaN,NaN,NaN,NaN,NaN,NaN,NaN,1.293e-5,165,213.825,84,0,3.68,15,1013.25,340.389,0.01,0.004
0.07,-4.762e-4,-0.095,-9.523,0.096,9.576,-5.005e-5,0,5.005e-5,180,0.01,1.001,22.175,120.893,9.788,95.731,0,0,0,2.8e4,1.35e4,19.963,0.106,NaN,2019.984,NaN,0.011,7.19e5,4.438,-2.913e-4,0.699,-0.002,0.364,0.215,0.12,NaN,NaN,NaN,NaN,NaN,NaN,NaN,NaN,1.294e-5,165,213.825,84,0,3.658,15,1013.25,340.389,0.01,0.005
0.08,-4.761e-4,-0.095,-9.522,0.096,9.574,-5.004e-5,0,5.004e-5,180,0.01,1.001,22.175,120.893,9.788,95.74,0,0,0,2.8e4,1.35e4,19.963,0.106,NaN,2019.982,NaN,0.011,7.147e5,4.479,-2.893e-4,0.699,-0.002,0.364,0.215,0.12,NaN,NaN,NaN,NaN,NaN,NaN,NaN,NaN,1.294e-5,165,213.825,84,0,3.636,15,1013.25,340.389,0.01,0.005
0.09,-4.759e-4,-0.095,-9.517,0.096,9.57,-5.002e-5,0,5.002e-5,180,0.01,1,22.175,120.893,9.788,95.748,0,0,0,2.8e4,1.35e4,19.963,0.106,NaN,2019.981,NaN,0.011,7.104e5,4.603,-2.872e-4,0.7,-0.002,0.364,0.215,0.12,NaN,NaN,NaN,NaN,NaN,NaN,NaN,NaN,1.294e-5,165,213.825,84,0,3.614,15,1013.25,340.389,0.01,0.006
0.1,-4.764e-4,-0.095,-9.527,0.096,9.58,-5.007e-5,0,5.007e-5,180,0.01,1.001,22.175,120.893,9.788,95.759,0,0,0,2.8e4,1.35e4,19.963,0.106,NaN,2019.979,NaN,0.011,7.061e5,4.315,-2.855e-4,0.7,-0.002,0.365,0.215,0.12,NaN,NaN,NaN,NaN,NaN,NaN,NaN,NaN,1.295e-5,165,213.825,84,0,3.592,15,1013.25,340.389,0.01,0.006
0.11,-4.762e-4,-0.095,-9.523,0.096,9.576,-5.005e-5,0,5.005e-5,180,0.01,1.001,22.175,120.893,9.788,95.761,0,0,0,2.8e4,1.35e4,19.963,0.106,NaN,2019.977,NaN,0.011,7.052e5,4.431,-2.85e-4,0.7,-0.002,0.365,0.215,0.12,NaN,NaN,NaN,NaN,NaN,NaN,NaN,NaN,1.294e-5,165,213.825,84,0,3.587,15,1013.25,340.389,0.01,0.006
0.12,-4.762e-4,-0.095,-9.523,0.096,9.576,-5.005e-5,0,5.005e-5,180,0.01,1.001,22.175,120.893,9.788,95.763,0,0,0,2.8e4,1.35e4,19.962,0.106,NaN,2019.976,NaN,0.011,7.042e5,4.436,-2.846e-4,0.7,-0.002,0.365,0.215,0.12,NaN,NaN,NaN,NaN,NaN,NaN,NaN,NaN,1.294e-5,165,213.825,84,0,3.583,15,1013.25,340.389,0.01,0.007
0.13,-4.758e-4,-0.095,-9.517,0.096,9.569,-5.001e-5,0,5.001e-5,180,0.01,1,22.175,120.893,9.788,95.764,0,0,0,2.8e4,1.35e4,19.962,0.106,NaN,2019.974,NaN,0.011,7.033e5,4.62,-2.84e-4,0.7,-0.002,0.365,0.215,0.12,NaN,NaN,NaN,NaN,NaN,NaN,NaN,NaN,1.294e-5,165,213.825,84,0,3.578,15,1013.25,340.389,0.01,0.007
0.14,-4.762e-4,-0.095,-9.524,0.096,9.577,-5.005e-5,0,5.005e-5,180,0.01,1.001,22.175,120.893,9.788,95.767,0,0,0,2.8e4,1.35e4,19.962,0.106,NaN,2019.972,NaN,0.011,7.024e5,4.404,-2.837e-4,0.7,-0.002,0.365,0.215,0.12,NaN,NaN,NaN,NaN,NaN,NaN,NaN,NaN,1.295e-5,165,213.825,84,0,3.573,15,1013.25,340.389,0.01,0.008
0.15,-4.761e-4,-0.095,-9.523,0.096,9.575,-5.004e-5,0,5.004e-5,180,0.01,1.001,22.175,120.893,9.788,95.769,0,0,0,2.8e4,1.35e4,19.962,0.106,NaN,2019.97,NaN,0.011,7.015e5,4.444,-2.833e-4,0.7,-0.002,0.365,0.215,0.12,NaN,NaN,NaN,NaN,NaN,NaN,NaN,NaN,1.294e-5,165,213.825,84,0,3.568,15,1013.25,340.389,0.01,0.008
0.16,-4.758e-4,-0.095,-9.516,0.096,9.568,-5.001e-5,0,5.001e-5,180,0.01,1,22.175,120.893,9.788,95.753,0,0,0,2.8e4,1.35e4,19.962,0.106,NaN,2019.969,NaN,0.011,7.082e5,4.651,-2.862e-4,0.7,-0.002,0.365,0.215,0.12,NaN,NaN,NaN,NaN,NaN,NaN,NaN,NaN,1.293e-5,165,213.825,84,0,3.603,15,1013.25,340.389,0.01,0.009
0.17,-4.765e-4,-0.095,-9.531,0.096,9.583,-5.009e-5,0,5.009e-5,180,0.01,1.002,22.175,120.893,9.788,95.741,0,0,0,2.8e4,1.35e4,19.962,0.106,NaN,2019.967,NaN,0.011,7.15e5,4.218,-2.896e-4,0.699,-0.002,0.364,0.215,0.12,NaN,NaN,NaN,NaN,NaN,NaN,NaN,NaN,1.295e-5,165,213.825,84,0,3.637,15,1013.25,340.389,0.01,0.009
0.18,-4.765e-4,-0.095,-9.531,0.096,9.583,-5.009e-5,0,5.009e-5,180,0.01,1.002,22.175,120.893,9.788,95.727,0,0,0,2.8e4,1.35e4,19.962,0.106,NaN,2019.965,NaN,0.011,7.217e5,4.225,-2.927e-4,0.698,-0.002,0.363,0.215,0.12,NaN,NaN,NaN,NaN,NaN,NaN,NaN,NaN,1.295e-5,165,213.825,84,0,3.672,15,1013.25,340.389,0.01,0.009
0.19,-4.764e-4,-0.095,-9.527,0.096,9.58,-5.007e-5,0,5.007e-5,180,0.01,1.001,22.175,120.893,9.788,95.713,0,0,0,2.8e4,1.35e4,19.962,0.106,NaN,2019.964,NaN,0.011,7.285e5,4.321,-2.957e-4,0.698,-0.002,0.363,0.215,0.12,NaN,NaN,NaN,NaN,NaN,NaN,NaN,NaN,1.295e-5,165,213.825,84,0,3.706,15,1013.25,340.389,0.01,0.01
0.2,-4.766e-4,-0.095,-9.532,0.096,9.585,-5.01e-5,0,5.01e-5,180,0.01,1.002,22.175,120.893,9.788,95.7,0,0,0,2.8e4,1.35e4,19.962,0.106,NaN,2019.962,NaN,0.011,7.352e5,4.174,-2.99e-4,0.697,-0.002,0.362,0.215,0.12,NaN,NaN,NaN,NaN,NaN,NaN,NaN,NaN,1.296e-5,165,213.825,84,0,3.741,15,1013.25,340.389,0.01,0.01
0.21,-4.763e-4,-0.095,-9.525,0.096,9.578,-5.006e-5,0,5.006e-5,180,0.01,1.001,22.175,120.893,9.788,95.691,0,0,0,2.8e4,1.35e4,19.962,0.106,NaN,2019.961,NaN,0.011,7.389e5,4.381,-3.005e-4,0.697,-0.002,0.361,0.215,0.12,NaN,NaN,NaN,NaN,NaN,NaN,NaN,NaN,1.295e-5,165,213.825,84,0,3.759,15,1013.25,340.389,0.01,0.011
0.22,-4.758e-4,-0.095,-9.515,0.096,9.568,-5.001e-5,0,5.001e-5,180,0.01,1,22.175,120.893,9.788,95.683,0,0,0,2.8e4,1.35e4,19.962,0.106,NaN,2019.959,NaN,0.011,7.425e5,4.657,-3.019e-4,0.696,-0.002,0.361,0.215,0.12,NaN,NaN,NaN,NaN,NaN,NaN,NaN,NaN,1.293e-5,165,213.825,84,0,3.778,15,1013.25,340.389,0.01,0.011
0.23,-4.762e-4,-0.095,-9.525,0.096,9.577,-5.005e-5,0,5.005e-5,180,0.01,1.001,22.175,120.893,9.788,95.677,0,0,0,2.8e4,1.35e4,19.962,0.106,NaN,2019.957,NaN,0.011,7.461e5,4.392,-3.039e-4,0.696,-0.002,0.361,0.215,0.12,NaN,NaN,NaN,NaN,NaN,NaN,NaN,NaN,1.295e-5,165,213.825,84,0,3.796,15,1013.25,340.389,0.01,0.011
0.24,-4.76e-4,-0.095,-9.52,0.096,9.573,-5.003e-5,0,5.003e-5,180,0.01,1.001,22.175,120.893,9.788,95.67,0,0,0,2.8e4,1.35e4,19.962,0.106,NaN,2019.955,NaN,0.011,7.498e5,4.513,-3.055e-4,0.696,-0.002,0.36,0.215,0.12,NaN,NaN,NaN,NaN,NaN,NaN,NaN,NaN,1.294e-5,165,213.825,84,0,3.815,15,1013.25,340.389,0.01,0.012
0.25,-4.759e-4,-0.095,-9.518,0.096,9.57,-5.002e-5,0,5.002e-5,180,0.01,1,22.175,120.893,9.788,95.662,0,0,0,2.8e4,1.35e4,19.962,0.106,NaN,2019.954,NaN,0.011,7.534e5,4.587,-3.071e-4,0.695,-0.002,0.36,0.215,0.12,NaN,NaN,NaN,NaN,NaN,NaN,NaN,NaN,1.294e-5,165,213.825,84,0,3.833,15,1013.25,340.389,0.01,0.012
0.26,-4.762e-4,-0.095,-9.523,0.096,9.576,-5.005e-5,0,5.005e-5,180,0.01,1.001,22.175,120.893,9.788,95.667,0,0,0,2.8e4,1.35e4,19.962,0.106,NaN,2019.952,NaN,0.011,7.515e5,4.429,-3.063e-4,0.695,-0.002,0.36,0.215,0.12,NaN,NaN,NaN,NaN,NaN,NaN,NaN,NaN,1.294e-5,165,213.825,84,0,3.823,15,1013.25,340.389,0.01,0.013
0.27,-4.76e-4,-0.095,-9.52,0.096,9.572,-5.003e-5,0,5.003e-5,180,0.01,1.001,22.175,120.893,9.788,95.67,0,0,0,2.8e4,1.35e4,19.962,0.106,NaN,2019.95,NaN,0.011,7.495e5,4.527,-3.053e-4,0.696,-0.002,0.36,0.215,0.12,NaN,NaN,NaN,NaN,NaN,NaN,NaN,NaN,1.294e-5,165,213.825,84,0,3.813,15,1013.25,340.389,0.01,0.013
0.28,-4.761e-4,-0.095,-9.521,0.096,9.574,-5.004e-5,0,5.004e-5,180,0.01,1.001,22.175,120.893,9.788,95.674,0,0,0,2.8e4,1.35e4,19.962,0.106,NaN,2019.949,NaN,0.011,7.475e5,4.488,-3.044e-4,0.696,-0.002,0.361,0.215,0.12,NaN,NaN,NaN,NaN,NaN,NaN,NaN,NaN,1.294e-5,165,213.825,84,0,3.803,15,1013.25,340.389,0.01,0.013
0.29,-4.758e-4,-0.095,-9.517,0.096,9.569,-5.001e-5,0,5.001e-5,180,0.01,1,22.175,120.893,9.788,95.677,0,0,0,2.8e4,1.35e4,19.962,0.106,NaN,2019.947,NaN,0.011,7.456e5,4.616,-3.034e-4,0.696,-0.002,0.361,0.215,0.12,NaN,NaN,NaN,NaN,NaN,NaN,NaN,NaN,1.294e-5,165,213.825,84,0,3.793,15,1013.25,340.389,0.01,0.013
0.3,-4.76e-4,-0.095,-9.519,0.096,9.572,-5.003e-5,0,5.003e-5,180,0.01,1.001,22.175,120.893,9.788,95.681,0,0,0,2.8e4,1.35e4,19.962,0.106,NaN,2019.945,NaN,0.011,7.436e5,4.548,-3.025e-4,0.696,-0.002,0.361,0.215,0.12,NaN,NaN,NaN,NaN,NaN,NaN,NaN,NaN,1.294e-5,165,213.825,84,0,3.783,15,1013.25,340.389,0.01,0.014
0.31,-4.757e-4,-0.095,-9.514,0.096,9.566,-5e-5,0,5e-5,180,0.01,1,22.175,120.893,9.788,95.67,0,0,0,2.8e4,1.35e4,19.962,0.106,NaN,2019.943,NaN,0.011,7.492e5,4.706,-3.05e-4,0.696,-0.002,0.36,0.215,0.12,NaN,NaN,NaN,NaN,NaN,NaN,NaN,NaN,1.293e-5,165,213.825,84,0,3.812,15,1013.25,340.389,0.01,0.014
0.32,-4.763e-4,-0.095,-9.527,0.096,9.579,-5.007e-5,0,5.007e-5,180,0.01,1.001,22.175,120.893,9.788,95.661,0,0,0,2.8e4,1.35e4,19.962,0.106,NaN,2019.942,NaN,0.011,7.547e5,4.332,-3.079e-4,0.695,-0.002,0.36,0.215,0.12,NaN,NaN,NaN,NaN,NaN,NaN,NaN,NaN,1.295e-5,165,213.825,84,0,3.84,15,1013.25,340.389,0.01,0.014
0.33,-4.761e-4,-0.095,-9.521,0.096,9.574,-5.004e-5,0,5.004e-5,180,0.01,1.001,22.175,120.893,9.788,95.65,0,0,0,2.8e4,1.35e4,19.962,0.106,NaN,2019.94,NaN,0.011,7.603e5,4.483,-3.104e-4,0.695,-0.002,0.359,0.215,0.12,NaN,NaN,NaN,NaN,NaN,NaN,NaN,NaN,1.294e-5,165,213.825,84,0,3.868,15,1013.25,340.389,0.01,0.014
0.34,-4.759e-4,-0.095,-9.518,0.096,9.571,-5.002e-5,0,5.002e-5,180,0.01,1,22.175,120.893,9.788,95.639,0,0,0,2.8e4,1.35e4,19.962,0.106,NaN,2019.938,NaN,0.011,7.658e5,4.57,-3.13e-4,0.694,-0.002,0.359,0.215,0.12,NaN,NaN,NaN,NaN,NaN,NaN,NaN,NaN,1.294e-5,165,213.825,84,0,3.897,15,1013.25,340.389,0.01,0.015
0.35,-4.762e-4,-0.095,-9.524,0.096,9.576,-5.005e-5,0,5.005e-5,180,0.01,1.001,22.175,120.893,9.788,95.63,0,0,0,2.8e4,1.35e4,19.962,0.106,NaN,2019.936,NaN,0.012,7.714e5,4.419,-3.158e-4,0.693,-0.002,0.358,0.215,0.12,NaN,NaN,NaN,NaN,NaN,NaN,NaN,NaN,1.294e-5,165,213.825,84,0,3.925,15,1013.25,340.389,0.01,0.015
0.36,-4.764e-4,-0.095,-9.527,0.096,9.58,-5.007e-5,0,5.007e-5,180,0.01,1.001,22.175,120.893,9.788,95.645,0,0,0,2.8e4,1.35e4,19.962,0.106,NaN,2019.935,NaN,0.011,7.632e5,4.317,-3.12e-4,0.694,-0.002,0.359,0.215,0.12,NaN,NaN,NaN,NaN,NaN,NaN,NaN,NaN,1.295e-5,165,213.825,84,0,3.883,15,1013.25,340.389,0.01,0.015
0.37,-4.76e-4,-0.095,-9.52,0.096,9.573,-5.003e-5,0,5.003e-5,180,0.01,1.001,22.175,120.893,9.788,95.66,0,0,0,2.8e4,1.35e4,19.962,0.106,NaN,2019.933,NaN,0.011,7.55e5,4.522,-3.079e-4,0.695,-0.002,0.36,0.215,0.12,NaN,NaN,NaN,NaN,NaN,NaN,NaN,NaN,1.294e-5,165,213.825,84,0,3.842,15,1013.25,340.389,0.01,0.015
0.38,-4.762e-4,-0.095,-9.523,0.096,9.576,-5.005e-5,0,5.005e-5,180,0.01,1.001,22.175,120.893,9.788,95.676,0,0,0,2.8e4,1.35e4,19.962,0.106,NaN,2019.931,NaN,0.011,7.468e5,4.433,-3.041e-4,0.696,-0.002,0.361,0.215,0.12,NaN,NaN,NaN,NaN,NaN,NaN,NaN,NaN,1.294e-5,165,213.825,84,0,3.8,15,1013.25,340.389,0.01,0.016
0.39,-4.757e-4,-0.095,-9.515,0.096,9.567,-5e-5,0,5e-5,180,0.01,1,22.175,120.893,9.788,95.69,0,0,0,2.8e4,1.35e4,19.962,0.106,NaN,2019.93,NaN,0.011,7.387e5,4.673,-3.001e-4,0.697,-0.002,0.362,0.215,0.12,NaN,NaN,NaN,NaN,NaN,NaN,NaN,NaN,1.293e-5,165,213.825,84,0,3.758,15,1013.25,340.389,0.01,0.016
0.4,-4.755e-4,-0.095,-9.51,0.096,9.562,-4.998e-5,0,4.998e-5,180,0.01,1,22.175,120.893,9.788,95.706,0,0,0,2.8e4,1.35e4,19.962,0.106,NaN,2019.928,NaN,0.011,7.305e5,4.812,-2.962e-4,0.697,-0.002,0.362,0.215,0.12,NaN,NaN,NaN,NaN,NaN,NaN,NaN,NaN,1.293e-5,165,213.825,84,0,3.716,15,1013.25,340.389,0.01,0.016
0.41,-4.759e-4,-0.095,-9.518,0.096,9.57,-5.002e-5,0,5.002e-5,180,0.01,1,22.175,120.893,9.788,95.714,0,0,0,2.8e4,1.35e4,19.962,0.106,NaN,2019.926,NaN,0.011,7.27e5,4.595,-2.948e-4,0.698,-0.002,0.363,0.215,0.12,NaN,NaN,NaN,NaN,NaN,NaN,NaN,NaN,1.294e-5,165,213.825,84,0,3.699,15,1013.25,340.389,0.01,0.016
0.42,-4.758e-4,-0.095,-9.516,0.096,9.568,-5.001e-5,0,5.001e-5,180,0.01,1,22.175,120.893,9.788,95.721,0,0,0,2.8e4,1.35e4,19.962,0.106,NaN,2019.924,NaN,0.011,7.235e5,4.638,-2.932e-4,0.698,-0.002,0.363,0.215,0.12,NaN,NaN,NaN,NaN,NaN,NaN,NaN,NaN,1.293e-5,165,213.825,84,0,3.681,15,1013.25,340.389,0.01,0.017
0.43,-4.755e-4,-0.095,-9.51,0.096,9.562,-4.998e-5,0,4.998e-5,180,0.01,1,22.175,120.893,9.788,95.727,0,0,0,2.8e4,1.35e4,19.962,0.106,NaN,2019.922,NaN,0.011,7.2e5,4.811,-2.914e-4,0.699,-0.002,0.363,0.215,0.12,NaN,NaN,NaN,NaN,NaN,NaN,NaN,NaN,1.293e-5,165,213.825,84,0,3.663,15,1013.25,340.389,0.01,0.017
0.44,-4.753e-4,-0.095,-9.506,0.096,9.558,-4.996e-5,0,4.996e-5,180,0.01,0.999,22.175,120.893,9.788,95.734,0,0,0,2.8e4,1.35e4,19.962,0.106,NaN,2019.921,NaN,0.011,7.166e5,4.919,-2.898e-4,0.699,-0.002,0.364,0.215,0.12,NaN,NaN,NaN,NaN,NaN,NaN,NaN,NaN,1.292e-5,165,213.825,84,0,3.645,15,1013.25,340.389,0.01,0.017
0.45,-4.759e-4,-0.095,-9.518,0.096,9.57,-5.002e-5,0,5.002e-5,180,0.01,1,22.175,120.893,9.788,95.743,0,0,0,2.8e4,1.35e4,19.961,0.106,NaN,2019.919,NaN,0.011,7.131e5,4.583,-2.884e-4,0.699,-0.002,0.364,0.215,0.12,NaN,NaN,NaN,NaN,NaN,NaN,NaN,NaN,1.294e-5,165,213.825,84,0,3.628,15,1013.25,340.389,0.01,0.017
0.46,-4.762e-4,-0.095,-9.523,0.096,9.576,-5.005e-5,0,5.005e-5,180,0.01,1.001,22.175,120.893,9.788,95.76,0,0,0,2.8e4,1.35e4,19.961,0.106,NaN,2019.917,NaN,0.011,7.057e5,4.429,-2.852e-4,0.7,-0.002,0.365,0.215,0.12,NaN,NaN,NaN,NaN,NaN,NaN,NaN,NaN,1.294e-5,165,213.825,84,0,3.59,15,1013.25,340.389,0.01,0.017
0.47,-4.761e-4,-0.095,-9.523,0.096,9.575,-5.004e-5,0,5.004e-5,180,0.01,1.001,22.175,120.893,9.788,95.776,0,0,0,2.8e4,1.35e4,19.961,0.106,NaN,2019.915,NaN,0.01,6.983e5,4.45,-2.819e-4,0.701,-0.002,0.366,0.215,0.12,NaN,NaN,NaN,NaN,NaN,NaN,NaN,NaN,1.294e-5,165,213.825,84,0,3.552,15,1013.25,340.389,0.01,0.018
0.48,-4.753e-4,-0.095,-9.506,0.096,9.559,-4.996e-5,0,4.996e-5,180,0.01,0.999,22.175,120.893,9.788,95.789,0,0,0,2.8e4,1.35e4,19.961,0.106,NaN,2019.914,NaN,0.01,6.908e5,4.905,-2.782e-4,0.702,-0.002,0.367,0.215,0.12,NaN,NaN,NaN,NaN,NaN,NaN,NaN,NaN,1.292e-5,165,213.825,84,0,3.514,15,1013.25,340.389,0.01,0.018
0.49,-4.756e-4,-0.095,-9.512,0.096,9.565,-4.999e-5,0,4.999e-5,180,0.01,1,22.175,120.893,9.788,95.807,0,0,0,2.8e4,1.35e4,19.961,0.106,NaN,2019.912,NaN,0.01,6.834e5,4.746,-2.75e-4,0.702,-0.002,0.367,0.215,0.12,NaN,NaN,NaN,NaN,NaN,NaN,NaN,NaN,1.293e-5,165,213.825,84,0,3.476,15,1013.25,340.389,0.01,0.018
0.5,-4.761e-4,-0.095,-9.522,0.096,9.574,-5.004e-5,0,5.004e-5,180,0.01,1.001,22.175,120.893,9.788,95.826,0,0,0,2.8e4,1.35e4,19.961,0.106,NaN,2019.91,NaN,0.01,6.76e5,4.47,-2.72e-4,0.703,-0.002,0.368,0.215,0.12,NaN,NaN,NaN,NaN,NaN,NaN,NaN,NaN,1.294e-5,165,213.825,84,0,3.438,15,1013.25,340.389,0.01,0.018
0.51,-4.758e-4,-0.095,-9.515,0.096,9.568,-5.001e-5,0,5.001e-5,180,0.01,1,22.175,120.893,9.788,95.802,0,0,0,2.8e4,1.35e4,19.961,0.106,NaN,2019.908,NaN,0.01,6.859e5,4.657,-2.762e-4,0.702,-0.002,0.367,0.215,0.12,NaN,NaN,NaN,NaN,NaN,NaN,NaN,NaN,1.293e-5,165,213.825,84,0,3.489,15,1013.25,340.389,0.01,0.019
0.52,-4.75e-4,-0.095,-9.499,0.096,9.551,-4.992e-5,0,4.992e-5,180,0.01,0.998,22.175,120.893,9.788,95.777,0,0,0,2.8e4,1.35e4,19.961,0.106,NaN,2019.906,NaN,0.01,6.959e5,5.115,-2.802e-4,0.701,-0.002,0.366,0.215,0.12,NaN,NaN,NaN,NaN,NaN,NaN,NaN,NaN,1.291e-5,165,213.825,84,0,3.54,15,1013.25,340.389,0.01,0.019
0.53,-4.746e-4,-0.095,-9.491,0.095,9.543,-4.988e-5,0,4.988e-5,180,0.01,0.998,22.175,120.893,9.788,95.754,0,0,0,2.8e4,1.35e4,19.961,0.106,NaN,2019.904,NaN,0.011,7.058e5,5.339,-2.845e-4,0.7,-0.002,0.365,0.215,0.12,NaN,NaN,NaN,NaN,NaN,NaN,NaN,NaN,1.29e-5,165,213.825,84,0,3.591,15,1013.25,340.389,0.01,0.019
0.54,-4.758e-4,-0.095,-9.516,0.096,9.568,-5.001e-5,0,5.001e-5,180,0.01,1,22.175,120.893,9.788,95.737,0,0,0,2.8e4,1.35e4,19.961,0.106,NaN,2019.903,NaN,0.011,7.157e5,4.638,-2.896e-4,0.699,-0.002,0.364,0.215,0.12,NaN,NaN,NaN,NaN,NaN,NaN,NaN,NaN,1.293e-5,165,213.825,84,0,3.641,15,1013.25,340.389,0.01,0.019
0.55,-4.755e-4,-0.095,-9.509,0.096,9.562,-4.997e-5,0,4.997e-5,180,0.01,0.999,22.175,120.893,9.788,95.715,0,0,0,2.8e4,1.35e4,19.961,0.106,NaN,2019.901,NaN,0.011,7.257e5,4.82,-2.94e-4,0.698,-0.002,0.363,0.215,0.12,NaN,NaN,NaN,NaN,NaN,NaN,NaN,NaN,1.293e-5,165,213.825,84,0,3.692,15,1013.25,340.389,0.01,0.019
0.56,-4.749e-4,-0.095,-9.498,0.096,9.55,-4.991e-5,0,4.991e-5,180,0.01,0.998,22.175,120.893,9.788,95.705,0,0,0,2.8e4,1.35e4,19.961,0.106,NaN,2019.899,NaN,0.011,7.298e5,5.14,-2.956e-4,0.698,-0.002,0.362,0.215,0.12,NaN,NaN,NaN,NaN,NaN,NaN,NaN,NaN,1.291e-5,165,213.825,84,0,3.713,15,1013.25,340.389,0.01,0.02
0.57,-4.749e-4,-0.095,-9.497,0.095,9.55,-4.991e-5,0,4.991e-5,180,0.01,0.998,22.175,120.893,9.788,95.697,0,0,0,2.8e4,1.35e4,19.961,0.106,NaN,2019.897,NaN,0.011,7.34e5,5.164,-2.975e-4,0.697,-0.002,0.362,0.215,0.12,NaN,NaN,NaN,NaN,NaN,NaN,NaN,NaN,1.291e-5,165,213.825,84,0,3.734,15,1013.25,340.389,0.01,0.02
0.58,-4.749e-4,-0.095,-9.499,0.096,9.551,-4.992e-5,0,4.992e-5,180,0.01,0.998,22.175,120.893,9.788,95.689,0,0,0,2.8e4,1.35e4,19.961,0.106,NaN,2019.895,NaN,0.011,7.381e5,5.125,-2.995e-4,0.697,-0.002,0.362,0.215,0.12,NaN,NaN,NaN,NaN,NaN,NaN,NaN,NaN,1.291e-5,165,213.825,84,0,3.756,15,1013.25,340.389,0.01,0.02
0.59,-4.746e-4,-0.095,-9.493,0.095,9.545,-4.989e-5,0,4.989e-5,180,0.01,0.998,22.175,120.893,9.788,95.68,0,0,0,2.8e4,1.35e4,19.961,0.106,NaN,2019.893,NaN,0.011,7.423e5,5.296,-3.013e-4,0.696,-0.002,0.361,0.215,0.12,NaN,NaN,NaN,NaN,NaN,NaN,NaN,NaN,1.29e-5,165,213.825,84,0,3.777,15,1013.25,340.389,0.01,0.02
0.6,-4.741e-4,-0.095,-9.483,0.095,9.535,-4.983e-5,0,4.983e-5,180,0.01,0.997,22.175,120.893,9.788,95.67,0,0,0,2.8e4,1.349e4,19.961,0.106,NaN,2019.891,NaN,0.011,7.465e5,5.567,-3.03e-4,0.696,-0.002,0.361,0.215,0.12,NaN,NaN,NaN,NaN,NaN,NaN,NaN,NaN,1.289e-5,165,213.825,84,0,3.798,15,1013.25,340.389,0.01,0.02
0.61,-4.739e-4,-0.095,-9.478,0.095,9.53,-4.981e-5,0,4.981e-5,180,0.01,0.996,22.175,120.893,9.788,95.678,0,0,0,2.8e4,1.349e4,19.961,0.106,NaN,2019.889,NaN,0.011,7.423e5,5.717,-3.009e-4,0.696,-0.002,0.361,0.215,0.12,NaN,NaN,NaN,NaN,NaN,NaN,NaN,NaN,1.288e-5,165,213.825,84,0,3.777,15,1013.25,340.389,0.01,0.021
0.62,-4.745e-4,-0.095,-9.49,0.095,9.542,-4.987e-5,0,4.987e-5,180,0.01,0.997,22.175,120.893,9.788,95.688,0,0,0,2.8e4,1.349e4,19.961,0.106,NaN,2019.887,NaN,0.011,7.381e5,5.366,-2.993e-4,0.697,-0.002,0.362,0.215,0.12,NaN,NaN,NaN,NaN,NaN,NaN,NaN,NaN,1.29e-5,165,213.825,84,0,3.755,15,1013.25,340.389,0.01,0.021
0.63,-4.737e-4,-0.095,-9.473,0.095,9.525,-4.978e-5,0,4.978e-5,180,0.01,0.996,22.175,120.893,9.788,95.693,0,0,0,2.799e4,1.349e4,19.961,0.106,NaN,2019.884,NaN,0.011,7.34e5,5.844,-2.97e-4,0.697,-0.002,0.362,0.215,0.12,NaN,NaN,NaN,NaN,NaN,NaN,NaN,NaN,1.288e-5,165,213.825,84,0,3.734,15,1013.25,340.389,0.01,0.021
0.64,-4.738e-4,-0.095,-9.475,0.095,9.527,-4.979e-5,0,4.979e-5,180,0.01,0.996,22.175,120.893,9.788,95.702,0,0,0,2.799e4,1.349e4,19.961,0.106,NaN,2019.882,NaN,0.011,7.298e5,5.786,-2.951e-4,0.698,-0.002,0.362,0.215,0.12,NaN,NaN,NaN,NaN,NaN,NaN,NaN,NaN,1.288e-5,165,213.825,84,0,3.713,15,1013.25,340.389,0.01,0.021
0.65,-4.734e-4,-0.095,-9.469,0.095,9.521,-4.976e-5,0,4.976e-5,180,0.01,0.995,22.175,120.893,9.788,95.709,0,0,0,2.799e4,1.349e4,19.961,0.106,NaN,2019.88,NaN,0.011,7.256e5,5.968,-2.93e-4,0.698,-0.002,0.363,0.215,0.12,NaN,NaN,NaN,NaN,NaN,NaN,NaN,NaN,1.287e-5,165,213.825,84,0,3.692,15,1013.25,340.389,0.01,0.022
0.66,-4.724e-4,-0.094,-9.448,0.095,9.5,-4.965e-5,0,4.965e-5,180,0.01,0.993,22.175,120.893,9.788,95.683,0,0,0,2.799e4,1.349e4,19.961,0.106,NaN,2019.877,NaN,0.011,7.372e5,6.551,-2.979e-4,0.697,-0.002,0.362,0.215,0.12,NaN,NaN,NaN,NaN,NaN,NaN,NaN,NaN,1.284e-5,165,213.825,84,0,3.751,15,1013.25,340.389,0.01,0.022
0.67,-4.721e-4,-0.094,-9.442,0.095,9.494,-4.962e-5,0,4.962e-5,180,0.01,0.992,22.175,120.893,9.788,95.66,0,0,0,2.799e4,1.349e4,19.961,0.106,NaN,2019.875,NaN,0.011,7.489e5,6.72,-3.032e-4,0.696,-0.002,0.36,0.215,0.12,NaN,NaN,NaN,NaN,NaN,NaN,NaN,NaN,1.283e-5,165,213.825,84,0,3.81,15,1013.25,340.389,0.01,0.022
0.68,-4.711e-4,-0.094,-9.421,0.095,9.473,-4.951e-5,0,4.951e-5,180,0.01,0.99,22.175,120.893,9.788,95.635,0,0,0,2.799e4,1.349e4,19.961,0.106,NaN,2019.872,NaN,0.011,7.605e5,7.299,-3.081e-4,0.694,-0.002,0.359,0.215,0.12,NaN,NaN,NaN,NaN,NaN,NaN,NaN,NaN,1.281e-5,165,213.825,84,0,3.87,15,1013.25,340.389,0.01,0.022
0.69,-4.708e-4,-0.094,-9.415,0.095,9.467,-4.948e-5,0,4.948e-5,180,0.01,0.99,22.175,120.893,9.788,95.613,0,0,0,2.799e4,1.349e4,19.961,0.106,NaN,2019.869,NaN,0.012,7.721e5,7.467,-3.135e-4,0.693,-0.002,0.358,0.215,0.12,NaN,NaN,NaN,NaN,NaN,NaN,NaN,NaN,1.28e-5,165,213.825,84,0,3.929,15,1013.25,340.389,0.01,0.022
0.7,-4.699e-4,-0.094,-9.398,0.095,9.45,-4.939e-5,0,4.939e-5,180,0.01,0.988,22.175,120.893,9.788,95.59,0,0,0,2.799e4,1.349e4,19.961,0.106,NaN,2019.866,NaN,0.012,7.837e5,7.951,-3.187e-4,0.692,-0.002,0.357,0.215,0.12,NaN,NaN,NaN,NaN,NaN,NaN,NaN,NaN,1.277e-5,165,213.825,84,0,3.988,15,1013.25,340.389,0.01,0.023
0.71,-4.682e-4,-0.094,-9.363,0.094,9.415,-4.921e-5,0,4.921e-5,180,0.01,0.984,22.175,120.893,9.788,95.602,0,0,0,2.799e4,1.349e4,19.96,0.106,NaN,2019.863,NaN,0.012,7.737e5,8.938,-3.13e-4,0.693,-0.002,0.358,0.215,0.12,NaN,NaN,NaN,NaN,NaN,NaN,NaN,NaN,1.273e-5,165,213.825,84,0,3.937,15,1013.25,340.389,0.01,0.023
0.72,-4.676e-4,-0.094,-9.352,0.094,9.403,-4.915e-5,0,4.915e-5,180,0.01,0.983,22.175,120.893,9.788,95.619,0,0,0,2.799e4,1.349e4,19.96,0.106,NaN,2019.859,NaN,0.011,7.637e5,9.255,-3.08e-4,0.694,-0.002,0.359,0.215,0.12,NaN,NaN,NaN,NaN,NaN,NaN,NaN,NaN,1.271e-5,165,213.825,84,0,3.886,15,1013.25,340.389,0.01,0.023
0.73,-4.659e-4,-0.093,-9.319,0.094,9.37,-4.897e-5,0,4.897e-5,180,0.01,0.979,22.175,120.893,9.788,95.632,0,0,0,2.799e4,1.349e4,19.96,0.106,NaN,2019.855,NaN,0.011,7.537e5,10.185,-3.025e-4,0.695,-0.002,0.36,0.215,0.12,NaN,NaN,NaN,NaN,NaN,NaN,NaN,NaN,1.267e-5,165,213.825,84,0,3.835,15,1013.25,340.389,0.01,0.023
0.74,-4.64e-4,-0.093,-9.28,0.093,9.331,-4.877e-5,0,4.877e-5,180,0.01,0.975,22.175,120.893,9.788,95.645,0,0,0,2.799e4,1.349e4,19.96,0.106,NaN,2019.851,NaN,0.011,7.436e5,11.275,-2.969e-4,0.696,-0.002,0.361,0.215,0.12,NaN,NaN,NaN,NaN,NaN,NaN,NaN,NaN,1.261e-5,165,213.825,84,0,3.784,15,1013.25,340.389,0.01,0.023
0.75,-4.621e-4,-0.092,-9.243,0.093,9.294,-4.857e-5,0,4.857e-5,180,0.01,0.971,22.175,120.893,9.788,95.659,0,0,0,2.799e4,1.349e4,19.96,0.106,NaN,2019.846,NaN,0.011,7.336e5,12.322,-2.914e-4,0.697,-0.002,0.362,0.215,0.12,NaN,NaN,NaN,NaN,NaN,NaN,NaN,NaN,1.256e-5,165,213.825,84,0,3.733,15,1013.25,340.389,0.01,0.024
0.76,-4.598e-4,-0.092,-9.195,0.092,9.246,-4.832e-5,0,4.832e-5,180,0.01,0.966,22.175,120.893,9.788,95.666,0,0,0,2.799e4,1.349e4,19.96,0.106,NaN,2019.841,NaN,0.011,7.259e5,13.663,-2.868e-4,0.698,-0.002,0.363,0.215,0.12,NaN,NaN,NaN,NaN,NaN,NaN,NaN,NaN,1.25e-5,165,213.825,84,0,3.693,15,1013.25,340.389,0.01,0.024
0.77,-4.586e-4,-0.092,-9.173,0.092,9.223,-4.82e-5,0,4.82e-5,180,0.01,0.964,22.175,120.893,9.788,95.678,0,0,0,2.799e4,1.349e4,19.96,0.106,NaN,2019.836,NaN,0.011,7.182e5,14.302,-2.828e-4,0.699,-0.002,0.364,0.215,0.12,NaN,NaN,NaN,NaN,NaN,NaN,NaN,NaN,1.247e-5,165,213.825,84,0,3.654,15,1013.25,340.389,0.01,0.024
0.78,-4.56e-4,-0.091,-9.12,0.092,9.171,-4.793e-5,0,4.793e-5,180,0.01,0.959,22.175,120.893,9.788,95.685,0,0,0,2.799e4,1.349e4,19.96,0.106,NaN,2019.83,NaN,0.011,7.105e5,15.77,-2.781e-4,0.7,-0.002,0.364,0.215,0.12,NaN,NaN,NaN,NaN,NaN,NaN,NaN,NaN,1.24e-5,165,213.825,84,0,3.615,15,1013.25,340.389,0.01,0.024
0.79,-4.54e-4,-0.091,-9.079,0.091,9.129,-4.771e-5,0,4.771e-5,180,0.01,0.954,22.175,120.893,9.788,95.694,0,0,0,2.799e4,1.349e4,19.96,0.106,NaN,2019.823,NaN,0.011,7.028e5,16.927,-2.738e-4,0.7,-0.002,0.365,0.215,0.12,NaN,NaN,NaN,NaN,NaN,NaN,NaN,NaN,1.234e-5,165,213.825,84,0,3.576,15,1013.25,340.389,0.01,0.024
0.8,-4.518e-4,-0.09,-9.037,0.091,9.087,-4.749e-5,0,4.749e-5,180,0.009,0.95,22.175,120.893,9.788,95.704,0,0,0,2.799e4,1.349e4,19.96,0.106,NaN,2019.816,NaN,0.01,6.951e5,18.121,-2.694e-4,0.701,-0.002,0.366,0.215,0.12,NaN,NaN,NaN,NaN,NaN,NaN,NaN,NaN,1.228e-5,165,213.825,84,0,3.537,15,1013.25,340.389,0.01,0.025
0.81,-4.495e-4,-0.09,-8.99,0.09,9.04,-4.725e-5,0,4.725e-5,180,0.009,0.945,22.175,120.893,9.788,95.679,0,0,0,2.799e4,1.349e4,19.96,0.106,NaN,2019.809,NaN,0.011,7.032e5,19.438,-2.719e-4,0.7,-0.002,0.365,0.215,0.12,NaN,NaN,NaN,NaN,NaN,NaN,NaN,NaN,1.222e-5,165,213.825,84,0,3.578,15,1013.25,340.389,0.01,0.025
0.82,-4.482e-4,-0.09,-8.965,0.09,9.014,-4.711e-5,0,4.711e-5,180,0.009,0.942,22.175,120.893,9.788,95.659,0,0,0,2.799e4,1.349e4,19.959,0.106,NaN,2019.801,NaN,0.011,7.113e5,20.155,-2.749e-4,0.699,-0.002,0.364,0.215,0.12,NaN,NaN,NaN,NaN,NaN,NaN,NaN,NaN,1.218e-5,165,213.825,84,0,3.619,15,1013.25,340.389,0.01,0.025
0.83,-4.434e-4,-0.089,-8.867,0.089,8.916,-4.66e-5,0,4.66e-5,180,0.009,0.932,22.175,120.893,9.788,95.628,0,0,0,2.799e4,1.349e4,19.959,0.106,NaN,2019.793,NaN,0.011,7.193e5,22.899,-2.763e-4,0.699,-0.002,0.363,0.215,0.12,NaN,NaN,NaN,NaN,NaN,NaN,NaN,NaN,1.205e-5,165,213.825,84,0,3.66,15,1013.25,340.389,0.01,0.025
0.84,-4.345e-4,-0.087,-8.69,0.087,8.738,-4.567e-5,0,4.567e-5,180,0.009,0.913,22.175,120.893,9.788,95.585,0,0,0,2.799e4,1.349e4,19.959,0.106,NaN,2019.782,NaN,0.011,7.274e5,27.886,-2.759e-4,0.698,-0.002,0.363,0.215,0.12,NaN,NaN,NaN,NaN,NaN,NaN,NaN,NaN,1.181e-5,165,213.825,84,0,3.701,15,1013.25,340.389,0.01,0.026
0.85,-4.271e-4,-0.085,-8.542,0.086,8.589,-4.489e-5,0,4.489e-5,180,0.009,0.898,22.175,120.893,9.788,95.548,0,0,0,2.799e4,1.349e4,19.959,0.106,NaN,2019.77,NaN,0.011,7.354e5,32.036,-2.762e-4,0.697,-0.001,0.362,0.215,0.12,NaN,NaN,NaN,NaN,NaN,NaN,NaN,NaN,1.161e-5,165,213.825,84,0,3.743,15,1013.25,340.389,0.01,0.026
0.86,-4.194e-4,-0.084,-8.388,0.084,8.434,-4.408e-5,0,4.408e-5,180,0.009,0.882,22.175,120.893,9.788,95.533,0,0,0,2.799e4,1.349e4,19.959,0.106,NaN,2019.756,NaN,0.011,7.304e5,36.392,-2.705e-4,0.697,-0.001,0.362,0.215,0.12,NaN,NaN,NaN,NaN,NaN,NaN,NaN,NaN,1.14e-5,165,213.825,84,0,3.717,15,1013.25,340.389,0.01,0.026
0.87,-4.119e-4,-0.082,-8.239,0.083,8.284,-4.33e-5,0,4.33e-5,180,0.009,0.866,22.175,120.893,9.788,95.519,0,0,0,2.799e4,1.349e4,19.958,0.106,NaN,2019.74,NaN,0.011,7.253e5,40.581,-2.65e-4,0.698,-0.001,0.363,0.215,0.12,NaN,NaN,NaN,NaN,NaN,NaN,NaN,NaN,1.12e-5,165,213.825,84,0,3.691,15,1013.25,340.389,0.01,0.026
0.88,-4.047e-4,-0.081,-8.093,0.081,8.138,-4.253e-5,0,4.253e-5,180,0.009,0.851,22.175,120.893,9.788,95.505,0,0,0,2.799e4,1.349e4,19.958,0.106,NaN,2019.723,NaN,0.011,7.203e5,44.682,-2.596e-4,0.699,-0.001,0.363,0.215,0.12,NaN,NaN,NaN,NaN,NaN,NaN,NaN,NaN,1.1e-5,165,213.825,84,0,3.666,15,1013.25,340.389,0.01,0.026
0.89,-3.982e-4,-0.08,-7.965,0.08,8.008,-4.186e-5,0,4.186e-5,180,0.008,0.837,22.175,120.893,9.788,95.494,0,0,0,2.799e4,1.349e4,19.958,0.106,NaN,2019.705,NaN,0.011,7.152e5,48.294,-2.546e-4,0.699,-0.001,0.364,0.215,0.12,NaN,NaN,NaN,NaN,NaN,NaN,NaN,NaN,1.083e-5,165,213.825,84,0,3.64,15,1013.25,340.389,0.01,0.026
0.9,-3.921e-4,-0.078,-7.842,0.079,7.885,-4.121e-5,0,4.121e-5,180,0.008,0.824,22.175,120.893,9.788,95.483,0,0,0,2.799e4,1.349e4,19.957,0.106,NaN,2019.685,NaN,0.011,7.102e5,51.752,-2.498e-4,0.7,-0.001,0.364,0.215,0.12,NaN,NaN,NaN,NaN,NaN,NaN,NaN,NaN,1.066e-5,165,213.825,84,0,3.614,15,1013.25,340.389,0.01,0.027
0.91,-3.84e-4,-0.077,-7.679,0.077,7.722,-4.036e-5,0,4.036e-5,180,0.008,0.807,22.175,120.893,9.788,95.463,0,0,0,2.798e4,1.348e4,19.957,0.106,NaN,2019.664,NaN,0.011,7.068e5,56.319,-2.449e-4,0.7,-0.001,0.365,0.215,0.12,NaN,NaN,NaN,NaN,NaN,NaN,NaN,NaN,1.044e-5,165,213.825,84,0,3.598,15,1013.25,340.389,0.01,0.027
0.92,-3.761e-4,-0.075,-7.522,0.076,7.563,-3.953e-5,0,3.953e-5,180,0.008,0.791,22.175,120.893,9.788,95.444,0,0,0,2.798e4,1.348e4,19.957,0.106,NaN,2019.641,NaN,0.011,7.035e5,60.748,-2.402e-4,0.7,-0.001,0.365,0.215,0.12,NaN,NaN,NaN,NaN,NaN,NaN,NaN,NaN,1.022e-5,165,213.825,84,0,3.581,15,1013.25,340.389,0.01,0.027
0.93,-3.643e-4,-0.073,-7.286,0.073,7.326,-3.829e-5,0,3.829e-5,180,0.008,0.766,22.175,120.893,9.788,95.411,0,0,0,2.798e4,1.348e4,19.956,0.106,NaN,2019.615,NaN,0.01,7.002e5,67.387,-2.34e-4,0.701,-0.001,0.365,0.215,0.12,NaN,NaN,NaN,NaN,NaN,NaN,NaN,NaN,9.903e-6,165,213.825,84,0,3.564,15,1013.25,340.389,0.01,0.027
0.94,-3.499e-4,-0.07,-6.999,0.07,7.037,-3.678e-5,0,3.678e-5,180,0.007,0.736,22.175,120.893,9.788,95.37,0,0,0,2.798e4,1.348e4,19.956,0.106,NaN,2019.586,NaN,0.01,6.969e5,75.455,-2.268e-4,0.701,-0.001,0.366,0.215,0.12,NaN,NaN,NaN,NaN,NaN,NaN,NaN,NaN,9.513e-6,165,213.825,84,0,3.547,15,1013.25,340.389,0.01,0.028
0.95,-3.337e-4,-0.067,-6.673,0.067,6.71,-3.507e-5,0,3.507e-5,180,0.007,0.701,22.175,120.893,9.788,95.323,0,0,0,2.798e4,1.348e4,19.955,0.106,NaN,2019.554,NaN,0.01,6.935e5,84.603,-2.189e-4,0.701,-0.001,0.366,0.215,0.12,NaN,NaN,NaN,NaN,NaN,NaN,NaN,NaN,9.071e-6,165,213.825,84,0,3.531,15,1013.25,340.389,0.01,0.028
0.96,-3.135e-4,-0.063,-6.271,0.063,6.305,-3.295e-5,0,3.295e-5,180,0.007,0.659,22.175,120.893,9.788,95.27,0,0,0,2.798e4,1.348e4,19.954,0.106,NaN,2019.517,NaN,0.01,6.854e5,95.934,-2.078e-4,0.702,-0.001,0.367,0.215,0.12,NaN,NaN,NaN,NaN,NaN,NaN,NaN,NaN,8.523e-6,165,213.825,84,0,3.49,15,1013.25,340.389,0.01,0.028
0.97,-2.933e-4,-0.059,-5.865,0.059,5.898,-3.082e-5,0,3.082e-5,180,0.006,0.616,22.175,120.893,9.788,95.215,0,0,0,2.798e4,1.348e4,19.954,0.106,NaN,2019.476,NaN,0.01,6.772e5,107.326,-1.97e-4,0.703,-0.001,0.368,0.215,0.12,NaN,NaN,NaN,NaN,NaN,NaN,NaN,NaN,7.972e-6,165,213.825,84,0,3.448,15,1013.25,340.389,0.01,0.028
0.98,-2.671e-4,-0.053,-5.342,0.054,5.372,-2.808e-5,0,2.808e-5,180,0.006,0.561,22.175,120.893,9.788,95.139,0,0,0,2.797e4,1.347e4,19.953,0.106,NaN,2019.43,NaN,0.01,6.691e5,122.033,-1.844e-4,0.704,-0.001,0.369,0.215,0.12,NaN,NaN,NaN,NaN,NaN,NaN,NaN,NaN,7.261e-6,165,213.825,84,0,3.407,15,1013.25,340.389,0.01,0.028
0.99,-2.333e-4,-0.047,-4.667,0.047,4.692,-2.453e-5,0,2.453e-5,180,0.005,0.49,22.175,120.893,9.788,95.034,0,0,0,2.797e4,1.347e4,19.952,0.106,NaN,2019.376,NaN,0.01,6.609e5,141.022,-1.696e-4,0.705,-0.001,0.37,0.215,0.12,NaN,NaN,NaN,NaN,NaN,NaN,NaN,NaN,6.343e-6,165,213.825,84,0,3.366,15,1013.25,340.389,0.01,0.029
1,-1.839e-4,-0.037,-3.678,0.037,3.699,-1.933e-5,0,1.933e-5,180,0.004,0.387,22.175,120.893,9.788,94.874,0,0,0,2.797e4,1.347e4,19.951,0.106,NaN,2019.312,NaN,0.01,6.526e5,168.795,-1.505e-4,0.706,-0.001,0.371,0.215,0.12,NaN,NaN,NaN,NaN,NaN,NaN,NaN,NaN,5e-6,165,213.825,84,0,3.325,15,1013.25,340.389,0.01,0.029
1.01,-1.138e-4,-0.023,-2.275,0.023,2.288,-1.196e-5,0,1.196e-5,180,0.002,0.239,22.175,120.893,9.788,94.629,0,0,0,2.796e4,1.346e4,19.949,0.106,NaN,2019.232,NaN,0.01,6.568e5,208.221,-1.309e-4,0.705,-8.91e-4,0.37,0.215,0.12,NaN,NaN,NaN,NaN,NaN,NaN,NaN,NaN,3.094e-6,165,213.825,84,0,3.347,15,1013.25,340.389,0.01,0.029
1.02,-4.855e-5,-0.01,-0.97,0.01,0.975,-5.103e-6,0,5.103e-6,180,0.001,0.102,22.175,120.893,9.788,94.404,0,0,0,2.796e4,1.346e4,19.948,0.106,NaN,2019.139,NaN,0.01,6.611e5,244.886,-1.144e-4,0.705,-7.686e-4,0.37,0.215,0.12,NaN,NaN,NaN,NaN,NaN,NaN,NaN,NaN,1.32e-6,165,213.825,84,0,3.37,15,1013.25,340.389,0.01,0.029
1.03,2.205e-5,0.004,0.442,0.004,0.445,2.317e-6,0,2.317e-6,0,4.638e-4,0.046,22.175,120.893,9.788,94.164,0,0,0,2.795e4,1.345e4,19.946,0.106,NaN,2019.03,NaN,0.01,6.653e5,284.538,-9.809e-5,0.704,-6.508e-4,0.369,0.215,0.12,NaN,NaN,NaN,NaN,NaN,NaN,NaN,NaN,5.998e-7,165,213.825,84,0,3.393,15,1013.25,340.389,0.01,0.029
1.04,1.641e-4,0.024,1.96,0.024,1.971,1.725e-5,0,1.725e-5,0,0.003,0.206,22.175,120.893,9.788,93.835,0,0,0,2.795e4,1.345e4,19.943,0.106,NaN,2018.905,NaN,0.01,6.695e5,327.142,-7.78e-5,0.704,-5.098e-4,0.369,0.215,0.12,NaN,NaN,NaN,NaN,NaN,NaN,NaN,NaN,3.263e-6,165,213.825,84,0,3.415,15,1013.25,340.389,0.01,0.03
1.05,5.833e-4,0.06,3.585,0.06,3.604,6.13e-5,0,6.13e-5,0,0.006,0.377,22.175,120.893,9.788,93.238,0,0,0,2.794e4,1.344e4,19.941,0.106,NaN,2018.763,NaN,0.01,6.735e5,372.693,-4.766e-5,0.704,-3.086e-4,0.368,0.215,0.12,NaN,NaN,NaN,NaN,NaN,NaN,NaN,NaN,8.133e-6,165,213.825,84,0,3.438,15,1013.25,340.389,0.01,0.03
1.06,0.001,0.115,5.563,0.116,5.594,1.534e-4,0,1.534e-4,0,0.012,0.585,22.175,120.893,9.788,92.314,0,0,0,2.793e4,1.343e4,19.938,0.106,NaN,2018.599,NaN,0.01,6.759e5,428.171,-1.768e-5,0.703,-1.137e-4,0.368,0.215,0.12,NaN,NaN,NaN,NaN,NaN,NaN,NaN,NaN,1.569e-5,165,213.825,84,0,3.453,15,1013.25,340.389,0.01,0.03
1.07,0.003,0.191,7.517,0.192,7.558,3.142e-4,0,3.142e-4,0,0.02,0.79,22.175,120.893,9.788,91.071,0,0,0,2.792e4,1.342e4,19.935,0.106,NaN,2018.415,NaN,0.01,6.783e5,482.882,-1.79e-6,0.703,-1.143e-5,0.368,0.215,0.12,NaN,NaN,NaN,NaN,NaN,NaN,NaN,NaN,2.59e-5,165,213.825,84,0,3.468,15,1013.25,340.389,0.01,0.03
1.08,0.005,0.288,9.758,0.29,9.812,5.658e-4,0,5.658e-4,0,0.03,1.026,22.175,120.893,9.788,89.467,0,0,0,2.791e4,1.341e4,19.931,0.106,NaN,2018.206,NaN,0.01,6.811e5,545.617,2.238e-7,0.703,1.417e-6,0.368,0.215,0.12,NaN,NaN,NaN,NaN,NaN,NaN,NaN,NaN,3.916e-5,165,213.825,84,0,3.482,15,1013.249,340.389,0.01,0.03
1.09,0.009,0.411,12.305,0.413,12.373,9.333e-4,0,9.333e-4,0,0.043,1.293,22.175,120.893,9.788,87.457,0,0,0,2.79e4,1.34e4,19.927,0.106,NaN,2017.969,NaN,0.01,6.846e5,616.859,2.401e-5,0.702,1.504e-4,0.367,0.215,0.12,NaN,NaN,NaN,NaN,NaN,NaN,NaN,NaN,5.588e-5,165,213.825,84,0,3.497,15,1013.249,340.389,0.01,0.031
1.1,0.014,0.563,15.219,0.566,15.303,0.001,0,0.001,0,0.059,1.6,22.175,120.893,9.788,84.994,0,0,0,2.789e4,1.339e4,19.922,0.106,NaN,2017.702,NaN,0.01,6.895e5,698.307,1.807e-4,0.702,0.001,0.367,0.215,0.12,NaN,NaN,NaN,NaN,NaN,NaN,NaN,NaN,7.656e-5,165,213.825,84,0,3.512,15,1013.248,340.389,0.01,0.031
1.11,0.02,0.746,18.29,0.75,18.39,0.002,0,0.002,0,0.078,1.922,22.175,120.893,9.788,82.011,0,0,0,2.788e4,1.338e4,19.917,0.106,NaN,2017.401,NaN,0.01,6.928e5,784.022,7.171e-4,0.701,0.004,0.366,0.215,0.12,NaN,NaN,NaN,NaN,NaN,NaN,NaN,NaN,1.014e-4,165,213.825,84,0,3.508,15,1013.248,340.389,0.01,0.031
1.12,0.029,0.96,21.441,0.966,21.559,0.003,0,0.003,0,0.101,2.253,22.175,120.893,9.788,78.565,0,0,0,2.786e4,1.336e4,19.911,0.106,NaN,2017.066,NaN,0.01,6.991e5,871.849,0.002,0.701,0.012,0.366,0.215,0.12,NaN,NaN,NaN,NaN,NaN,NaN,NaN,NaN,1.305e-4,165,213.825,84,0,3.504,15,1013.247,340.389,0.01,0.031
1.13,0.04,1.207,24.646,1.213,24.782,0.004,0,0.004,0,0.127,2.59,22.175,120.893,9.788,74.7,0,0,0,2.784e4,1.334e4,19.904,0.106,NaN,2016.696,NaN,0.011,7.096e5,961.049,0.005,0.7,0.028,0.364,0.215,0.12,NaN,NaN,NaN,NaN,NaN,NaN,NaN,NaN,1.64e-4,165,213.825,84,0,3.499,15,1013.245,340.389,0.01,0.031
1.14,0.053,1.482,27.565,1.49,27.717,0.006,0,0.006,0,0.156,2.897,22.175,120.893,9.788,70.534,0,0,0,2.782e4,1.332e4,19.897,0.106,NaN,2016.295,NaN,0.011,7.251e5,1042.073,0.01,0.698,0.055,0.363,0.215,0.12,NaN,NaN,NaN,NaN,NaN,NaN,NaN,NaN,2.015e-4,165,213.825,84,0,3.495,15,1013.244,340.389,0.01,0.031
1.15,0.069,1.783,30.094,1.793,30.26,0.007,0,0.007,0,0.187,3.163,22.175,120.893,9.788,66.211,0,0,0,2.78e4,1.33e4,19.889,0.106,NaN,2015.866,NaN,0.011,7.462e5,1112.029,0.018,0.696,0.095,0.361,0.215,0.12,NaN,NaN,NaN,NaN,NaN,NaN,NaN,NaN,2.424e-4,165,213.825,84,0,3.491,15,1013.242,340.389,0.01,0.032
1.16,0.089,2.106,32.291,2.117,32.469,0.009,0,0.009,0,0.221,3.394,22.175,120.893,9.788,61.565,0,0,0,2.778e4,1.328e4,19.881,0.106,NaN,2015.413,NaN,0.011,7.671e5,1172.553,0.03,0.694,0.151,0.359,0.215,0.12,NaN,NaN,NaN,NaN,NaN,NaN,NaN,NaN,2.862e-4,165,213.825,84,0,3.449,14.999,1013.24,340.389,0.01,0.032
1.17,0.112,2.446,34.03,2.459,34.218,0.012,0,0.012,0,0.257,3.577,22.175,120.893,9.788,56.985,0,0,0,2.776e4,1.326e4,19.873,0.105,NaN,2014.941,NaN,0.012,7.946e5,1220.187,0.047,0.691,0.22,0.356,0.215,0.12,NaN,NaN,NaN,NaN,NaN,NaN,NaN,NaN,3.325e-4,165,213.825,84,0,3.407,14.999,1013.237,340.388,0.01,0.032
1.18,0.138,2.799,35.307,2.814,35.502,0.014,0,0.014,0,0.294,3.711,22.175,120.893,9.788,52.597,0,0,0,2.774e4,1.324e4,19.864,0.105,NaN,2014.455,NaN,0.012,8.283e5,1254.818,0.069,0.688,0.296,0.353,0.215,0.12,NaN,NaN,NaN,NaN,NaN,NaN,NaN,NaN,3.804e-4,165,213.825,84,0,3.365,14.999,1013.234,340.388,0.01,0.032
1.19,0.168,3.16,36.109,3.177,36.308,0.018,0,0.018,0,0.332,3.795,22.175,120.893,9.788,48.497,0,0,0,2.771e4,1.321e4,19.855,0.105,NaN,2013.959,NaN,0.013,8.676e5,1276.135,0.096,0.685,0.375,0.35,0.215,0.12,NaN,NaN,NaN,NaN,NaN,NaN,NaN,NaN,4.295e-4,165,213.825,84,0,3.322,14.999,1013.23,340.388,0.01,0.032
1.2,0.201,3.526,36.662,3.546,36.864,0.021,0,0.021,0,0.371,3.853,22.175,120.893,9.788,44.72,0,0,0,2.769e4,1.319e4,19.846,0.105,NaN,2013.458,NaN,0.014,9.117e5,1290.479,0.128,0.682,0.452,0.346,0.215,0.12,NaN,NaN,NaN,NaN,NaN,NaN,NaN,NaN,4.793e-4,165,213.825,84,0,3.28,14.999,1013.226,340.388,0.01,0.033
1.21,0.238,3.896,36.968,3.917,37.171,0.025,0,0.025,0,0.409,3.885,22.175,120.893,9.788,41.949,0,0,0,2.767e4,1.317e4,19.837,0.105,NaN,2012.952,NaN,0.015,9.684e5,1297.933,0.162,0.677,0.509,0.342,0.215,0.12,NaN,NaN,NaN,NaN,NaN,NaN,NaN,NaN,5.295e-4,165,213.825,84,0,3.31,14.998,1013.222,340.388,0.01,0.033
1.22,0.279,4.266,37.027,4.289,37.231,0.029,0,0.029,0,0.448,3.892,22.175,120.893,9.788,39.486,0,0,0,2.764e4,1.314e4,19.828,0.105,NaN,2012.446,NaN,0.015,1.027e6,1298.512,0.201,0.673,0.558,0.338,0.215,0.12,NaN,NaN,NaN,NaN,NaN,NaN,NaN,NaN,5.798e-4,165,213.825,84,0,3.34,14.998,1013.217,340.388,0.01,0.033
1.23,0.324,4.636,37.07,4.662,37.274,0.034,0,0.034,0,0.487,3.896,22.175,120.893,9.788,37.291,0,0,0,2.762e4,1.312e4,19.819,0.105,NaN,2011.938,NaN,0.016,1.088e6,1298.633,0.242,0.67,0.601,0.335,0.215,0.12,NaN,NaN,NaN,NaN,NaN,NaN,NaN,NaN,6.302e-4,165,213.825,84,0,3.37,14.998,1013.212,340.388,0.01,0.033
1.24,0.372,5.006,36.976,5.033,37.18,0.039,0,0.039,0,0.526,3.886,22.175,120.893,9.788,35.335,0,0,0,2.76e4,1.31e4,19.81,0.105,NaN,2011.431,NaN,0.017,1.15e6,1294.965,0.287,0.666,0.638,0.331,0.215,0.12,NaN,NaN,NaN,NaN,NaN,NaN,NaN,NaN,6.804e-4,165,213.825,84,0,3.4,14.998,1013.206,340.387,0.01,0.033
1.25,0.424,5.375,36.89,5.404,37.093,0.045,0,0.045,0,0.565,3.877,22.175,120.893,9.788,33.585,0,0,0,2.757e4,1.307e4,19.801,0.105,NaN,2010.925,NaN,0.018,1.213e6,1291.53,0.335,0.663,0.669,0.327,0.215,0.12,NaN,NaN,NaN,NaN,NaN,NaN,NaN,NaN,7.305e-4,165,213.825,84,0,3.43,14.997,1013.2,340.387,0.01,0.033
1.26,0.479,5.742,36.802,5.774,37.005,0.05,0,0.05,0,0.604,3.868,22.175,120.893,9.788,31.794,0,0,0,2.755e4,1.305e4,19.792,0.105,NaN,2010.419,NaN,0.019,1.274e6,1288.052,0.386,0.66,0.699,0.324,0.215,0.12,NaN,NaN,NaN,NaN,NaN,NaN,NaN,NaN,7.805e-4,165,213.825,84,0,3.431,14.997,1013.194,340.387,0.01,0.034
1.27,0.538,6.109,36.69,6.143,36.892,0.057,0,0.057,0,0.642,3.856,22.175,120.893,9.788,30.173,0,0,0,2.753e4,1.303e4,19.783,0.105,NaN,2009.914,NaN,0.02,1.336e6,1283.912,0.44,0.657,0.724,0.321,0.215,0.12,NaN,NaN,NaN,NaN,NaN,NaN,NaN,NaN,8.304e-4,165,213.825,84,0,3.433,14.996,1013.187,340.387,0.01,0.034
1.28,0.601,6.475,36.657,6.511,36.859,0.063,0,0.063,0,0.681,3.853,22.175,120.893,9.788,28.698,0,0,0,2.75e4,1.3e4,19.774,0.105,NaN,2009.409,NaN,0.021,1.399e6,1281.967,0.497,0.654,0.745,0.319,0.215,0.12,NaN,NaN,NaN,NaN,NaN,NaN,NaN,NaN,8.802e-4,165,213.825,84,0,3.435,14.996,1013.179,340.387,0.01,0.034
1.29,0.668,6.841,36.574,6.879,36.776,0.07,0,0.07,0,0.719,3.844,22.175,120.893,9.788,27.355,0,0,0,2.748e4,1.298e4,19.765,0.105,NaN,2008.904,NaN,0.022,1.463e6,1278.651,0.556,0.651,0.762,0.316,0.215,0.12,NaN,NaN,NaN,NaN,NaN,NaN,NaN,NaN,9.298e-4,165,213.825,84,0,3.437,14.996,1013.172,340.386,0.01,0.034
1.3,0.738,7.206,36.533,7.246,36.734,0.078,0,0.078,0,0.757,3.84,22.175,120.893,9.788,26.125,0,0,0,2.746e4,1.296e4,19.756,0.105,NaN,2008.399,NaN,0.023,1.527e6,1276.485,0.617,0.648,0.777,0.313,0.215,0.12,NaN,NaN,NaN,NaN,NaN,NaN,NaN,NaN,9.795e-4,165,213.825,84,0,3.438,14.995,1013.163,340.386,0.01,0.034
1.31,0.812,7.571,36.527,7.613,36.728,0.085,0,0.085,0,0.796,3.839,22.175,120.893,9.788,25.179,0,0,0,2.743e4,1.293e4,19.747,0.105,NaN,2007.894,NaN,0.024,1.594e6,1275.318,0.68,0.646,0.785,0.311,0.215,0.12,NaN,NaN,NaN,NaN,NaN,NaN,NaN,NaN,0.001,165,213.825,84,0,3.468,14.995,1013.155,340.386,0.01,0.034
1.32,0.89,7.936,36.499,7.98,36.7,0.094,0,0.094,0,0.834,3.836,22.175,120.893,9.788,24.311,0,0,0,2.741e4,1.291e4,19.738,0.105,NaN,2007.388,NaN,0.025,1.661e6,1273.528,0.745,0.644,0.793,0.308,0.215,0.12,NaN,NaN,NaN,NaN,NaN,NaN,NaN,NaN,0.001,165,213.825,84,0,3.498,14.994,1013.146,340.385,0.01,0.035
1.33,0.971,8.301,36.548,8.347,36.75,0.102,0,0.102,0,0.873,3.841,22.175,120.893,9.788,23.509,0,0,0,2.739e4,1.289e4,19.729,0.105,NaN,2006.882,NaN,0.026,1.729e6,1273.891,0.813,0.641,0.798,0.306,0.215,0.12,NaN,NaN,NaN,NaN,NaN,NaN,NaN,NaN,0.001,165,213.825,84,0,3.527,14.994,1013.136,340.385,0.01,0.035
1.34,1.056,8.666,36.525,8.714,36.726,0.111,0,0.111,0,0.911,3.839,22.175,120.893,9.788,22.768,0,0,0,2.736e4,1.286e4,19.72,0.105,NaN,2006.376,NaN,0.027,1.797e6,1272.247,0.883,0.639,0.803,0.304,0.215,0.12,NaN,NaN,NaN,NaN,NaN,NaN,NaN,NaN,0.001,165,213.825,84,0,3.557,14.993,1013.126,340.385,0.01,0.035
1.35,1.144,9.032,36.535,9.081,36.736,0.12,0,0.12,0,0.949,3.84,22.175,120.893,9.788,22.081,0,0,0,2.734e4,1.284e4,19.711,0.105,NaN,2005.868,NaN,0.028,1.866e6,1271.517,0.955,0.637,0.806,0.302,0.215,0.12,NaN,NaN,NaN,NaN,NaN,NaN,NaN,NaN,0.001,165,213.825,84,0,3.586,14.993,1013.116,340.384,0.01,0.035
1.36,1.236,9.397,36.572,9.449,36.774,0.13,0,0.13,0,0.988,3.844,22.175,120.893,9.788,21.283,0,0,0,2.732e4,1.282e4,19.702,0.105,NaN,2005.361,NaN,0.029,1.933e6,1271.539,1.03,0.635,0.81,0.3,0.215,0.12,NaN,NaN,NaN,NaN,NaN,NaN,NaN,NaN,0.001,165,213.825,84,0,3.587,14.992,1013.105,340.384,0.01,0.035
1.37,1.332,9.763,36.588,9.817,36.79,0.14,0,0.14,0,1.026,3.846,22.175,120.893,9.788,20.538,0,0,0,2.729e4,1.279e4,19.693,0.105,NaN,2004.852,NaN,0.03,2e6,1270.983,1.106,0.633,0.812,0.298,0.215,0.12,NaN,NaN,NaN,NaN,NaN,NaN,NaN,NaN,0.001,165,213.825,84,0,3.588,14.991,1013.094,340.384,0.01,0.036
1.38,1.432,10.13,36.705,10.185,36.907,0.15,0,0.15,0,1.065,3.858,22.175,120.893,9.788,19.839,0,0,0,2.727e4,1.277e4,19.684,0.105,NaN,2004.342,NaN,0.031,2.068e6,1273.167,1.185,0.631,0.814,0.296,0.215,0.12,NaN,NaN,NaN,NaN,NaN,NaN,NaN,NaN,0.001,165,213.825,84,0,3.589,14.991,1013.082,340.383,0.01,0.036
1.39,1.535,10.497,36.745,10.555,36.947,0.161,0,0.161,0,1.103,3.862,22.175,120.893,9.788,19.184,0,0,0,2.725e4,1.275e4,19.675,0.105,NaN,2003.83,NaN,0.032,2.136e6,1273.278,1.265,0.629,0.814,0.294,0.215,0.12,NaN,NaN,NaN,NaN,NaN,NaN,NaN,NaN,0.001,165,213.825,84,0,3.59,14.99,1013.07,340.383,0.01,0.036
1.4,1.641,10.865,36.832,10.925,37.035,0.173,0,0.173,0,1.142,3.871,22.175,120.893,9.788,18.569,0,0,0,2.723e4,1.273e4,19.666,0.105,NaN,2003.318,NaN,0.033,2.205e6,1274.663,1.348,0.628,0.814,0.292,0.215,0.12,NaN,NaN,NaN,NaN,NaN,NaN,NaN,NaN,0.001,165,213.825,84,0,3.591,14.989,1013.057,340.382,0.01,0.036
1.41,1.752,11.234,36.939,11.296,37.143,0.184,0,0.184,0,1.181,3.882,22.175,120.893,9.788,17.973,0,0,0,2.72e4,1.27e4,19.657,0.105,NaN,2002.803,NaN,0.034,2.274e6,1276.588,1.432,0.626,0.813,0.291,0.215,0.12,NaN,NaN,NaN,NaN,NaN,NaN,NaN,NaN,0.002,165,213.825,84,0,3.588,14.989,1013.045,340.382,0.01,0.036
1.42,1.866,11.604,37.007,11.668,37.211,0.196,0,0.196,0,1.22,3.89,22.175,120.893,9.788,17.412,0,0,0,2.718e4,1.268e4,19.648,0.105,NaN,2002.288,NaN,0.035,2.343e6,1277.444,1.518,0.625,0.812,0.289,0.215,0.12,NaN,NaN,NaN,NaN,NaN,NaN,NaN,NaN,0.002,165,213.825,84,0,3.586,14.988,1013.031,340.382,0.01,0.036
1.43,1.984,11.975,37.143,12.041,37.347,0.209,0,0.209,0,1.259,3.904,22.175,120.893,9.788,16.882,0,0,0,2.716e4,1.266e4,19.639,0.105,NaN,2001.77,NaN,0.036,2.413e6,1280.14,1.607,0.623,0.81,0.288,0.215,0.12,NaN,NaN,NaN,NaN,NaN,NaN,NaN,NaN,0.002,165,213.825,84,0,3.584,14.987,1013.017,340.381,0.01,0.037
1.44,2.106,12.347,37.199,12.415,37.404,0.221,0,0.221,0,1.298,3.91,22.175,120.893,9.788,16.38,0,0,0,2.713e4,1.263e4,19.629,0.105,NaN,2001.252,NaN,0.037,2.483e6,1280.681,1.7,0.623,0.809,0.288,0.215,0.12,NaN,NaN,NaN,NaN,NaN,NaN,NaN,NaN,0.002,165,213.825,84,0,3.581,14.986,1013.003,340.381,0.01,0.037
1.45,2.231,12.72,37.308,12.79,37.514,0.234,0,0.234,0,1.337,3.921,22.175,120.893,9.788,15.905,0,0,0,2.711e4,1.261e4,19.62,0.105,NaN,2000.731,NaN,0.038,2.554e6,1282.653,1.795,0.623,0.808,0.288,0.215,0.12,NaN,NaN,NaN,NaN,NaN,NaN,NaN,NaN,0.002,165,213.825,84,0,3.579,14.985,1012.988,340.38,0.01,0.037
1.46,2.36,13.094,37.427,13.166,37.633,0.248,0,0.248,0,1.376,3.934,22.175,120.893,9.788,15.316,0,0,0,2.709e4,1.259e4,19.611,0.104,NaN,2000.209,NaN,0.039,2.624e6,1284.861,1.887,0.623,0.805,0.288,0.215,0.12,NaN,NaN,NaN,NaN,NaN,NaN,NaN,NaN,0.002,165,213.825,84,0,3.544,14.985,1012.973,340.38,0.01,0.037
1.47,2.493,13.469,37.48,13.543,37.686,0.262,0,0.262,0,1.416,3.939,22.175,120.893,9.788,14.757,0,0,0,2.706e4,1.256e4,19.602,0.104,NaN,1999.686,NaN,0.04,2.694e6,1285.292,1.98,0.623,0.801,0.288,0.215,0.12,NaN,NaN,NaN,NaN,NaN,NaN,NaN,NaN,0.002,165,213.825,84,0,3.509,14.984,1012.958,340.379,0.01,0.037
1.48,2.629,13.845,37.602,13.921,37.809,0.276,0,0.276,0,1.455,3.952,22.175,120.893,9.788,14.226,0,0,0,2.704e4,1.254e4,19.592,0.104,NaN,1999.161,NaN,0.041,2.764e6,1287.587,2.074,0.623,0.797,0.288,0.215,0.12,NaN,NaN,NaN,NaN,NaN,NaN,NaN,NaN,0.002,165,213.825,84,0,3.474,14.983,1012.942,340.379,0.01,0.038
1.49,2.77,14.221,37.648,14.299,37.855,0.291,0,0.291,0,1.495,3.957,22.175,120.893,9.788,13.72,0,0,0,2.702e4,1.252e4,19.583,0.104,NaN,1998.635,NaN,0.042,2.835e6,1287.832,2.168,0.623,0.792,0.288,0.215,0.12,NaN,NaN,NaN,NaN,NaN,NaN,NaN,NaN,0.002,165,213.825,84,0,3.438,14.982,1012.925,340.378,0.01,0.038
1.5,2.914,14.598,37.719,14.678,37.927,0.306,0,0.306,0,1.534,3.964,22.175,120.893,9.788,13.238,0,0,0,2.699e4,1.249e4,19.574,0.104,NaN,1998.108,NaN,0.044,2.906e6,1288.735,2.263,0.623,0.787,0.288,0.215,0.12,NaN,NaN,NaN,NaN,NaN,NaN,NaN,NaN,0.002,165,213.825,84,0,3.403,14.981,1012.908,340.377,0.01,0.038
1.51,3.062,14.976,37.801,15.058,38.009,0.322,0,0.322,0,1.574,3.973,22.175,120.893,9.788,13.088,0,0,0,2.697e4,1.247e4,19.564,0.104,NaN,1997.579,NaN,0.045,2.98e6,1289.948,2.375,0.623,0.785,0.288,0.215,0.12,NaN,NaN,NaN,NaN,NaN,NaN,NaN,NaN,0.002,165,213.825,84,0,3.451,14.98,1012.891,340.377,0.01,0.038
1.52,3.213,15.354,37.817,15.438,38.025,0.338,0,0.338,0,1.614,3.975,22.175,120.893,9.788,12.945,0,0,0,2.695e4,1.244e4,19.555,0.104,NaN,1997.049,NaN,0.046,3.054e6,1289.376,2.489,0.623,0.784,0.288,0.215,0.12,NaN,NaN,NaN,NaN,NaN,NaN,NaN,NaN,0.002,165,213.825,84,0,3.499,14.979,1012.873,340.376,0.01,0.038
1.53,3.369,15.733,37.957,15.82,38.166,0.354,0,0.354,0,1.654,3.989,22.175,120.893,9.788,12.807,0,0,0,2.692e4,1.242e4,19.546,0.104,NaN,1996.518,NaN,0.047,3.128e6,1292.164,2.606,0.623,0.782,0.288,0.215,0.12,NaN,NaN,NaN,NaN,NaN,NaN,NaN,NaN,0.002,165,213.825,84,0,3.546,14.978,1012.855,340.376,0.01,0.038
1.54,3.528,16.113,38.027,16.202,38.236,0.371,0,0.371,0,1.694,3.997,22.175,120.893,9.788,12.675,0,0,0,2.69e4,1.24e4,19.536,0.104,NaN,1995.985,NaN,0.048,3.203e6,1293.051,2.726,0.623,0.78,0.288,0.215,0.12,NaN,NaN,NaN,NaN,NaN,NaN,NaN,NaN,0.002,165,213.825,84,0,3.594,14.977,1012.836,340.375,0.01,0.039
1.55,3.691,16.494,38.132,16.585,38.342,0.388,0,0.388,0,1.734,4.008,22.175,120.893,9.788,12.549,0,0,0,2.687e4,1.237e4,19.527,0.104,NaN,1995.451,NaN,0.049,3.277e6,1294.89,2.849,0.623,0.779,0.288,0.215,0.12,NaN,NaN,NaN,NaN,NaN,NaN,NaN,NaN,0.002,165,213.825,84,0,3.642,14.976,1012.817,340.374,0.01,0.039
1.56,3.858,16.877,38.257,16.97,38.468,0.405,0,0.405,0,1.774,4.021,22.175,120.893,9.788,12.446,0,0,0,2.685e4,1.235e4,19.517,0.104,NaN,1994.914,NaN,0.05,3.352e6,1297.251,2.976,0.623,0.777,0.288,0.215,0.12,NaN,NaN,NaN,NaN,NaN,NaN,NaN,NaN,0.002,165,213.825,84,0,3.695,14.975,1012.798,340.374,0.01,0.039
1.57,4.029,17.259,38.277,17.354,38.487,0.423,0,0.423,0,1.814,4.023,22.175,120.893,9.788,12.348,0,0,0,2.683e4,1.233e4,19.508,0.104,NaN,1994.377,NaN,0.051,3.427e6,1296.778,3.105,0.623,0.776,0.288,0.215,0.12,NaN,NaN,NaN,NaN,NaN,NaN,NaN,NaN,0.002,165,213.825,84,0,3.749,14.974,1012.778,340.373,0.01,0.039
1.585,4.292,17.833,38.258,17.933,38.64,0.451,4.007e-5,0.451,0.005,1.895,5.425,22.175,120.893,9.788,12.151,0,0.033,4.305e-5,2.679e4,1.229e4,19.493,0.104,2050.806,1993.568,0.347,0.053,3.54e6,1298.654,3.301,0.624,0.774,0.288,0.215,0.12,3.245,1.125,3.713e-4,0,0,0,0,3.894e-6,0.002,165,213.825,84,-0.002,3.829,14.972,1012.747,340.372,0.015,0.039
1.608,4.703,18.697,38.458,18.806,38.844,0.495,2.564e-4,0.495,0.03,2.017,5.464,22.175,120.893,9.788,11.739,0,0.09,3.116e-4,2.674e4,1.224e4,19.472,0.104,2055.956,1992.348,0.386,0.056,3.708e6,1301.804,3.596,0.624,0.768,0.288,0.215,0.12,3.103,1.196,-4.518e-4,0,0,0,0,2.58e-5,0.003,165,213.825,84.001,-0.011,3.906,14.969,1012.698,340.37,0.023,0.04
1.641,5.356,20.004,38.795,20.125,39.184,0.566,9.488e-4,0.566,0.096,2.203,5.505,22.175,120.893,9.788,10.807,0,0.193,0.001,2.666e4,1.216e4,19.439,0.104,2068.094,1990.501,0.47,0.059,3.959e6,1307.398,4.028,0.624,0.754,0.288,0.215,0.12,2.79,1.311,4.833e-5,0,0,0,0,1.051e-4,0.003,165,213.825,84.004,-0.043,3.889,14.965,1012.622,340.368,0.034,0.04
1.691,6.405,21.96,39.214,22.099,39.609,0.683,0.003,0.684,0.236,2.48,5.578,22.175,120.893,9.788,10.051,0,0.388,0.004,2.654e4,1.204e4,19.39,0.104,2078.481,1987.731,0.55,0.065,4.34e6,1313.533,4.766,0.624,0.743,0.288,0.215,0.121,2.543,1.398,4.916e-4,0,0,0,0,3.519e-4,0.003,165,213.825,84.014,-0.142,4.036,14.958,1012.499,340.364,0.05,0.04
1.741,7.552,23.944,39.792,24.103,40.191,0.814,0.006,0.814,0.405,2.761,5.652,22.175,120.893,9.788,9.274,0,0.632,0.008,2.642e4,1.192e4,19.34,0.104,2089.665,1984.915,0.635,0.071,4.727e6,1323.765,5.557,0.624,0.73,0.288,0.216,0.121,2.298,1.459,2.942e-4,0,0,0,0,7.892e-4,0.003,165,213.825,84.032,-0.317,4.135,14.951,1012.364,340.359,0.05,0.04
1.791,8.8,25.96,40.422,26.138,40.823,0.96,0.01,0.96,0.588,3.046,5.713,22.175,120.893,9.788,8.468,0,0.931,0.016,2.63e4,1.18e4,19.29,0.103,2101.847,1982.048,0.726,0.077,5.119e6,1335.184,6.402,0.624,0.717,0.288,0.216,0.121,2.053,1.489,2.989e-4,0,0,0,0,0.001,0.004,165,213.825,84.058,-0.59,4.18,14.943,1012.218,340.354,0.05,0.04
1.841,10.149,28.01,41.097,28.208,41.501,1.119,0.015,1.119,0.772,3.334,5.777,22.175,120.893,9.788,7.872,0,1.284,0.025,2.617e4,1.167e4,19.238,0.103,2111.284,1979.127,0.801,0.083,5.519e6,1347.677,7.343,0.624,0.708,0.288,0.216,0.121,1.876,1.5,-1.42e-4,0,0,0,0,0.002,0.004,165,213.825,84.096,-0.984,4.287,14.934,1012.06,340.349,0.05,0.041
1.891,11.602,30.1,41.904,30.318,42.311,1.293,0.021,1.293,0.951,3.626,5.854,22.175,120.893,9.788,7.476,0,1.697,0.036,2.605e4,1.155e4,19.185,0.103,2117.775,1976.143,0.858,0.089,5.928e6,1363.475,8.398,0.624,0.701,0.288,0.216,0.121,1.762,1.508,-3.007e-4,0,0,0,0,0.004,0.004,165,213.825,84.145,-1.526,4.476,14.925,1011.889,340.343,0.05,0.041
1.941,13.16,32.223,42.572,32.461,42.977,1.481,0.029,1.482,1.121,3.921,5.886,22.175,120.893,9.788,6.987,0,2.174,0.051,2.593e4,1.143e4,19.132,0.103,2126.013,1973.105,0.927,0.095,6.344e6,1375.364,9.511,0.625,0.694,0.288,0.216,0.121,1.623,1.499,1.592e-4,0,0,0,0,0.005,0.004,165,213.825,84.208,-2.246,4.604,14.914,1011.707,340.337,0.05,0.041
1.991,14.825,34.384,43.337,34.642,43.733,1.685,0.038,1.685,1.279,4.216,5.874,22.175,120.893,9.788,6.249,0,2.708,0.079,2.58e4,1.13e4,19.077,0.103,2138.934,1970.006,1.024,0.101,6.765e6,1389.417,10.641,0.625,0.682,0.288,0.216,0.121,1.42,1.447,-3.873e-4,0,0,0,0,0.007,0.005,165,213.825,84.286,-3.183,4.568,14.904,1011.511,340.331,0.05,0.041
2.041,16.6,36.596,44.351,36.873,44.739,1.903,0.047,1.903,1.419,4.512,5.872,22.175,120.893,9.788,5.646,0,3.291,0.111,2.567e4,1.117e4,19.021,0.102,2149.969,1966.831,1.11,0.108,7.197e6,1409.711,11.89,0.625,0.673,0.288,0.216,0.122,1.26,1.389,1.847e-4,0,0,0,0,0.009,0.005,165,213.825,84.379,-4.375,4.589,14.892,1011.303,340.324,0.05,0.041
2.091,18.486,38.853,45.247,39.149,45.625,2.135,0.057,2.136,1.536,4.807,5.863,22.175,120.893,9.788,5.294,0,3.929,0.138,2.554e4,1.104e4,18.964,0.102,2156.664,1963.584,1.17,0.115,7.639e6,1426.753,13.301,0.625,0.669,0.287,0.216,0.122,1.169,1.356,7.236e-5,0,0,0,0,0.012,0.005,165,213.825,84.486,-5.869,4.764,14.88,1011.082,340.316,0.05,0.042
2.141,20.486,41.14,45.878,41.455,46.235,2.383,0.068,2.384,1.629,5.098,5.74,22.175,120.893,9.788,4.546,1.114e-6,4.616,0.209,2.541e4,1.091e4,18.906,0.102,2171.337,1960.282,1.279,0.121,8.086e6,1436.554,14.684,0.626,0.659,0.287,0.216,0.122,0.98,1.239,6.248e-5,0,0,0,0,0.014,0.006,165,213.825,84.607,-7.722,4.656,14.867,1010.847,340.308,0.05,0.042
2.191,22.601,43.464,46.6,43.796,46.932,2.645,0.078,2.646,1.694,5.381,5.57,22.175,120.893,9.788,3.647,1.632e-6,5.288,0.342,2.528e4,1.078e4,18.847,0.102,2189.976,1956.918,1.412,0.128,8.54e6,1448.404,16.119,0.626,0.648,0.287,0.216,0.122,0.764,1.062,7.428e-5,0,0,0,0,0.017,0.006,165,213.825,84.739,-9.985,4.4,14.853,1010.599,340.3,0.05,0.042
2.241,24.833,45.825,47.358,46.173,47.669,2.921,0.088,2.922,1.723,5.656,5.433,22.175,120.893,9.788,3.101,1.763e-6,5.932,0.464,2.515e4,1.065e4,18.787,0.102,2201.917,1953.489,1.506,0.135,9.002e6,1461.178,17.764,0.626,0.643,0.287,0.217,0.122,0.638,0.941,-1.89e-4,0,0,0,0,0.019,0.006,165,213.825,84.876,-12.7,4.387,14.839,1010.338,340.291,0.05,0.042
2.291,27.184,48.214,47.895,48.576,48.184,3.21,0.096,3.211,1.715,5.92,5.271,22.175,120.893,9.788,2.622,7.13e-7,6.568,0.615,2.501e4,1.051e4,18.726,0.101,2212.792,1950.006,1.593,0.142,9.47e6,1468.288,19.535,0.627,0.639,0.287,0.217,0.123,0.531,0.823,-1.487e-4,0,0,0,0,0.021,0.007,165,213.825,85.012,-15.908,4.42,14.823,1010.062,340.282,0.05,0.042
2.341,29.654,50.608,48.001,50.983,48.27,3.512,0.102,3.514,1.667,6.173,5.084,22.175,120.893,9.788,2.245,6.858e-7,7.179,0.768,2.488e4,1.038e4,18.664,0.101,2221.645,1946.495,1.668,0.149,9.938e6,1464.702,21.428,0.627,0.636,0.287,0.217,0.123,0.449,0.725,-2.364e-4,0,0,0,0,0.023,0.007,165,213.825,85.14,-19.648,4.538,14.807,1009.772,340.272,0.05,0.043
2.391,32.244,53.006,48.08,53.392,48.33,3.827,0.106,3.828,1.579,6.413,4.908,22.175,120.893,9.788,1.897,1.828e-6,7.763,0.954,2.475e4,1.025e4,18.602,0.101,2230.064,1942.956,1.74,0.156,1.041e7,1460.577,23.425,0.627,0.634,0.287,0.217,0.123,0.374,0.627,7.375e-5,0,0,0,0,0.024,0.007,165,213.825,85.251,-23.939,4.688,14.79,1009.468,340.262,0.05,0.043
2.441,34.955,55.41,48.209,55.806,48.44,4.153,0.105,4.155,1.449,6.638,4.723,22.175,120.893,9.788,1.247,4.202e-6,8.159,1.741,2.461e4,1.011e4,18.539,0.101,2246.243,1939.385,1.86,0.163,1.088e7,1457.734,25.463,0.628,0.631,0.287,0.217,0.123,0.24,0.422,1.699e-4,0,0,0,0,0.025,0.008,165,213.825,85.336,-28.762,4.537,14.773,1009.15,340.251,0.05,0.043
2.491,37.785,57.8,47.909,58.204,48.128,4.49,0.1,4.491,1.274,6.845,4.583,22.175,120.893,9.788,0.801,5.794e-6,8.181,2.929,2.448e4,9982.7,18.477,0.101,2257.833,1935.809,1.952,0.171,1.134e7,1444.705,27.646,0.628,0.629,0.287,0.217,0.124,0.152,0.274,4.753e-4,0,0,0,0,0.023,0.008,165,213.825,85.384,-34,4.557,14.754,1008.818,340.24,0.05,0.043
2.541,40.735,60.188,47.867,60.598,48.082,4.837,0.089,4.838,1.052,7.037,4.543,22.175,120.893,9.788,0.528,9.053e-7,7.765,4.41,2.435e4,9851.919,18.414,0.1,2265.175,1932.21,2.018,0.178,1.181e7,1438.362,29.96,0.629,0.629,0.287,0.218,0.124,0.099,0.181,4.717e-4,0,0,0,0,0.019,0.008,165,213.825,85.388,-39.483,4.742,14.735,1008.473,340.228,0.05,0.043
2.591,43.803,62.567,47.694,62.982,47.913,5.193,0.071,5.194,0.782,7.214,4.567,22.175,120.893,9.788,0.281,6.964e-6,-0.338,9.034,2.422e4,9721.977,18.351,0.1,2271.966,1928.595,2.081,0.185,1.228e7,1429.136,32.372,0.629,0.629,0.287,0.218,0.124,0.052,0.109,4.05e-4,0,0,0,0,-3.324e-5,0.009,165,213.825,85.343,-45.026,4.726,14.715,1008.113,340.216,0.05,0.044
2.641,46.992,64.961,47.976,65.379,48.208,5.557,0.045,5.557,0.461,7.378,4.717,22.175,120.893,9.788,0.442,1.279e-5,-6.799,5.784,2.409e4,9591.843,18.287,0.1,2267.748,1924.936,2.078,0.192,1.274e7,1431.244,34.928,0.63,0.63,0.287,0.218,0.125,0.083,0.184,-2.443e-4,0,0,0,0,-0.012,0.009,165,213.825,85.249,-50.391,4.84,14.695,1007.739,340.204,0.05,0.044
2.691,50.3,67.364,48.143,67.784,48.397,5.928,0.009,5.928,0.09,7.531,4.949,22.175,120.893,9.788,0.766,1.005e-5,-7.879,3.474,2.396e4,9461.748,18.222,0.1,2259.3,1921.238,2.049,0.199,1.321e7,1430.823,37.624,0.63,0.631,0.287,0.218,0.125,0.145,0.313,-1.947e-4,0,0,0,0,-0.016,0.009,165,213.825,85.11,-55.355,4.874,14.673,1007.351,340.191,0.05,0.044
2.741,53.728,69.782,48.452,70.203,48.736,6.306,-0.037,6.306,-0.335,7.675,5.25,22.175,120.893,9.788,0.98,7.824e-6,-7.632,2.618,2.383e4,9331.363,18.157,0.1,2253.896,1917.492,2.039,0.206,1.368e7,1433.995,40.443,0.631,0.632,0.287,0.218,0.126,0.187,0.396,-1.184e-4,0,0,0,0,-0.014,0.01,165,213.825,84.938,-59.745,5.025,14.651,1006.949,340.177,0.05,0.044
2.791,57.278,72.224,48.926,72.646,49.254,6.688,-0.095,6.689,-0.813,7.813,5.672,22.175,120.893,9.788,1.419,1.268e-5,-7.002,2.05,2.37e4,9200.305,18.091,0.099,2242.894,1913.685,1.995,0.213,1.416e7,1441.415,43.481,0.631,0.635,0.287,0.219,0.126,0.276,0.562,1.147e-4,0,0,0,0,-0.011,0.01,165,213.825,84.746,-63.461,4.842,14.628,1006.532,340.163,0.05,0.044
2.841,60.951,74.687,49.328,75.108,49.712,7.076,-0.167,7.078,-1.348,7.945,6.163,22.175,120.893,9.788,1.9,1.227e-5,-5.862,1.791,2.357e4,9068.707,18.023,0.099,2231.263,1909.819,1.948,0.22,1.464e7,1447.346,46.734,0.632,0.638,0.286,0.219,0.126,0.376,0.74,-2.146e-4,0,0,0,0,-0.007,0.01,165,213.825,84.551,-66.402,4.502,14.604,1006.101,340.149,0.05,0.045
2.891,64.747,77.149,49.313,77.57,49.737,7.467,-0.253,7.471,-1.941,8.076,6.48,22.175,120.893,9.787,1.947,1.547e-5,-4.385,1.644,2.344e4,8937.495,17.955,0.099,2230.317,1905.922,1.966,0.228,1.512e7,1443.113,49.925,0.632,0.639,0.286,0.219,0.127,0.386,0.762,-4.021e-4,0,0,0,0,-0.004,0.011,165,213.825,84.37,-68.49,4.617,14.579,1005.656,340.134,0.05,0.045
2.941,68.666,79.601,49.135,80.024,49.6,7.861,-0.355,7.869,-2.589,8.214,6.777,22.175,120.893,9.787,2.067,1.696e-5,-2.767,1.561,2.331e4,8806.998,17.887,0.099,2227.63,1902.002,1.974,0.235,1.559e7,1435.232,53.257,0.633,0.641,0.286,0.22,0.127,0.412,0.814,4.599e-4,0,0,0,0,-0.001,0.011,165,213.825,84.219,-69.746,4.522,14.554,1005.197,340.118,0.05,0.045
2.991,72.708,82.068,49.409,82.492,49.903,8.258,-0.474,8.271,-3.289,8.362,7.003,22.175,120.893,9.787,2.035,2.096e-5,-0.937,1.522,2.318e4,8676.274,17.818,0.099,2228.564,1898.031,2.003,0.242,1.607e7,1437.734,56.632,0.634,0.641,0.286,0.22,0.128,0.405,0.811,-3.996e-4,0,0,0,0,-1.485e-4,0.011,165,213.825,84.107,-70.183,4.508,14.527,1004.723,340.103,0.05,0.045
3.041,76.873,84.559,49.926,84.988,50.438,8.657,-0.611,8.679,-4.036,8.528,7.166,22.175,120.893,9.787,1.962,2.265e-5,0.972,1.522,2.305e4,8544.831,17.748,0.098,2230.511,1893.993,2.039,0.25,1.656e7,1445.651,60.123,0.634,0.641,0.286,0.22,0.128,0.39,0.794,1.094e-4,0,0,0,0,1.505e-4,0.012,165,213.825,84.042,-69.809,4.422,14.5,1004.234,340.086,0.05,0.045
3.091,81.164,87.07,50.315,87.505,50.827,9.06,-0.765,9.092,-4.827,8.712,7.201,22.175,120.893,9.787,1.808,2.525e-5,2.932,1.564,2.291e4,8412.968,17.677,0.098,2234.424,1889.896,2.088,0.257,1.704e7,1450.255,63.697,0.635,0.641,0.286,0.22,0.129,0.357,0.745,2.292e-4,0,0,0,0,0.001,0.012,165,213.825,84.025,-68.622,4.317,14.472,1003.731,340.069,0.05,0.046
