# Time (s),Altitude (m),Vertical velocity (m/s),Vertical acceleration (m/s²),Total velocity (m/s),Total acceleration (m/s²),Position East of launch (m),Position North of launch (m),Lateral distance (m),Lateral direction (°),Lateral velocity (m/s),Lateral acceleration (m/s²),Latitude (°),Longitude (°),Gravitational acceleration (m/s²),Angle of attack (°),Roll rate (°/s),Pitch rate (°/s),Yaw rate (°/s),Mass (g),Motor mass (g),Longitudinal moment of inertia (kg·m²),Rotational moment of inertia (kg·m²),CP location (mm),CG location (mm),Stability margin calibers (​),Mach number (​),Reynolds number (​),Thrust (N),Drag force (N),Drag coefficient (​),Axial drag coefficient (​),Friction drag coefficient (​),Pressure drag coefficient (​),Base drag coefficient (​),Normal force coefficient (​),Pitch moment coefficient (​),Yaw moment coefficient (​),Side force coefficient (​),Roll moment coefficient (​),Roll forcing coefficient (​),Roll damping coefficient (​),Pitch damping coefficient (​),Coriolis acceleration (m/s²),Reference length (mm),Reference area (cm²),Vertical orientation (zenith) (°),Lateral orientation (azimuth) (°),Wind velocity (m/s),Air temperature (°C),Air pressure (mbar),Speed of sound (m/s),Simulation time step (s),Computation time (s)
0.01,-4.664e-4,-0.093,-9.324,0.095,9.468,-8.224e-5,0,8.224e-5,180,0.016,1.644,22.175,120.893,9.788,97.951,0,0,0,2.8e4,1.35e4,19.963,0.106,NaN,2019.994,NaN,0.018,1.176e6,4.784,-0.002,0.665,-0.004,0.329,0.215,0.12,NaN,NaN,NaN,NaN,NaN,NaN,NaN,NaN,1.282e-5,165,213.825,80,0,5.986,15,1013.25,340.389,0.01,0.001
0.02,-4.668e-4,-0.093,-9.336,0.095,9.48,-8.231e-5,0,8.231e-5,180,0.016,1.646,22.175,120.893,9.788,97.943,0,0,0,2.8e4,1.35e4,19.963,0.106,NaN,2019.992,NaN,0.018,1.187e6,4.461,-0.002,0.664,-0.004,0.329,0.215,0.12,NaN,NaN,NaN,NaN,NaN,NaN,NaN,NaN,1.283e-5,165,213.825,80,0,6.041,15,1013.25,340.389,0.01,0.002
0.03,-4.67e-4,-0.093,-9.34,0.095,9.484,-8.234e-5,0,8.234e-5,180,0.016,1.647,22.175,120.893,9.788,97.936,0,0,0,2.8e4,1.35e4,19.963,0.106,NaN,2019.991,NaN,0.018,1.198e6,4.343,-0.002,0.663,-0.004,0.328,0.215,0.12,NaN,NaN,NaN,NaN,NaN,NaN,NaN,NaN,1.284e-5,165,213.825,80,0,6.097,15,1013.25,340.389,0.01,0.002
0.04,-4.672e-4,-0.093,-9.343,0.095,9.487,-8.237e-5,0,8.237e-5,180,0.016,1.647,22.175,120.893,9.788,97.928,0,0,0,2.8e4,1.35e4,19.963,0.106,NaN,2019.989,NaN,0.018,1.209e6,4.249,-0.002,0.663,-0.004,0.328,0.215,0.12,NaN,NaN,NaN,NaN,NaN,NaN,NaN,NaN,1.284e-5,165,213.825,80,0,6.153,15,1013.25,340.389,0.01,0.002
0.05,-4.668e-4,-0.093,-9.336,0.095,9.48,-8.231e-5,0,8.231e-5,180,0.016,1.646,22.175,120.893,9.788,97.919,0,0,0,2.8e4,1.35e4,19.963,0.106,NaN,2019.988,NaN,0.018,1.22e6,4.443,-0.002,0.662,-0.004,0.327,0.215,0.12,NaN,NaN,NaN,NaN,NaN,NaN,NaN,NaN,1.284e-5,165,213.825,80,0,6.209,15,1013.25,340.389,0.01,0.002
0.06,-4.664e-4,-0.093,-9.328,0.095,9.472,-8.224e-5,0,8.224e-5,180,0.016,1.645,22.175,120.893,9.788,97.917,0,0,0,2.8e4,1.35e4,19.963,0.106,NaN,2019.986,NaN,0.018,1.222e6,4.681,-0.002,0.662,-0.004,0.327,0.215,0.12,NaN,NaN,NaN,NaN,NaN,NaN,NaN,NaN,1.282e-5,165,213.825,80,0,6.218,15,1013.25,340.389,0.01,0.003
0.07,-4.668e-4,-0.093,-9.336,0.095,9.48,-8.231e-5,0,8.231e-5,180,0.016,1.646,22.175,120.893,9.788,97.917,0,0,0,2.8e4,1.35e4,19.963,0.106,NaN,2019.984,NaN,0.018,1.224e6,4.438,-0.002,0.662,-0.004,0.327,0.215,0.12,NaN,NaN,NaN,NaN,NaN,NaN,NaN,NaN,1.284e-5,165,213.825,80,0,6.227,15,1013.25,340.389,0.01,0.003
0.08,-4.667e-4,-0.093,-9.335,0.095,9.479,-8.23e-5,0,8.23e-5,180,0.016,1.646,22.175,120.893,9.788,97.916,0,0,0,2.8e4,1.35e4,19.963,0.106,NaN,2019.982,NaN,0.018,1.225e6,4.479,-0.002,0.662,-0.004,0.327,0.215,0.12,NaN,NaN,NaN,NaN,NaN,NaN,NaN,NaN,1.283e-5,165,213.825,80,0,6.236,15,1013.25,340.389,0.01,0.003
0.09,-4.665e-4,-0.093,-9.331,0.095,9.475,-8.226e-5,0,8.226e-5,180,0.016,1.645,22.175,120.893,9.788,97.914,0,0,0,2.8e4,1.35e4,19.963,0.106,NaN,2019.981,NaN,0.018,1.227e6,4.603,-0.002,0.662,-0.004,0.327,0.215,0.12,NaN,NaN,NaN,NaN,NaN,NaN,NaN,NaN,1.283e-5,165,213.825,80,0,6.245,15,1013.25,340.389,0.01,0.003
0.1,-4.67e-4,-0.093,-9.341,0.095,9.485,-8.235e-5,0,8.235e-5,180,0.016,1.647,22.175,120.893,9.788,97.914,0,0,0,2.8e4,1.35e4,19.963,0.106,NaN,2019.979,NaN,0.018,1.229e6,4.315,-0.002,0.662,-0.004,0.327,0.215,0.12,NaN,NaN,NaN,NaN,NaN,NaN,NaN,NaN,1.284e-5,165,213.825,80,0,6.254,15,1013.25,340.389,0.01,0.003
0.11,-4.668e-4,-0.093,-9.337,0.095,9.481,-8.232e-5,0,8.232e-5,180,0.016,1.646,22.175,120.893,9.788,97.93,0,0,0,2.8e4,1.35e4,19.963,0.106,NaN,2019.977,NaN,0.018,1.206e6,4.431,-0.002,0.663,-0.004,0.328,0.215,0.12,NaN,NaN,NaN,NaN,NaN,NaN,NaN,NaN,1.284e-5,165,213.825,80,0,6.136,15,1013.25,340.389,0.01,0.004
0.12,-4.668e-4,-0.093,-9.336,0.095,9.48,-8.231e-5,0,8.231e-5,180,0.016,1.646,22.175,120.893,9.788,97.947,0,0,0,2.8e4,1.35e4,19.962,0.106,NaN,2019.976,NaN,0.018,1.183e6,4.436,-0.002,0.664,-0.004,0.329,0.215,0.12,NaN,NaN,NaN,NaN,NaN,NaN,NaN,NaN,1.284e-5,165,213.825,80,0,6.018,15,1013.25,340.389,0.01,0.004
0.13,-4.665e-4,-0.093,-9.33,0.095,9.474,-8.226e-5,0,8.226e-5,180,0.016,1.645,22.175,120.893,9.788,97.964,0,0,0,2.8e4,1.35e4,19.962,0.106,NaN,2019.974,NaN,0.017,1.16e6,4.62,-0.002,0.666,-0.004,0.33,0.215,0.12,NaN,NaN,NaN,NaN,NaN,NaN,NaN,NaN,1.283e-5,165,213.825,80,0,5.9,15,1013.25,340.389,0.01,0.004
0.14,-4.669e-4,-0.093,-9.338,0.095,9.482,-8.232e-5,0,8.232e-5,180,0.016,1.646,22.175,120.893,9.788,97.984,0,0,0,2.8e4,1.35e4,19.962,0.106,NaN,2019.972,NaN,0.017,1.136e6,4.404,-0.002,0.667,-0.004,0.332,0.215,0.12,NaN,NaN,NaN,NaN,NaN,NaN,NaN,NaN,1.284e-5,165,213.825,80,0,5.782,15,1013.25,340.389,0.01,0.004
0.15,-4.668e-4,-0.093,-9.336,0.095,9.48,-8.231e-5,0,8.231e-5,180,0.016,1.646,22.175,120.893,9.788,98.003,0,0,0,2.8e4,1.35e4,19.962,0.106,NaN,2019.97,NaN,0.017,1.113e6,4.444,-0.002,0.668,-0.004,0.333,0.215,0.12,NaN,NaN,NaN,NaN,NaN,NaN,NaN,NaN,1.284e-5,165,213.825,80,0,5.664,15,1013.25,340.389,0.01,0.005
0.16,-4.664e-4,-0.093,-9.329,0.095,9.473,-8.225e-5,0,8.225e-5,180,0.016,1.645,22.175,120.893,9.788,97.991,0,0,0,2.8e4,1.35e4,19.962,0.106,NaN,2019.969,NaN,0.017,1.127e6,4.651,-0.002,0.667,-0.004,0.332,0.215,0.12,NaN,NaN,NaN,NaN,NaN,NaN,NaN,NaN,1.283e-5,165,213.825,80,0,5.733,15,1013.25,340.389,0.01,0.005
0.17,-4.672e-4,-0.093,-9.344,0.095,9.488,-8.238e-5,0,8.238e-5,180,0.016,1.648,22.175,120.893,9.788,97.981,0,0,0,2.8e4,1.35e4,19.962,0.106,NaN,2019.967,NaN,0.017,1.14e6,4.218,-0.002,0.667,-0.004,0.331,0.215,0.12,NaN,NaN,NaN,NaN,NaN,NaN,NaN,NaN,1.285e-5,165,213.825,80,0,5.801,15,1013.25,340.389,0.01,0.005
0.18,-4.672e-4,-0.093,-9.344,0.095,9.488,-8.238e-5,0,8.238e-5,180,0.016,1.648,22.175,120.893,9.788,97.97,0,0,0,2.8e4,1.35e4,19.962,0.106,NaN,2019.965,NaN,0.017,1.154e6,4.225,-0.002,0.666,-0.004,0.331,0.215,0.12,NaN,NaN,NaN,NaN,NaN,NaN,NaN,NaN,1.285e-5,165,213.825,80,0,5.87,15,1013.25,340.389,0.01,0.005
0.19,-4.67e-4,-0.093,-9.34,0.095,9.485,-8.235e-5,0,8.235e-5,180,0.016,1.647,22.175,120.893,9.788,97.959,0,0,0,2.8e4,1.35e4,19.962,0.106,NaN,2019.964,NaN,0.017,1.167e6,4.321,-0.002,0.665,-0.004,0.33,0.215,0.12,NaN,NaN,NaN,NaN,NaN,NaN,NaN,NaN,1.284e-5,165,213.825,80,0,5.939,15,1013.25,340.389,0.01,0.006
0.2,-4.673e-4,-0.093,-9.346,0.095,9.49,-8.239e-5,0,8.239e-5,180,0.016,1.648,22.175,120.893,9.788,97.949,0,0,0,2.8e4,1.35e4,19.962,0.106,NaN,2019.962,NaN,0.018,1.181e6,4.174,-0.002,0.664,-0.004,0.329,0.215,0.12,NaN,NaN,NaN,NaN,NaN,NaN,NaN,NaN,1.285e-5,165,213.825,80,0,6.008,15,1013.25,340.389,0.01,0.006
0.21,-4.669e-4,-0.093,-9.338,0.095,9.482,-8.233e-5,0,8.233e-5,180,0.016,1.647,22.175,120.893,9.788,97.951,0,0,0,2.8e4,1.35e4,19.962,0.106,NaN,2019.961,NaN,0.018,1.178e6,4.381,-0.002,0.664,-0.004,0.329,0.215,0.12,NaN,NaN,NaN,NaN,NaN,NaN,NaN,NaN,1.284e-5,165,213.825,80,0,5.995,15,1013.25,340.389,0.01,0.006
0.22,-4.664e-4,-0.093,-9.329,0.095,9.473,-8.225e-5,0,8.225e-5,180,0.016,1.645,22.175,120.893,9.788,97.952,0,0,0,2.8e4,1.35e4,19.962,0.106,NaN,2019.959,NaN,0.018,1.176e6,4.657,-0.002,0.665,-0.004,0.329,0.215,0.12,NaN,NaN,NaN,NaN,NaN,NaN,NaN,NaN,1.283e-5,165,213.825,80,0,5.982,15,1013.25,340.389,0.01,0.006
0.23,-4.669e-4,-0.093,-9.338,0.095,9.482,-8.233e-5,0,8.233e-5,180,0.016,1.647,22.175,120.893,9.788,97.954,0,0,0,2.8e4,1.35e4,19.962,0.106,NaN,2019.957,NaN,0.018,1.173e6,4.392,-0.002,0.665,-0.004,0.33,0.215,0.12,NaN,NaN,NaN,NaN,NaN,NaN,NaN,NaN,1.284e-5,165,213.825,80,0,5.969,15,1013.25,340.389,0.01,0.006
0.24,-4.667e-4,-0.093,-9.334,0.095,9.478,-8.229e-5,0,8.229e-5,180,0.016,1.646,22.175,120.893,9.788,97.956,0,0,0,2.8e4,1.35e4,19.962,0.106,NaN,2019.955,NaN,0.018,1.171e6,4.513,-0.002,0.665,-0.004,0.33,0.215,0.12,NaN,NaN,NaN,NaN,NaN,NaN,NaN,NaN,1.283e-5,165,213.825,80,0,5.957,15,1013.25,340.389,0.01,0.007
0.25,-4.666e-4,-0.093,-9.331,0.095,9.475,-8.227e-5,0,8.227e-5,180,0.016,1.645,22.175,120.893,9.788,97.958,0,0,0,2.8e4,1.35e4,19.962,0.106,NaN,2019.954,NaN,0.017,1.168e6,4.587,-0.002,0.665,-0.004,0.33,0.215,0.12,NaN,NaN,NaN,NaN,NaN,NaN,NaN,NaN,1.283e-5,165,213.825,80,0,5.944,15,1013.25,340.389,0.01,0.007
0.26,-4.668e-4,-0.093,-9.337,0.095,9.481,-8.232e-5,0,8.232e-5,180,0.016,1.646,22.175,120.893,9.788,97.956,0,0,0,2.8e4,1.35e4,19.962,0.106,NaN,2019.952,NaN,0.018,1.171e6,4.429,-0.002,0.665,-0.004,0.33,0.215,0.12,NaN,NaN,NaN,NaN,NaN,NaN,NaN,NaN,1.284e-5,165,213.825,80,0,5.959,15,1013.25,340.389,0.01,0.007
0.27,-4.667e-4,-0.093,-9.333,0.095,9.477,-8.229e-5,0,8.229e-5,180,0.016,1.646,22.175,120.893,9.788,97.953,0,0,0,2.8e4,1.35e4,19.962,0.106,NaN,2019.95,NaN,0.018,1.174e6,4.527,-0.002,0.665,-0.004,0.33,0.215,0.12,NaN,NaN,NaN,NaN,NaN,NaN,NaN,NaN,1.283e-5,165,213.825,80,0,5.974,15,1013.25,340.389,0.01,0.007
0.28,-4.667e-4,-0.093,-9.335,0.095,9.479,-8.23e-5,0,8.23e-5,180,0.016,1.646,22.175,120.893,9.788,97.951,0,0,0,2.8e4,1.35e4,19.962,0.106,NaN,2019.949,NaN,0.018,1.177e6,4.488,-0.002,0.665,-0.004,0.329,0.215,0.12,NaN,NaN,NaN,NaN,NaN,NaN,NaN,NaN,1.283e-5,165,213.825,80,0,5.988,15,1013.25,340.389,0.01,0.007
0.29,-4.665e-4,-0.093,-9.33,0.095,9.474,-8.226e-5,0,8.226e-5,180,0.016,1.645,22.175,120.893,9.788,97.949,0,0,0,2.8e4,1.35e4,19.962,0.106,NaN,2019.947,NaN,0.018,1.18e6,4.616,-0.002,0.664,-0.004,0.329,0.215,0.12,NaN,NaN,NaN,NaN,NaN,NaN,NaN,NaN,1.283e-5,165,213.825,80,0,6.003,15,1013.25,340.389,0.01,0.008
0.3,-4.666e-4,-0.093,-9.332,0.095,9.476,-8.228e-5,0,8.228e-5,180,0.016,1.646,22.175,120.893,9.788,97.947,0,0,0,2.8e4,1.35e4,19.962,0.106,NaN,2019.945,NaN,0.018,1.183e6,4.548,-0.002,0.664,-0.004,0.329,0.215,0.12,NaN,NaN,NaN,NaN,NaN,NaN,NaN,NaN,1.283e-5,165,213.825,80,0,6.018,15,1013.25,340.389,0.01,0.008
0.31,-4.663e-4,-0.093,-9.327,0.095,9.471,-8.223e-5,0,8.223e-5,180,0.016,1.645,22.175,120.893,9.788,97.957,0,0,0,2.8e4,1.35e4,19.962,0.106,NaN,2019.943,NaN,0.018,1.169e6,4.706,-0.002,0.665,-0.004,0.33,0.215,0.12,NaN,NaN,NaN,NaN,NaN,NaN,NaN,NaN,1.282e-5,165,213.825,80,0,5.948,15,1013.25,340.389,0.01,0.008
0.32,-4.67e-4,-0.093,-9.34,0.095,9.484,-8.235e-5,0,8.235e-5,180,0.016,1.647,22.175,120.893,9.788,97.969,0,0,0,2.8e4,1.35e4,19.962,0.106,NaN,2019.942,NaN,0.017,1.155e6,4.332,-0.002,0.666,-0.004,0.331,0.215,0.12,NaN,NaN,NaN,NaN,NaN,NaN,NaN,NaN,1.284e-5,165,213.825,80,0,5.879,15,1013.25,340.389,0.01,0.008
0.33,-4.667e-4,-0.093,-9.335,0.095,9.479,-8.23e-5,0,8.23e-5,180,0.016,1.646,22.175,120.893,9.788,97.979,0,0,0,2.8e4,1.35e4,19.962,0.106,NaN,2019.94,NaN,0.017,1.142e6,4.483,-0.002,0.667,-0.004,0.331,0.215,0.12,NaN,NaN,NaN,NaN,NaN,NaN,NaN,NaN,1.283e-5,165,213.825,80,0,5.809,15,1013.25,340.389,0.01,0.008
0.34,-4.666e-4,-0.093,-9.332,0.095,9.476,-8.227e-5,0,8.227e-5,180,0.016,1.645,22.175,120.893,9.788,97.99,0,0,0,2.8e4,1.35e4,19.962,0.106,NaN,2019.938,NaN,0.017,1.128e6,4.57,-0.002,0.667,-0.004,0.332,0.215,0.12,NaN,NaN,NaN,NaN,NaN,NaN,NaN,NaN,1.283e-5,165,213.825,80,0,5.739,15,1013.25,340.389,0.01,0.009
0.35,-4.669e-4,-0.093,-9.337,0.095,9.481,-8.232e-5,0,8.232e-5,180,0.016,1.646,22.175,120.893,9.788,98.002,0,0,0,2.8e4,1.35e4,19.962,0.106,NaN,2019.936,NaN,0.017,1.114e6,4.419,-0.002,0.668,-0.004,0.333,0.215,0.12,NaN,NaN,NaN,NaN,NaN,NaN,NaN,NaN,1.284e-5,165,213.825,80,0,5.669,15,1013.25,340.389,0.01,0.009
0.36,-4.67e-4,-0.093,-9.341,0.095,9.485,-8.235e-5,0,8.235e-5,180,0.016,1.647,22.175,120.893,9.788,98.005,0,0,0,2.8e4,1.35e4,19.962,0.106,NaN,2019.935,NaN,0.017,1.112e6,4.317,-0.002,0.668,-0.004,0.333,0.215,0.12,NaN,NaN,NaN,NaN,NaN,NaN,NaN,NaN,1.284e-5,165,213.825,80,0,5.656,15,1013.25,340.389,0.01,0.009
0.37,-4.667e-4,-0.093,-9.333,0.095,9.477,-8.229e-5,0,8.229e-5,180,0.016,1.646,22.175,120.893,9.788,98.006,0,0,0,2.8e4,1.35e4,19.962,0.106,NaN,2019.933,NaN,0.017,1.109e6,4.522,-0.002,0.668,-0.004,0.333,0.215,0.12,NaN,NaN,NaN,NaN,NaN,NaN,NaN,NaN,1.283e-5,165,213.825,80,0,5.643,15,1013.25,340.389,0.01,0.009
0.38,-4.668e-4,-0.093,-9.337,0.095,9.481,-8.231e-5,0,8.231e-5,180,0.016,1.646,22.175,120.893,9.788,98.009,0,0,0,2.8e4,1.35e4,19.962,0.106,NaN,2019.931,NaN,0.017,1.107e6,4.433,-0.002,0.669,-0.004,0.333,0.215,0.12,NaN,NaN,NaN,NaN,NaN,NaN,NaN,NaN,1.284e-5,165,213.825,80,0,5.63,15,1013.25,340.389,0.01,0.009
0.39,-4.664e-4,-0.093,-9.328,0.095,9.472,-8.224e-5,0,8.224e-5,180,0.016,1.645,22.175,120.893,9.788,98.01,0,0,0,2.8e4,1.35e4,19.962,0.106,NaN,2019.93,NaN,0.017,1.104e6,4.673,-0.002,0.669,-0.004,0.334,0.215,0.12,NaN,NaN,NaN,NaN,NaN,NaN,NaN,NaN,1.282e-5,165,213.825,80,0,5.617,15,1013.25,340.389,0.01,0.01
0.4,-4.662e-4,-0.093,-9.323,0.095,9.467,-8.22e-5,0,8.22e-5,180,0.016,1.644,22.175,120.893,9.788,98.012,0,0,0,2.8e4,1.35e4,19.962,0.106,NaN,2019.928,NaN,0.016,1.101e6,4.812,-0.002,0.669,-0.004,0.334,0.215,0.12,NaN,NaN,NaN,NaN,NaN,NaN,NaN,NaN,1.282e-5,165,213.825,80,0,5.604,15,1013.25,340.389,0.01,0.01
0.41,-4.665e-4,-0.093,-9.331,0.095,9.475,-8.226e-5,0,8.226e-5,180,0.016,1.645,22.175,120.893,9.788,98.01,0,0,0,2.8e4,1.35e4,19.962,0.106,NaN,2019.926,NaN,0.017,1.104e6,4.595,-0.002,0.669,-0.004,0.334,0.215,0.12,NaN,NaN,NaN,NaN,NaN,NaN,NaN,NaN,1.283e-5,165,213.825,80,0,5.615,15,1013.25,340.389,0.01,0.01
0.42,-4.665e-4,-0.093,-9.329,0.095,9.473,-8.225e-5,0,8.225e-5,180,0.016,1.645,22.175,120.893,9.788,98.008,0,0,0,2.8e4,1.35e4,19.962,0.106,NaN,2019.924,NaN,0.017,1.106e6,4.638,-0.002,0.669,-0.004,0.333,0.215,0.12,NaN,NaN,NaN,NaN,NaN,NaN,NaN,NaN,1.283e-5,165,213.825,80,0,5.626,15,1013.25,340.389,0.01,0.01
0.43,-4.662e-4,-0.093,-9.323,0.095,9.467,-8.22e-5,0,8.22e-5,180,0.016,1.644,22.175,120.893,9.788,98.006,0,0,0,2.8e4,1.35e4,19.962,0.106,NaN,2019.922,NaN,0.017,1.108e6,4.811,-0.002,0.668,-0.004,0.333,0.215,0.12,NaN,NaN,NaN,NaN,NaN,NaN,NaN,NaN,1.282e-5,165,213.825,80,0,5.637,15,1013.25,340.389,0.01,0.01
0.44,-4.66e-4,-0.093,-9.319,0.095,9.463,-8.216e-5,0,8.216e-5,180,0.016,1.643,22.175,120.893,9.788,98.004,0,0,0,2.8e4,1.35e4,19.962,0.106,NaN,2019.921,NaN,0.017,1.11e6,4.919,-0.002,0.668,-0.004,0.333,0.215,0.12,NaN,NaN,NaN,NaN,NaN,NaN,NaN,NaN,1.281e-5,165,213.825,80,0,5.649,15,1013.25,340.389,0.01,0.011
0.45,-4.666e-4,-0.093,-9.331,0.095,9.475,-8.227e-5,0,8.227e-5,180,0.016,1.645,22.175,120.893,9.788,98.003,0,0,0,2.8e4,1.35e4,19.961,0.106,NaN,2019.919,NaN,0.017,1.112e6,4.583,-0.002,0.668,-0.004,0.333,0.215,0.12,NaN,NaN,NaN,NaN,NaN,NaN,NaN,NaN,1.283e-5,165,213.825,80,0,5.66,15,1013.25,340.389,0.01,0.011
0.46,-4.668e-4,-0.093,-9.337,0.095,9.481,-8.232e-5,0,8.232e-5,180,0.016,1.646,22.175,120.893,9.788,98.01,0,0,0,2.8e4,1.35e4,19.961,0.106,NaN,2019.917,NaN,0.017,1.105e6,4.429,-0.002,0.669,-0.004,0.333,0.215,0.12,NaN,NaN,NaN,NaN,NaN,NaN,NaN,NaN,1.284e-5,165,213.825,80,0,5.622,15,1013.25,340.389,0.01,0.011
0.47,-4.668e-4,-0.093,-9.336,0.095,9.48,-8.231e-5,0,8.231e-5,180,0.016,1.646,22.175,120.893,9.788,98.016,0,0,0,2.8e4,1.35e4,19.961,0.106,NaN,2019.915,NaN,0.016,1.098e6,4.45,-0.002,0.669,-0.004,0.334,0.215,0.12,NaN,NaN,NaN,NaN,NaN,NaN,NaN,NaN,1.284e-5,165,213.825,80,0,5.585,15,1013.25,340.389,0.01,0.011
0.48,-4.66e-4,-0.093,-9.32,0.095,9.464,-8.217e-5,0,8.217e-5,180,0.016,1.643,22.175,120.893,9.788,98.021,0,0,0,2.8e4,1.35e4,19.961,0.106,NaN,2019.914,NaN,0.016,1.09e6,4.905,-0.002,0.669,-0.004,0.334,0.215,0.12,NaN,NaN,NaN,NaN,NaN,NaN,NaN,NaN,1.281e-5,165,213.825,80,0,5.548,15,1013.25,340.389,0.01,0.011
0.49,-4.663e-4,-0.093,-9.326,0.095,9.469,-8.222e-5,0,8.222e-5,180,0.016,1.644,22.175,120.893,9.788,98.028,0,0,0,2.8e4,1.35e4,19.961,0.106,NaN,2019.912,NaN,0.016,1.083e6,4.746,-0.002,0.67,-0.004,0.335,0.215,0.12,NaN,NaN,NaN,NaN,NaN,NaN,NaN,NaN,1.282e-5,165,213.825,80,0,5.51,15,1013.25,340.389,0.01,0.011
0.5,-4.668e-4,-0.093,-9.335,0.095,9.479,-8.23e-5,0,8.23e-5,180,0.016,1.646,22.175,120.893,9.788,98.036,0,0,0,2.8e4,1.35e4,19.961,0.106,NaN,2019.91,NaN,0.016,1.076e6,4.47,-0.002,0.67,-0.004,0.335,0.215,0.12,NaN,NaN,NaN,NaN,NaN,NaN,NaN,NaN,1.283e-5,165,213.825,80,0,5.473,15,1013.25,340.389,0.01,0.012
0.51,-4.664e-4,-0.093,-9.329,0.095,9.473,-8.225e-5,0,8.225e-5,180,0.016,1.645,22.175,120.893,9.788,98.02,0,0,0,2.8e4,1.35e4,19.961,0.106,NaN,2019.908,NaN,0.016,1.093e6,4.657,-0.002,0.669,-0.004,0.334,0.215,0.12,NaN,NaN,NaN,NaN,NaN,NaN,NaN,NaN,1.283e-5,165,213.825,80,0,5.559,15,1013.25,340.389,0.01,0.012
0.52,-4.656e-4,-0.093,-9.313,0.095,9.456,-8.21e-5,0,8.21e-5,180,0.016,1.642,22.175,120.893,9.788,98.004,0,0,0,2.8e4,1.35e4,19.961,0.106,NaN,2019.906,NaN,0.017,1.109e6,5.115,-0.002,0.668,-0.004,0.333,0.215,0.12,NaN,NaN,NaN,NaN,NaN,NaN,NaN,NaN,1.28e-5,165,213.825,80,0,5.645,15,1013.25,340.389,0.01,0.012
0.53,-4.652e-4,-0.093,-9.305,0.094,9.448,-8.203e-5,0,8.203e-5,180,0.016,1.641,22.175,120.893,9.788,97.989,0,0,0,2.8e4,1.35e4,19.961,0.106,NaN,2019.904,NaN,0.017,1.126e6,5.339,-0.002,0.667,-0.004,0.332,0.215,0.12,NaN,NaN,NaN,NaN,NaN,NaN,NaN,NaN,1.279e-5,165,213.825,80,0,5.73,15,1013.25,340.389,0.01,0.012
0.54,-4.665e-4,-0.093,-9.329,0.095,9.473,-8.225e-5,0,8.225e-5,180,0.016,1.645,22.175,120.893,9.788,97.977,0,0,0,2.8e4,1.35e4,19.961,0.106,NaN,2019.903,NaN,0.017,1.143e6,4.638,-0.002,0.666,-0.004,0.331,0.215,0.12,NaN,NaN,NaN,NaN,NaN,NaN,NaN,NaN,1.283e-5,165,213.825,80,0,5.816,15,1013.25,340.389,0.01,0.012
0.55,-4.661e-4,-0.093,-9.323,0.095,9.467,-8.219e-5,0,8.219e-5,180,0.016,1.644,22.175,120.893,9.788,97.963,0,0,0,2.8e4,1.35e4,19.961,0.106,NaN,2019.901,NaN,0.017,1.16e6,4.82,-0.002,0.665,-0.004,0.33,0.215,0.12,NaN,NaN,NaN,NaN,NaN,NaN,NaN,NaN,1.282e-5,165,213.825,80,0,5.902,15,1013.25,340.389,0.01,0.013
0.56,-4.656e-4,-0.093,-9.312,0.095,9.455,-8.21e-5,0,8.21e-5,180,0.016,1.642,22.175,120.893,9.788,97.955,0,0,0,2.8e4,1.35e4,19.961,0.106,NaN,2019.899,NaN,0.018,1.169e6,5.14,-0.002,0.665,-0.004,0.33,0.215,0.12,NaN,NaN,NaN,NaN,NaN,NaN,NaN,NaN,1.28e-5,165,213.825,80,0,5.948,15,1013.25,340.389,0.01,0.013
0.57,-4.655e-4,-0.093,-9.311,0.095,9.454,-8.209e-5,0,8.209e-5,180,0.016,1.642,22.175,120.893,9.788,97.948,0,0,0,2.8e4,1.35e4,19.961,0.106,NaN,2019.897,NaN,0.018,1.178e6,5.164,-0.002,0.664,-0.004,0.329,0.215,0.12,NaN,NaN,NaN,NaN,NaN,NaN,NaN,NaN,1.28e-5,165,213.825,80,0,5.994,15,1013.25,340.389,0.01,0.013
0.58,-4.656e-4,-0.093,-9.312,0.095,9.456,-8.21e-5,0,8.21e-5,180,0.016,1.642,22.175,120.893,9.788,97.941,0,0,0,2.8e4,1.35e4,19.961,0.106,NaN,2019.895,NaN,0.018,1.187e6,5.125,-0.002,0.664,-0.004,0.329,0.215,0.12,NaN,NaN,NaN,NaN,NaN,NaN,NaN,NaN,1.28e-5,165,213.825,80,0,6.04,15,1013.25,340.389,0.01,0.013
0.59,-4.653e-4,-0.093,-9.306,0.094,9.45,-8.205e-5,0,8.205e-5,180,0.016,1.641,22.175,120.893,9.788,97.934,0,0,0,2.8e4,1.35e4,19.961,0.106,NaN,2019.893,NaN,0.018,1.196e6,5.296,-0.002,0.664,-0.004,0.328,0.215,0.12,NaN,NaN,NaN,NaN,NaN,NaN,NaN,NaN,1.279e-5,165,213.825,80,0,6.086,15,1013.25,340.389,0.01,0.013
0.6,-4.648e-4,-0.093,-9.297,0.094,9.44,-8.196e-5,0,8.196e-5,180,0.016,1.639,22.175,120.893,9.788,97.927,0,0,0,2.8e4,1.349e4,19.961,0.106,NaN,2019.891,NaN,0.018,1.205e6,5.567,-0.002,0.663,-0.004,0.328,0.215,0.12,NaN,NaN,NaN,NaN,NaN,NaN,NaN,NaN,1.278e-5,165,213.825,80,0,6.132,15,1013.25,340.389,0.01,0.014
0.61,-4.646e-4,-0.093,-9.291,0.094,9.435,-8.192e-5,0,8.192e-5,180,0.016,1.638,22.175,120.893,9.788,97.933,0,0,0,2.8e4,1.349e4,19.961,0.106,NaN,2019.889,NaN,0.018,1.196e6,5.717,-0.002,0.664,-0.004,0.328,0.215,0.12,NaN,NaN,NaN,NaN,NaN,NaN,NaN,NaN,1.277e-5,165,213.825,80,0,6.086,15,1013.25,340.389,0.01,0.014
0.62,-4.652e-4,-0.093,-9.304,0.094,9.447,-8.203e-5,0,8.203e-5,180,0.016,1.64,22.175,120.893,9.788,97.94,0,0,0,2.8e4,1.349e4,19.961,0.106,NaN,2019.887,NaN,0.018,1.187e6,5.366,-0.002,0.664,-0.004,0.329,0.215,0.12,NaN,NaN,NaN,NaN,NaN,NaN,NaN,NaN,1.279e-5,165,213.825,80,0,6.041,15,1013.25,340.389,0.01,0.014
0.63,-4.643e-4,-0.093,-9.287,0.094,9.43,-8.188e-5,0,8.188e-5,180,0.016,1.638,22.175,120.893,9.788,97.946,0,0,0,2.799e4,1.349e4,19.961,0.106,NaN,2019.884,NaN,0.018,1.178e6,5.844,-0.002,0.664,-0.004,0.329,0.215,0.12,NaN,NaN,NaN,NaN,NaN,NaN,NaN,NaN,1.277e-5,165,213.825,80,0,5.996,15,1013.25,340.389,0.01,0.014
0.64,-4.644e-4,-0.093,-9.289,0.094,9.432,-8.189e-5,0,8.189e-5,180,0.016,1.638,22.175,120.893,9.788,97.952,0,0,0,2.799e4,1.349e4,19.961,0.106,NaN,2019.882,NaN,0.018,1.169e6,5.786,-0.002,0.665,-0.004,0.33,0.215,0.12,NaN,NaN,NaN,NaN,NaN,NaN,NaN,NaN,1.277e-5,165,213.825,80,0,5.951,15,1013.25,340.389,0.01,0.014
0.65,-4.641e-4,-0.093,-9.283,0.094,9.426,-8.184e-5,0,8.184e-5,180,0.016,1.637,22.175,120.893,9.788,97.959,0,0,0,2.799e4,1.349e4,19.961,0.106,NaN,2019.88,NaN,0.017,1.161e6,5.968,-0.002,0.665,-0.004,0.33,0.215,0.12,NaN,NaN,NaN,NaN,NaN,NaN,NaN,NaN,1.276e-5,165,213.825,80,0,5.906,15,1013.25,340.389,0.01,0.014
0.66,-4.631e-4,-0.093,-9.262,0.094,9.405,-8.166e-5,0,8.166e-5,180,0.016,1.633,22.175,120.893,9.788,97.951,0,0,0,2.799e4,1.349e4,19.961,0.106,NaN,2019.877,NaN,0.017,1.168e6,6.551,-0.002,0.665,-0.004,0.33,0.215,0.12,NaN,NaN,NaN,NaN,NaN,NaN,NaN,NaN,1.273e-5,165,213.825,80,0,5.942,15,1013.25,340.389,0.01,0.015
0.67,-4.628e-4,-0.093,-9.256,0.094,9.399,-8.16e-5,0,8.16e-5,180,0.016,1.632,22.175,120.893,9.788,97.945,0,0,0,2.799e4,1.349e4,19.961,0.106,NaN,2019.875,NaN,0.018,1.175e6,6.72,-0.002,0.665,-0.004,0.329,0.215,0.12,NaN,NaN,NaN,NaN,NaN,NaN,NaN,NaN,1.273e-5,165,213.825,80,0,5.978,15,1013.25,340.389,0.01,0.015
0.68,-4.618e-4,-0.092,-9.236,0.094,9.378,-8.143e-5,0,8.143e-5,180,0.016,1.629,22.175,120.893,9.788,97.938,0,0,0,2.799e4,1.349e4,19.961,0.106,NaN,2019.872,NaN,0.018,1.182e6,7.299,-0.002,0.664,-0.004,0.329,0.215,0.12,NaN,NaN,NaN,NaN,NaN,NaN,NaN,NaN,1.27e-5,165,213.825,80,0,6.014,15,1013.25,340.389,0.01,0.015
0.69,-4.615e-4,-0.092,-9.23,0.094,9.372,-8.137e-5,0,8.137e-5,180,0.016,1.627,22.175,120.893,9.788,97.932,0,0,0,2.799e4,1.349e4,19.961,0.106,NaN,2019.869,NaN,0.018,1.189e6,7.467,-0.002,0.664,-0.004,0.329,0.215,0.12,NaN,NaN,NaN,NaN,NaN,NaN,NaN,NaN,1.269e-5,165,213.825,80,0,6.051,15,1013.25,340.389,0.01,0.015
0.7,-4.606e-4,-0.092,-9.213,0.094,9.355,-8.122e-5,0,8.122e-5,180,0.016,1.624,22.175,120.893,9.788,97.925,0,0,0,2.799e4,1.349e4,19.961,0.106,NaN,2019.866,NaN,0.018,1.196e6,7.951,-0.002,0.664,-0.004,0.328,0.215,0.12,NaN,NaN,NaN,NaN,NaN,NaN,NaN,NaN,1.267e-5,165,213.825,80,0,6.087,15,1013.25,340.389,0.01,0.015
0.71,-4.589e-4,-0.092,-9.178,0.093,9.32,-8.092e-5,0,8.092e-5,180,0.016,1.618,22.175,120.893,9.788,97.917,0,0,0,2.799e4,1.349e4,19.96,0.106,NaN,2019.863,NaN,0.018,1.203e6,8.938,-0.002,0.663,-0.004,0.328,0.215,0.12,NaN,NaN,NaN,NaN,NaN,NaN,NaN,NaN,1.262e-5,165,213.825,80,0,6.121,15,1013.25,340.389,0.01,0.016
0.72,-4.583e-4,-0.092,-9.167,0.093,9.308,-8.082e-5,0,8.082e-5,180,0.016,1.616,22.175,120.893,9.788,97.911,0,0,0,2.799e4,1.349e4,19.96,0.106,NaN,2019.859,NaN,0.018,1.209e6,9.255,-0.002,0.663,-0.004,0.328,0.215,0.12,NaN,NaN,NaN,NaN,NaN,NaN,NaN,NaN,1.26e-5,165,213.825,80,0,6.154,15,1013.25,340.389,0.01,0.016
0.73,-4.567e-4,-0.091,-9.134,0.093,9.275,-8.053e-5,0,8.053e-5,180,0.016,1.611,22.175,120.893,9.788,97.904,0,0,0,2.799e4,1.349e4,19.96,0.106,NaN,2019.855,NaN,0.018,1.216e6,10.185,-0.002,0.662,-0.004,0.327,0.215,0.12,NaN,NaN,NaN,NaN,NaN,NaN,NaN,NaN,1.256e-5,165,213.825,80,0,6.188,15,1013.25,340.389,0.01,0.016
0.74,-4.548e-4,-0.091,-9.096,0.092,9.236,-8.019e-5,0,8.019e-5,180,0.016,1.604,22.175,120.893,9.788,97.895,0,0,0,2.799e4,1.349e4,19.96,0.106,NaN,2019.851,NaN,0.018,1.223e6,11.275,-0.002,0.662,-0.004,0.327,0.215,0.12,NaN,NaN,NaN,NaN,NaN,NaN,NaN,NaN,1.251e-5,165,213.825,80,0,6.222,15,1013.25,340.389,0.01,0.016
0.75,-4.53e-4,-0.091,-9.059,0.092,9.199,-7.987e-5,0,7.987e-5,180,0.016,1.597,22.175,120.893,9.788,97.888,0,0,0,2.799e4,1.349e4,19.96,0.106,NaN,2019.846,NaN,0.018,1.229e6,12.322,-0.002,0.662,-0.004,0.327,0.215,0.12,NaN,NaN,NaN,NaN,NaN,NaN,NaN,NaN,1.245e-5,165,213.825,80,0,6.256,15,1013.25,340.389,0.01,0.016
0.76,-4.506e-4,-0.09,-9.012,0.092,9.151,-7.945e-5,0,7.945e-5,180,0.016,1.589,22.175,120.893,9.788,97.875,0,0,0,2.799e4,1.349e4,19.96,0.106,NaN,2019.841,NaN,0.019,1.242e6,13.663,-0.002,0.661,-0.004,0.326,0.215,0.12,NaN,NaN,NaN,NaN,NaN,NaN,NaN,NaN,1.239e-5,165,213.825,80,0,6.322,15,1013.25,340.389,0.01,0.016
0.77,-4.495e-4,-0.09,-8.989,0.091,9.128,-7.925e-5,0,7.925e-5,180,0.016,1.585,22.175,120.893,9.788,97.864,0,0,0,2.799e4,1.349e4,19.96,0.106,NaN,2019.836,NaN,0.019,1.255e6,14.302,-0.002,0.66,-0.004,0.325,0.215,0.12,NaN,NaN,NaN,NaN,NaN,NaN,NaN,NaN,1.236e-5,165,213.825,80,0,6.387,15,1013.25,340.389,0.01,0.017
0.78,-4.469e-4,-0.089,-8.938,0.091,9.076,-7.88e-5,0,7.88e-5,180,0.016,1.576,22.175,120.893,9.788,97.851,0,0,0,2.799e4,1.349e4,19.96,0.106,NaN,2019.83,NaN,0.019,1.268e6,15.77,-0.002,0.66,-0.004,0.325,0.215,0.12,NaN,NaN,NaN,NaN,NaN,NaN,NaN,NaN,1.229e-5,165,213.825,80,0,6.453,15,1013.25,340.389,0.01,0.017
0.79,-4.448e-4,-0.089,-8.897,0.09,9.034,-7.844e-5,0,7.844e-5,180,0.016,1.569,22.175,120.893,9.788,97.84,0,0,0,2.799e4,1.349e4,19.96,0.106,NaN,2019.823,NaN,0.019,1.281e6,16.927,-0.002,0.659,-0.004,0.324,0.215,0.12,NaN,NaN,NaN,NaN,NaN,NaN,NaN,NaN,1.223e-5,165,213.825,80,0,6.519,15,1013.25,340.389,0.01,0.017
0.8,-4.427e-4,-0.089,-8.855,0.09,8.992,-7.807e-5,0,7.807e-5,180,0.016,1.561,22.175,120.893,9.788,97.828,0,0,0,2.799e4,1.349e4,19.96,0.106,NaN,2019.816,NaN,0.019,1.294e6,18.121,-0.002,0.659,-0.004,0.323,0.215,0.12,NaN,NaN,NaN,NaN,NaN,NaN,NaN,NaN,1.217e-5,165,213.825,80,0,6.584,15,1013.25,340.389,0.01,0.017
0.81,-4.404e-4,-0.088,-8.809,0.089,8.944,-7.766e-5,0,7.766e-5,180,0.016,1.553,22.175,120.893,9.788,97.818,0,0,0,2.799e4,1.349e4,19.96,0.106,NaN,2019.809,NaN,0.02,1.304e6,19.438,-0.002,0.658,-0.004,0.323,0.215,0.12,NaN,NaN,NaN,NaN,NaN,NaN,NaN,NaN,1.211e-5,165,213.825,80,0,6.635,15,1013.25,340.389,0.01,0.017
0.82,-4.392e-4,-0.088,-8.783,0.089,8.919,-7.744e-5,0,7.744e-5,180,0.015,1.549,22.175,120.893,9.788,97.81,0,0,0,2.799e4,1.349e4,19.959,0.106,NaN,2019.801,NaN,0.02,1.314e6,20.155,-0.002,0.658,-0.004,0.322,0.215,0.12,NaN,NaN,NaN,NaN,NaN,NaN,NaN,NaN,1.208e-5,165,213.825,80,0,6.686,15,1013.25,340.389,0.01,0.018
0.83,-4.343e-4,-0.087,-8.687,0.088,8.821,-7.659e-5,0,7.659e-5,180,0.015,1.532,22.175,120.893,9.788,97.796,0,0,0,2.799e4,1.349e4,19.959,0.106,NaN,2019.793,NaN,0.02,1.323e6,22.899,-0.002,0.657,-0.004,0.322,0.215,0.12,NaN,NaN,NaN,NaN,NaN,NaN,NaN,NaN,1.194e-5,165,213.825,80,0,6.737,15,1013.25,340.389,0.01,0.018
0.84,-4.256e-4,-0.085,-8.511,0.086,8.643,-7.504e-5,0,7.504e-5,180,0.015,1.501,22.175,120.893,9.788,97.776,0,0,0,2.799e4,1.349e4,19.959,0.106,NaN,2019.782,NaN,0.02,1.333e6,27.886,-0.002,0.657,-0.004,0.321,0.215,0.12,NaN,NaN,NaN,NaN,NaN,NaN,NaN,NaN,1.17e-5,165,213.825,80,0,6.788,15,1013.25,340.389,0.01,0.018
0.85,-4.183e-4,-0.084,-8.365,0.085,8.494,-7.375e-5,0,7.375e-5,180,0.015,1.475,22.175,120.893,9.788,97.758,0,0,0,2.799e4,1.349e4,19.959,0.106,NaN,2019.77,NaN,0.02,1.343e6,32.036,-0.002,0.656,-0.004,0.321,0.215,0.12,NaN,NaN,NaN,NaN,NaN,NaN,NaN,NaN,1.15e-5,165,213.825,80,0,6.838,15,1013.25,340.389,0.01,0.018
0.86,-4.106e-4,-0.082,-8.212,0.083,8.339,-7.24e-5,0,7.24e-5,180,0.014,1.448,22.175,120.893,9.788,97.743,0,0,0,2.799e4,1.349e4,19.959,0.106,NaN,2019.756,NaN,0.02,1.348e6,36.392,-0.002,0.656,-0.004,0.321,0.215,0.12,NaN,NaN,NaN,NaN,NaN,NaN,NaN,NaN,1.129e-5,165,213.825,80,0,6.86,15,1013.25,340.389,0.01,0.018
0.87,-4.032e-4,-0.081,-8.065,0.082,8.189,-7.11e-5,0,7.11e-5,180,0.014,1.422,22.175,120.893,9.788,97.729,0,0,0,2.799e4,1.349e4,19.958,0.106,NaN,2019.74,NaN,0.02,1.352e6,40.581,-0.002,0.656,-0.004,0.321,0.215,0.12,NaN,NaN,NaN,NaN,NaN,NaN,NaN,NaN,1.109e-5,165,213.825,80,0,6.882,15,1013.25,340.389,0.01,0.019
0.88,-3.96e-4,-0.079,-7.92,0.08,8.042,-6.983e-5,0,6.983e-5,180,0.014,1.397,22.175,120.893,9.788,97.714,0,0,0,2.799e4,1.349e4,19.958,0.106,NaN,2019.723,NaN,0.02,1.356e6,44.682,-0.002,0.656,-0.004,0.32,0.215,0.12,NaN,NaN,NaN,NaN,NaN,NaN,NaN,NaN,1.089e-5,165,213.825,80,0,6.904,15,1013.25,340.389,0.01,0.019
0.89,-3.897e-4,-0.078,-7.793,0.079,7.913,-6.871e-5,0,6.871e-5,180,0.014,1.374,22.175,120.893,9.788,97.702,0,0,0,2.799e4,1.349e4,19.958,0.106,NaN,2019.705,NaN,0.02,1.36e6,48.294,-0.002,0.655,-0.004,0.32,0.215,0.12,NaN,NaN,NaN,NaN,NaN,NaN,NaN,NaN,1.071e-5,165,213.825,80,0,6.926,15,1013.25,340.389,0.01,0.019
0.9,-3.836e-4,-0.077,-7.671,0.078,7.79,-6.763e-5,0,6.763e-5,180,0.014,1.353,22.175,120.893,9.788,97.69,0,0,0,2.799e4,1.349e4,19.957,0.106,NaN,2019.685,NaN,0.02,1.365e6,51.752,-0.002,0.655,-0.004,0.32,0.215,0.12,NaN,NaN,NaN,NaN,NaN,NaN,NaN,NaN,1.055e-5,165,213.825,80,0,6.948,15,1013.25,340.389,0.01,0.019
0.91,-3.755e-4,-0.075,-7.511,0.076,7.626,-6.622e-5,0,6.622e-5,180,0.013,1.324,22.175,120.893,9.788,97.677,0,0,0,2.798e4,1.348e4,19.957,0.106,NaN,2019.664,NaN,0.02,1.363e6,56.319,-0.002,0.655,-0.004,0.32,0.215,0.12,NaN,NaN,NaN,NaN,NaN,NaN,NaN,NaN,1.033e-5,165,213.825,80,0,6.943,15,1013.25,340.389,0.01,0.019
0.92,-3.677e-4,-0.074,-7.355,0.075,7.468,-6.484e-5,0,6.484e-5,180,0.013,1.297,22.175,120.893,9.788,97.664,0,0,0,2.798e4,1.348e4,19.957,0.106,NaN,2019.641,NaN,0.02,1.362e6,60.748,-0.002,0.655,-0.004,0.32,0.215,0.12,NaN,NaN,NaN,NaN,NaN,NaN,NaN,NaN,1.011e-5,165,213.825,80,0,6.938,15,1013.25,340.389,0.01,0.019
0.93,-3.56e-4,-0.071,-7.121,0.072,7.231,-6.278e-5,0,6.278e-5,180,0.013,1.256,22.175,120.893,9.788,97.645,0,0,0,2.798e4,1.348e4,19.956,0.106,NaN,2019.615,NaN,0.02,1.361e6,67.387,-0.002,0.655,-0.004,0.32,0.215,0.12,NaN,NaN,NaN,NaN,NaN,NaN,NaN,NaN,9.79e-6,165,213.825,80,0,6.932,15,1013.25,340.389,0.01,0.02
0.94,-3.418e-4,-0.068,-6.837,0.069,6.942,-6.028e-5,0,6.028e-5,180,0.012,1.206,22.175,120.893,9.788,97.622,0,0,0,2.798e4,1.348e4,19.956,0.106,NaN,2019.586,NaN,0.02,1.36e6,75.455,-0.002,0.655,-0.004,0.32,0.215,0.12,NaN,NaN,NaN,NaN,NaN,NaN,NaN,NaN,9.399e-6,165,213.825,80,0,6.927,15,1013.25,340.389,0.01,0.02
0.95,-3.257e-4,-0.065,-6.515,0.066,6.615,-5.744e-5,0,5.744e-5,180,0.011,1.149,22.175,120.893,9.788,97.596,0,0,0,2.798e4,1.348e4,19.955,0.106,NaN,2019.554,NaN,0.02,1.359e6,84.603,-0.002,0.656,-0.004,0.32,0.215,0.12,NaN,NaN,NaN,NaN,NaN,NaN,NaN,NaN,8.957e-6,165,213.825,80,0,6.922,15,1013.25,340.389,0.01,0.02
0.96,-3.058e-4,-0.061,-6.116,0.062,6.21,-5.392e-5,0,5.392e-5,180,0.011,1.078,22.175,120.893,9.788,97.562,0,0,0,2.798e4,1.348e4,19.954,0.106,NaN,2019.517,NaN,0.02,1.361e6,95.934,-0.002,0.655,-0.003,0.32,0.215,0.12,NaN,NaN,NaN,NaN,NaN,NaN,NaN,NaN,8.408e-6,165,213.825,80,0,6.93,15,1013.25,340.389,0.01,0.02
0.97,-2.857e-4,-0.057,-5.714,0.058,5.802,-5.038e-5,0,5.038e-5,180,0.01,1.008,22.175,120.893,9.788,97.528,0,0,0,2.798e4,1.348e4,19.954,0.106,NaN,2019.476,NaN,0.02,1.362e6,107.326,-0.002,0.655,-0.003,0.32,0.215,0.12,NaN,NaN,NaN,NaN,NaN,NaN,NaN,NaN,7.856e-6,165,213.825,80,0,6.937,15,1013.25,340.389,0.01,0.02
0.98,-2.598e-4,-0.052,-5.196,0.053,5.276,-4.581e-5,0,4.581e-5,180,0.009,0.916,22.175,120.893,9.788,97.485,0,0,0,2.797e4,1.347e4,19.953,0.106,NaN,2019.43,NaN,0.02,1.363e6,122.033,-0.002,0.655,-0.003,0.32,0.215,0.12,NaN,NaN,NaN,NaN,NaN,NaN,NaN,NaN,7.144e-6,165,213.825,80,0,6.945,15,1013.25,340.389,0.01,0.021
0.99,-2.264e-4,-0.045,-4.527,0.046,4.597,-3.992e-5,0,3.992e-5,180,0.008,0.798,22.175,120.893,9.788,97.429,0,0,0,2.797e4,1.347e4,19.952,0.106,NaN,2019.376,NaN,0.02,1.365e6,141.022,-0.002,0.655,-0.003,0.32,0.215,0.12,NaN,NaN,NaN,NaN,NaN,NaN,NaN,NaN,6.225e-6,165,213.825,80,0,6.953,15,1013.25,340.389,0.01,0.021
1,-1.775e-4,-0.035,-3.549,0.036,3.604,-3.129e-5,0,3.129e-5,180,0.006,0.626,22.175,120.893,9.788,97.347,0,0,0,2.797e4,1.347e4,19.951,0.106,NaN,2019.312,NaN,0.02,1.366e6,168.795,-0.002,0.655,-0.003,0.32,0.215,0.12,NaN,NaN,NaN,NaN,NaN,NaN,NaN,NaN,4.879e-6,165,213.825,80,0,6.96,15,1013.25,340.389,0.01,0.021
1.01,-1.08e-4,-0.022,-2.16,0.022,2.193,-1.905e-5,0,1.905e-5,180,0.004,0.381,22.175,120.893,9.788,97.233,0,0,0,2.796e4,1.346e4,19.949,0.106,NaN,2019.232,NaN,0.02,1.358e6,208.221,-0.002,0.656,-0.003,0.32,0.215,0.12,NaN,NaN,NaN,NaN,NaN,NaN,NaN,NaN,2.97e-6,165,213.825,80,0,6.921,15,1013.25,340.389,0.01,0.021
1.02,-4.339e-5,-0.009,-0.867,0.009,0.88,-7.651e-6,0,7.651e-6,180,0.002,0.153,22.175,120.893,9.788,97.126,0,0,0,2.796e4,1.346e4,19.948,0.106,NaN,2019.139,NaN,0.02,1.35e6,244.886,-0.002,0.656,-0.003,0.321,0.215,0.12,NaN,NaN,NaN,NaN,NaN,NaN,NaN,NaN,1.193e-6,165,213.825,80,0,6.882,15,1013.25,340.389,0.01,0.021
1.03,2.652e-5,0.005,0.532,0.005,0.54,4.676e-6,0,4.676e-6,0,9.357e-4,0.094,22.175,120.893,9.788,97.008,0,0,0,2.795e4,1.345e4,19.946,0.106,NaN,2019.03,NaN,0.02,1.342e6,284.538,-0.002,0.656,-0.003,0.321,0.215,0.12,NaN,NaN,NaN,NaN,NaN,NaN,NaN,NaN,7.295e-7,165,213.825,80,0,6.843,15,1013.25,340.389,0.01,0.021
1.04,1.812e-4,0.026,2.035,0.026,2.066,3.196e-5,0,3.196e-5,0,0.005,0.359,22.175,120.893,9.788,96.835,0,0,0,2.795e4,1.345e4,19.943,0.106,NaN,2018.905,NaN,0.02,1.334e6,327.142,-0.002,0.657,-0.003,0.321,0.215,0.12,NaN,NaN,NaN,NaN,NaN,NaN,NaN,NaN,3.525e-6,165,213.825,80,0,6.804,15,1013.25,340.389,0.01,0.022
1.05,6.197e-4,0.062,3.643,0.063,3.699,1.093e-4,0,1.093e-4,0,0.011,0.642,22.175,120.893,9.788,96.523,0,0,0,2.794e4,1.344e4,19.941,0.106,NaN,2018.763,NaN,0.02,1.325e6,372.693,-0.001,0.657,-0.002,0.322,0.215,0.12,NaN,NaN,NaN,NaN,NaN,NaN,NaN,NaN,8.532e-6,165,213.825,80,0,6.765,15,1013.25,340.389,0.01,0.022
1.06,0.002,0.118,5.603,0.12,5.689,2.681e-4,0,2.681e-4,0,0.021,0.988,22.175,120.893,9.788,96.056,0,0,0,2.793e4,1.343e4,19.938,0.106,NaN,2018.599,NaN,0.02,1.34e6,428.171,-0.001,0.656,-0.002,0.321,0.215,0.12,NaN,NaN,NaN,NaN,NaN,NaN,NaN,NaN,1.623e-5,165,213.825,80,0,6.849,15,1013.25,340.389,0.01,0.022
1.07,0.003,0.193,7.537,0.196,7.653,5.427e-4,0,5.427e-4,0,0.034,1.329,22.175,120.893,9.788,95.437,0,0,0,2.792e4,1.342e4,19.935,0.106,NaN,2018.415,NaN,0.02,1.355e6,482.882,-8.32e-4,0.656,-0.001,0.32,0.215,0.12,NaN,NaN,NaN,NaN,NaN,NaN,NaN,NaN,2.659e-5,165,213.825,80,0,6.933,15,1013.25,340.389,0.01,0.022
1.08,0.005,0.291,9.756,0.295,9.907,9.697e-4,0,9.697e-4,0,0.051,1.72,22.175,120.893,9.788,94.648,0,0,0,2.791e4,1.341e4,19.931,0.106,NaN,2018.206,NaN,0.021,1.37e6,545.617,-5.351e-4,0.655,-8.371e-4,0.32,0.215,0.12,NaN,NaN,NaN,NaN,NaN,NaN,NaN,NaN,4e-5,165,213.825,80,0,7.016,15,1013.249,340.389,0.01,0.022
1.09,0.009,0.414,12.278,0.42,12.468,0.002,0,0.002,0,0.073,2.165,22.175,120.893,9.788,93.668,0,0,0,2.79e4,1.34e4,19.927,0.106,NaN,2017.969,NaN,0.021,1.385e6,616.859,-2.714e-4,0.654,-4.155e-4,0.319,0.215,0.12,NaN,NaN,NaN,NaN,NaN,NaN,NaN,NaN,5.687e-5,165,213.825,80,0,7.1,15,1013.249,340.389,0.01,0.023
1.1,0.014,0.565,15.164,0.574,15.398,0.002,0,0.002,0,0.1,2.674,22.175,120.893,9.788,92.475,0,0,0,2.789e4,1.339e4,19.922,0.106,NaN,2017.702,NaN,0.021,1.4e6,698.307,-8.612e-5,0.654,-1.291e-4,0.319,0.215,0.12,NaN,NaN,NaN,NaN,NaN,NaN,NaN,NaN,7.771e-5,165,213.825,80,0,7.184,15,1013.248,340.389,0.01,0.023
1.11,0.02,0.747,18.205,0.759,18.485,0.004,0,0.004,0,0.132,3.21,22.175,120.893,9.788,90.927,0,0,0,2.788e4,1.338e4,19.917,0.106,NaN,2017.401,NaN,0.021,1.384e6,784.022,-4.502e-6,0.654,-6.904e-6,0.319,0.215,0.12,NaN,NaN,NaN,NaN,NaN,NaN,NaN,NaN,1.027e-4,165,213.825,80,0,7.109,15,1013.248,340.389,0.01,0.023
1.12,0.029,0.96,21.325,0.975,21.654,0.005,0,0.005,0,0.169,3.76,22.175,120.893,9.788,89.085,0,0,0,2.786e4,1.336e4,19.911,0.106,NaN,2017.066,NaN,0.021,1.369e6,871.849,4.244e-6,0.655,6.648e-6,0.32,0.215,0.12,NaN,NaN,NaN,NaN,NaN,NaN,NaN,NaN,1.32e-4,165,213.825,80,0,7.034,15,1013.247,340.389,0.01,0.023
1.13,0.04,1.205,24.499,1.224,24.877,0.007,0,0.007,0,0.213,4.32,22.175,120.893,9.788,86.938,0,0,0,2.784e4,1.334e4,19.904,0.106,NaN,2016.696,NaN,0.02,1.356e6,961.049,1.526e-4,0.656,2.436e-4,0.32,0.215,0.12,NaN,NaN,NaN,NaN,NaN,NaN,NaN,NaN,1.657e-4,165,213.825,80,0,6.959,15,1013.245,340.389,0.01,0.023
1.14,0.053,1.479,27.39,1.502,27.813,0.009,0,0.009,0,0.261,4.83,22.175,120.893,9.788,84.51,0,0,0,2.782e4,1.332e4,19.897,0.106,NaN,2016.295,NaN,0.02,1.346e6,1042.073,8.448e-4,0.656,0.001,0.321,0.215,0.12,NaN,NaN,NaN,NaN,NaN,NaN,NaN,NaN,2.033e-4,165,213.825,80,0,6.884,15,1013.244,340.389,0.01,0.024
1.15,0.07,1.778,29.895,1.805,30.356,0.012,0,0.012,0,0.313,5.271,22.175,120.893,9.788,81.837,0,0,0,2.78e4,1.33e4,19.889,0.106,NaN,2015.866,NaN,0.02,1.339e6,1112.029,0.003,0.656,0.004,0.321,0.215,0.12,NaN,NaN,NaN,NaN,NaN,NaN,NaN,NaN,2.444e-4,165,213.825,80,0,6.808,15,1013.242,340.389,0.01,0.024
1.16,0.089,2.098,32.07,2.131,32.565,0.016,0,0.016,0,0.37,5.655,22.175,120.893,9.788,79.055,0,0,0,2.778e4,1.328e4,19.881,0.106,NaN,2015.413,NaN,0.02,1.342e6,1172.553,0.006,0.656,0.01,0.321,0.215,0.12,NaN,NaN,NaN,NaN,NaN,NaN,NaN,NaN,2.885e-4,165,213.825,80,0,6.771,14.999,1013.24,340.389,0.01,0.024
1.17,0.112,2.436,33.793,2.474,34.314,0.02,0,0.02,0,0.43,5.959,22.175,120.893,9.788,76.153,0,0,0,2.776e4,1.326e4,19.873,0.105,NaN,2014.941,NaN,0.02,1.35e6,1220.187,0.012,0.656,0.02,0.321,0.215,0.12,NaN,NaN,NaN,NaN,NaN,NaN,NaN,NaN,3.349e-4,165,213.825,80,0,6.733,14.999,1013.237,340.388,0.01,0.024
1.18,0.138,2.787,35.058,2.83,35.598,0.024,0,0.024,0,0.491,6.182,22.175,120.893,9.788,73.189,0,0,0,2.774e4,1.324e4,19.864,0.105,NaN,2014.455,NaN,0.02,1.361e6,1254.818,0.022,0.655,0.034,0.32,0.215,0.12,NaN,NaN,NaN,NaN,NaN,NaN,NaN,NaN,3.831e-4,165,213.825,80,0,6.695,14.999,1013.234,340.388,0.01,0.024
1.19,0.167,3.145,35.852,3.193,36.405,0.03,0,0.03,0,0.555,6.322,22.175,120.893,9.788,70.221,0,0,0,2.771e4,1.321e4,19.855,0.105,NaN,2013.959,NaN,0.021,1.377e6,1276.135,0.035,0.655,0.054,0.32,0.215,0.12,NaN,NaN,NaN,NaN,NaN,NaN,NaN,NaN,4.324e-4,165,213.825,80,0,6.657,14.999,1013.23,340.388,0.01,0.024
1.2,0.201,3.509,36.4,3.563,36.961,0.035,0,0.035,0,0.619,6.418,22.175,120.893,9.788,67.285,0,0,0,2.769e4,1.319e4,19.846,0.105,NaN,2013.458,NaN,0.021,1.397e6,1290.479,0.052,0.654,0.079,0.319,0.215,0.12,NaN,NaN,NaN,NaN,NaN,NaN,NaN,NaN,4.824e-4,165,213.825,80,0,6.619,14.999,1013.226,340.388,0.01,0.025
1.21,0.238,3.876,36.703,3.935,37.27,0.042,0,0.042,0,0.683,6.472,22.175,120.893,9.788,64.883,0,0,0,2.767e4,1.317e4,19.837,0.105,NaN,2012.952,NaN,0.022,1.439e6,1297.933,0.072,0.652,0.102,0.317,0.215,0.12,NaN,NaN,NaN,NaN,NaN,NaN,NaN,NaN,5.328e-4,165,213.825,80,0,6.692,14.998,1013.222,340.388,0.01,0.025
1.22,0.278,4.243,36.763,4.308,37.33,0.049,0,0.049,0,0.748,6.482,22.175,120.893,9.788,62.616,0,0,0,2.764e4,1.314e4,19.828,0.105,NaN,2012.446,NaN,0.022,1.483e6,1298.512,0.096,0.65,0.128,0.315,0.215,0.12,NaN,NaN,NaN,NaN,NaN,NaN,NaN,NaN,5.833e-4,165,213.825,80,0,6.765,14.998,1013.217,340.388,0.01,0.025
1.23,0.322,4.611,36.806,4.682,37.373,0.057,0,0.057,0,0.813,6.49,22.175,120.893,9.788,60.48,0,0,0,2.762e4,1.312e4,19.819,0.105,NaN,2011.938,NaN,0.023,1.529e6,1298.633,0.124,0.648,0.155,0.313,0.215,0.12,NaN,NaN,NaN,NaN,NaN,NaN,NaN,NaN,6.339e-4,165,213.825,80,0,6.838,14.998,1013.212,340.388,0.01,0.025
1.24,0.37,4.978,36.713,5.055,37.279,0.065,0,0.065,0,0.878,6.474,22.175,120.893,9.788,58.479,0,0,0,2.76e4,1.31e4,19.81,0.105,NaN,2011.431,NaN,0.024,1.578e6,1294.965,0.155,0.647,0.183,0.311,0.215,0.12,NaN,NaN,NaN,NaN,NaN,NaN,NaN,NaN,6.843e-4,165,213.825,80,0,6.91,14.998,1013.207,340.387,0.01,0.025
1.25,0.422,5.344,36.628,5.426,37.193,0.074,0,0.074,0,0.942,6.459,22.175,120.893,9.788,56.605,0,0,0,2.757e4,1.307e4,19.801,0.105,NaN,2010.925,NaN,0.024,1.628e6,1291.53,0.19,0.645,0.211,0.309,0.215,0.12,NaN,NaN,NaN,NaN,NaN,NaN,NaN,NaN,7.347e-4,165,213.825,80,0,6.983,14.997,1013.201,340.387,0.01,0.026
1.26,0.477,5.709,36.542,5.797,37.106,0.084,0,0.084,0,1.007,6.443,22.175,120.893,9.788,54.439,0,0,0,2.755e4,1.305e4,19.792,0.105,NaN,2010.419,NaN,0.025,1.666e6,1288.052,0.232,0.643,0.245,0.308,0.215,0.12,NaN,NaN,NaN,NaN,NaN,NaN,NaN,NaN,7.849e-4,165,213.825,80,0,6.965,14.997,1013.194,340.387,0.01,0.026
1.27,0.536,6.073,36.431,6.167,36.993,0.095,0,0.095,0,1.071,6.424,22.175,120.893,9.788,52.381,0,0,0,2.753e4,1.303e4,19.783,0.105,NaN,2009.914,NaN,0.026,1.707e6,1283.912,0.278,0.642,0.28,0.307,0.215,0.12,NaN,NaN,NaN,NaN,NaN,NaN,NaN,NaN,8.35e-4,165,213.825,80,0,6.948,14.997,1013.187,340.387,0.01,0.026
1.28,0.599,6.437,36.399,6.536,36.96,0.106,0,0.106,0,1.135,6.418,22.175,120.893,9.788,50.423,0,0,0,2.75e4,1.3e4,19.774,0.105,NaN,2009.409,NaN,0.026,1.75e6,1281.967,0.328,0.641,0.315,0.305,0.215,0.12,NaN,NaN,NaN,NaN,NaN,NaN,NaN,NaN,8.85e-4,165,213.825,80,0,6.93,14.996,1013.18,340.387,0.01,0.026
1.29,0.665,6.8,36.317,6.905,36.877,0.117,0,0.117,0,1.199,6.404,22.175,120.893,9.788,48.564,0,0,0,2.748e4,1.298e4,19.765,0.105,NaN,2008.904,NaN,0.027,1.795e6,1278.651,0.383,0.639,0.349,0.304,0.215,0.12,NaN,NaN,NaN,NaN,NaN,NaN,NaN,NaN,9.349e-4,165,213.825,80,0,6.913,14.996,1013.172,340.386,0.01,0.026
1.3,0.735,7.163,36.276,7.273,36.835,0.13,0,0.13,0,1.263,6.396,22.175,120.893,9.788,46.798,0,0,0,2.746e4,1.296e4,19.756,0.105,NaN,2008.399,NaN,0.028,1.841e6,1276.485,0.441,0.638,0.382,0.302,0.215,0.12,NaN,NaN,NaN,NaN,NaN,NaN,NaN,NaN,9.847e-4,165,213.825,80,0,6.895,14.995,1013.164,340.386,0.01,0.027
1.31,0.808,7.525,36.27,7.641,36.83,0.142,0,0.142,0,1.327,6.395,22.175,120.893,9.788,45.108,0,0,0,2.743e4,1.293e4,19.747,0.105,NaN,2007.894,NaN,0.028,1.889e6,1275.318,0.504,0.636,0.415,0.301,0.215,0.12,NaN,NaN,NaN,NaN,NaN,NaN,NaN,NaN,0.001,165,213.825,80,0,6.875,14.995,1013.155,340.386,0.01,0.027
1.32,0.885,7.887,36.242,8.009,36.801,0.156,0,0.156,0,1.391,6.39,22.175,120.893,9.788,43.503,0,0,0,2.741e4,1.291e4,19.738,0.105,NaN,2007.388,NaN,0.029,1.938e6,1273.528,0.57,0.635,0.446,0.299,0.215,0.12,NaN,NaN,NaN,NaN,NaN,NaN,NaN,NaN,0.001,165,213.825,80,0,6.854,14.994,1013.146,340.385,0.01,0.027
1.33,0.966,8.25,36.291,8.377,36.851,0.17,0,0.17,0,1.455,6.399,22.175,120.893,9.788,41.976,0,0,0,2.739e4,1.289e4,19.729,0.105,NaN,2006.882,NaN,0.03,1.988e6,1273.891,0.64,0.633,0.475,0.298,0.215,0.12,NaN,NaN,NaN,NaN,NaN,NaN,NaN,NaN,0.001,165,213.825,80,0,6.834,14.994,1013.137,340.385,0.01,0.027
1.34,1.05,8.613,36.268,8.745,36.828,0.185,0,0.185,0,1.519,6.395,22.175,120.893,9.788,40.528,0,0,0,2.736e4,1.286e4,19.72,0.105,NaN,2006.376,NaN,0.031,2.04e6,1272.247,0.713,0.632,0.503,0.297,0.215,0.12,NaN,NaN,NaN,NaN,NaN,NaN,NaN,NaN,0.001,165,213.825,80,0,6.813,14.993,1013.127,340.385,0.01,0.027
1.35,1.138,8.975,36.278,9.114,36.837,0.201,0,0.201,0,1.583,6.397,22.175,120.893,9.788,39.152,0,0,0,2.734e4,1.284e4,19.711,0.105,NaN,2005.868,NaN,0.031,2.094e6,1271.517,0.79,0.631,0.529,0.295,0.215,0.12,NaN,NaN,NaN,NaN,NaN,NaN,NaN,NaN,0.001,165,213.825,80,0,6.792,14.993,1013.117,340.384,0.01,0.027
1.36,1.23,9.338,36.314,9.482,36.874,0.217,0,0.217,0,1.647,6.403,22.175,120.893,9.788,37.559,0,0,0,2.732e4,1.282e4,19.702,0.105,NaN,2005.361,NaN,0.032,2.142e6,1271.539,0.874,0.629,0.56,0.294,0.215,0.12,NaN,NaN,NaN,NaN,NaN,NaN,NaN,NaN,0.001,165,213.825,80,0,6.709,14.992,1013.106,340.384,0.01,0.028
1.37,1.325,9.701,36.33,9.851,36.89,0.234,0,0.234,0,1.711,6.406,22.175,120.893,9.788,36.038,0,0,0,2.729e4,1.279e4,19.693,0.105,NaN,2004.852,NaN,0.033,2.192e6,1270.983,0.962,0.628,0.588,0.293,0.215,0.12,NaN,NaN,NaN,NaN,NaN,NaN,NaN,NaN,0.001,165,213.825,80,0,6.625,14.991,1013.095,340.384,0.01,0.028
1.38,1.424,10.065,36.444,10.221,37.006,0.251,0,0.251,0,1.775,6.426,22.175,120.893,9.788,34.582,0,0,0,2.727e4,1.277e4,19.684,0.105,NaN,2004.342,NaN,0.034,2.243e6,1273.167,1.052,0.627,0.614,0.291,0.215,0.12,NaN,NaN,NaN,NaN,NaN,NaN,NaN,NaN,0.001,165,213.825,80,0,6.542,14.991,1013.083,340.383,0.01,0.028
1.39,1.526,10.43,36.484,10.591,37.047,0.269,0,0.269,0,1.839,6.433,22.175,120.893,9.788,33.19,0,0,0,2.725e4,1.275e4,19.675,0.105,NaN,2003.83,NaN,0.034,2.296e6,1273.278,1.146,0.626,0.638,0.29,0.215,0.12,NaN,NaN,NaN,NaN,NaN,NaN,NaN,NaN,0.001,165,213.825,80,0,6.458,14.99,1013.071,340.383,0.01,0.028
1.4,1.632,10.796,36.57,10.962,37.134,0.288,0,0.288,0,1.904,6.448,22.175,120.893,9.788,31.861,0,0,0,2.723e4,1.273e4,19.666,0.105,NaN,2003.318,NaN,0.035,2.35e6,1274.663,1.242,0.624,0.66,0.289,0.215,0.12,NaN,NaN,NaN,NaN,NaN,NaN,NaN,NaN,0.001,165,213.825,80,0,6.375,14.989,1013.059,340.382,0.01,0.028
1.41,1.742,11.162,36.675,11.334,37.241,0.307,0,0.307,0,1.968,6.467,22.175,120.893,9.788,30.869,0,0,0,2.72e4,1.27e4,19.657,0.105,NaN,2002.803,NaN,0.036,2.411e6,1276.588,1.338,0.623,0.676,0.288,0.215,0.12,NaN,NaN,NaN,NaN,NaN,NaN,NaN,NaN,0.002,165,213.825,80,0,6.357,14.989,1013.046,340.382,0.01,0.029
1.42,1.856,11.529,36.742,11.707,37.309,0.327,0,0.327,0,2.033,6.479,22.175,120.893,9.788,29.924,0,0,0,2.718e4,1.268e4,19.648,0.105,NaN,2002.288,NaN,0.037,2.473e6,1277.444,1.44,0.623,0.691,0.288,0.215,0.12,NaN,NaN,NaN,NaN,NaN,NaN,NaN,NaN,0.002,165,213.825,80,0,6.339,14.988,1013.032,340.382,0.01,0.029
1.43,1.973,11.898,36.876,12.082,37.444,0.348,0,0.348,0,2.098,6.502,22.175,120.893,9.788,29.024,0,0,0,2.716e4,1.266e4,19.639,0.105,NaN,2001.77,NaN,0.038,2.535e6,1280.14,1.544,0.623,0.706,0.288,0.215,0.12,NaN,NaN,NaN,NaN,NaN,NaN,NaN,NaN,0.002,165,213.825,80,0,6.321,14.987,1013.019,340.381,0.01,0.029
1.44,2.094,12.267,36.931,12.456,37.501,0.369,0,0.369,0,2.163,6.512,22.175,120.893,9.788,28.165,0,0,0,2.713e4,1.263e4,19.629,0.105,NaN,2001.252,NaN,0.039,2.598e6,1280.681,1.652,0.623,0.718,0.288,0.215,0.12,NaN,NaN,NaN,NaN,NaN,NaN,NaN,NaN,0.002,165,213.825,80,0,6.303,14.986,1013.004,340.381,0.01,0.029
1.45,2.218,12.637,37.039,12.832,37.61,0.391,0,0.391,0,2.228,6.531,22.175,120.893,9.788,27.345,0,0,0,2.711e4,1.261e4,19.62,0.105,NaN,2000.731,NaN,0.04,2.662e6,1282.653,1.762,0.623,0.73,0.288,0.215,0.12,NaN,NaN,NaN,NaN,NaN,NaN,NaN,NaN,0.002,165,213.825,80,0,6.285,14.986,1012.99,340.38,0.01,0.029
1.46,2.346,13.009,37.155,13.209,37.728,0.414,0,0.414,0,2.294,6.551,22.175,120.893,9.788,26.752,0,0,0,2.709e4,1.259e4,19.611,0.104,NaN,2000.209,NaN,0.041,2.73e6,1284.861,1.874,0.623,0.738,0.288,0.215,0.12,NaN,NaN,NaN,NaN,NaN,NaN,NaN,NaN,0.002,165,213.825,80,0,6.316,14.985,1012.975,340.38,0.01,0.03
1.47,2.478,13.381,37.207,13.587,37.781,0.437,0,0.437,0,2.359,6.561,22.175,120.893,9.788,26.188,0,0,0,2.706e4,1.256e4,19.602,0.104,NaN,1999.686,NaN,0.042,2.799e6,1285.292,1.989,0.623,0.746,0.288,0.215,0.12,NaN,NaN,NaN,NaN,NaN,NaN,NaN,NaN,0.002,165,213.825,80,0,6.347,14.984,1012.959,340.379,0.01,0.03
1.48,2.614,13.754,37.326,13.966,37.902,0.461,0,0.461,0,2.425,6.582,22.175,120.893,9.788,25.648,0,0,0,2.704e4,1.254e4,19.592,0.104,NaN,1999.161,NaN,0.043,2.867e6,1287.587,2.107,0.623,0.752,0.288,0.215,0.12,NaN,NaN,NaN,NaN,NaN,NaN,NaN,NaN,0.002,165,213.825,80,0,6.378,14.983,1012.943,340.379,0.01,0.03
1.49,2.753,14.127,37.372,14.345,37.948,0.485,0,0.485,0,2.491,6.59,22.175,120.893,9.788,25.132,0,0,0,2.702e4,1.252e4,19.583,0.104,NaN,1998.635,NaN,0.044,2.936e6,1287.832,2.228,0.623,0.759,0.288,0.215,0.12,NaN,NaN,NaN,NaN,NaN,NaN,NaN,NaN,0.002,165,213.825,80,0,6.409,14.982,1012.927,340.378,0.01,0.03
1.5,2.896,14.501,37.441,14.725,38.018,0.511,0,0.511,0,2.557,6.602,22.175,120.893,9.788,24.639,0,0,0,2.699e4,1.249e4,19.574,0.104,NaN,1998.108,NaN,0.045,3.006e6,1288.735,2.352,0.623,0.764,0.288,0.215,0.12,NaN,NaN,NaN,NaN,NaN,NaN,NaN,NaN,0.002,165,213.825,80,0,6.44,14.981,1012.91,340.377,0.01,0.03
1.51,3.043,14.877,37.521,15.106,38.1,0.537,0,0.537,0,2.623,6.616,22.175,120.893,9.788,23.88,0,0,0,2.697e4,1.247e4,19.564,0.104,NaN,1997.579,NaN,0.046,3.071e6,1289.948,2.481,0.623,0.772,0.288,0.215,0.12,NaN,NaN,NaN,NaN,NaN,NaN,NaN,NaN,0.002,165,213.825,80,0,6.389,14.98,1012.893,340.377,0.01,0.031
1.52,3.194,15.252,37.536,15.487,38.115,0.563,0,0.563,0,2.689,6.619,22.175,120.893,9.788,23.152,0,0,0,2.695e4,1.244e4,19.555,0.104,NaN,1997.049,NaN,0.047,3.137e6,1289.376,2.612,0.623,0.78,0.288,0.215,0.12,NaN,NaN,NaN,NaN,NaN,NaN,NaN,NaN,0.002,165,213.825,80,0,6.337,14.979,1012.875,340.376,0.01,0.031
1.53,3.348,15.628,37.674,15.869,38.255,0.59,0,0.59,0,2.756,6.643,22.175,120.893,9.788,22.452,0,0,0,2.692e4,1.242e4,19.546,0.104,NaN,1996.518,NaN,0.048,3.203e6,1292.164,2.746,0.623,0.786,0.288,0.215,0.12,NaN,NaN,NaN,NaN,NaN,NaN,NaN,NaN,0.002,165,213.825,80,0,6.286,14.978,1012.857,340.376,0.01,0.031
1.54,3.507,16.006,37.743,16.252,38.325,0.618,0,0.618,0,2.822,6.655,22.175,120.893,9.788,21.779,0,0,0,2.69e4,1.24e4,19.536,0.104,NaN,1995.985,NaN,0.049,3.27e6,1293.051,2.882,0.623,0.791,0.288,0.215,0.12,NaN,NaN,NaN,NaN,NaN,NaN,NaN,NaN,0.002,165,213.825,80,0,6.235,14.977,1012.839,340.375,0.01,0.031
1.55,3.669,16.384,37.847,16.637,38.431,0.647,0,0.647,0,2.889,6.673,22.175,120.893,9.788,21.132,0,0,0,2.687e4,1.237e4,19.527,0.104,NaN,1995.451,NaN,0.05,3.337e6,1294.89,3.02,0.623,0.796,0.288,0.215,0.12,NaN,NaN,NaN,NaN,NaN,NaN,NaN,NaN,0.002,165,213.825,80,0,6.184,14.976,1012.82,340.374,0.01,0.031
1.56,3.834,16.763,37.97,17.022,38.555,0.676,0,0.676,0,2.956,6.695,22.175,120.893,9.788,20.588,0,0,0,2.685e4,1.235e4,19.517,0.104,NaN,1994.914,NaN,0.051,3.407e6,1297.251,3.16,0.623,0.8,0.288,0.215,0.12,NaN,NaN,NaN,NaN,NaN,NaN,NaN,NaN,0.002,165,213.825,80,0,6.157,14.975,1012.8,340.374,0.01,0.032
1.57,4.004,17.143,37.989,17.407,38.575,0.706,0,0.706,0,3.023,6.698,22.175,120.893,9.788,20.065,0,0,0,2.683e4,1.233e4,19.508,0.104,NaN,1994.377,NaN,0.052,3.476e6,1296.778,3.303,0.623,0.802,0.288,0.215,0.12,NaN,NaN,NaN,NaN,NaN,NaN,NaN,NaN,0.002,165,213.825,80,0,6.13,14.974,1012.78,340.373,0.01,0.032
1.585,4.265,17.708,37.699,17.988,38.78,0.752,7.843e-5,0.752,0.006,3.159,9.093,22.175,120.893,9.788,19.221,0,-0.021,-3.749e-5,2.679e4,1.229e4,19.493,0.104,1979.171,1993.568,-0.087,0.054,3.579e6,1298.654,3.518,0.624,0.806,0.288,0.215,0.12,6.005,-0.524,-4.954e-4,0,0,0,0,-1.522e-6,0.002,165,213.825,80,7.066e-4,6.089,14.972,1012.75,340.372,0.015,0.032
1.608,4.673,18.56,37.9,18.862,38.98,0.826,4.912e-4,0.826,0.034,3.363,9.112,22.175,120.893,9.788,17.814,0,-0.036,-1.908e-4,2.674e4,1.224e4,19.472,0.104,1991.267,1992.348,-0.007,0.056,3.734e6,1301.804,3.846,0.624,0.81,0.288,0.215,0.12,5.409,-0.035,-4.83e-4,0,0,0,0,-4.184e-6,0.003,165,213.825,79.999,0.004,5.952,14.97,1012.702,340.37,0.023,0.032
1.641,5.321,19.848,38.244,20.185,39.314,0.944,0.002,0.944,0.107,3.671,9.107,22.175,120.893,9.788,15.264,0,-0.006,-3.418e-4,2.666e4,1.216e4,19.439,0.104,2015.734,1990.501,0.153,0.059,3.964e6,1307.398,4.31,0.624,0.805,0.288,0.215,0.12,4.388,0.671,4.506e-4,0,0,0,0,-1.181e-7,0.003,165,213.825,79.999,0.007,5.516,14.965,1012.626,340.368,0.034,0.032
1.691,6.362,21.776,38.655,22.164,39.737,1.139,0.005,1.139,0.251,4.129,9.211,22.175,120.893,9.788,13.906,0,0.12,1.938e-4,2.654e4,1.204e4,19.39,0.104,2030.308,1987.731,0.258,0.065,4.336e6,1313.533,5.089,0.624,0.795,0.288,0.215,0.121,3.875,1,2.658e-5,0,0,0,0,3.383e-5,0.003,165,213.825,80,-0.003,5.614,14.959,1012.504,340.364,0.05,0.033
1.741,7.499,23.732,39.21,24.173,40.32,1.357,0.01,1.357,0.42,4.594,9.392,22.175,120.893,9.788,13.437,0,0.302,0.002,2.642e4,1.192e4,19.34,0.104,2035.644,1984.915,0.307,0.071,4.722e6,1323.765,6,0.624,0.79,0.288,0.216,0.121,3.703,1.139,-4.637e-4,0,0,0,0,1.806e-4,0.003,165,213.825,80.007,-0.047,6.011,14.951,1012.37,340.359,0.05,0.033
1.791,8.736,25.718,39.82,26.213,40.951,1.599,0.017,1.599,0.604,5.069,9.558,22.175,120.893,9.788,12.762,0,0.547,0.006,2.63e4,1.18e4,19.29,0.103,2043.554,1982.048,0.373,0.077,5.112e6,1335.184,6.963,0.624,0.782,0.288,0.216,0.121,3.461,1.289,-3.397e-4,0,0,0,0,5.048e-4,0.004,165,213.825,80.022,-0.136,6.298,14.943,1012.225,340.354,0.05,0.033
1.841,10.072,27.738,40.49,28.288,41.627,1.864,0.026,1.864,0.794,5.552,9.665,22.175,120.893,9.788,11.586,0,0.872,0.014,2.617e4,1.167e4,19.238,0.103,2058.093,1979.127,0.479,0.083,5.504e6,1347.677,7.911,0.624,0.767,0.288,0.216,0.121,3.052,1.459,4.122e-4,0,0,0,0,0.001,0.004,165,213.825,80.045,-0.286,6.309,14.935,1012.069,340.349,0.05,0.033
1.891,11.51,29.797,41.298,30.403,42.436,2.154,0.037,2.154,0.984,6.039,9.762,22.175,120.893,9.788,10.366,0,1.287,0.027,2.605e4,1.155e4,19.185,0.103,2074.301,1976.143,0.595,0.089,5.904e6,1363.475,8.889,0.624,0.748,0.288,0.216,0.121,2.646,1.572,-1.805e-4,0,0,0,0,0.002,0.004,165,213.825,80.081,-0.518,6.231,14.925,1011.9,340.344,0.05,0.033
1.941,13.053,31.89,41.954,32.552,43.102,2.468,0.05,2.468,1.166,6.532,9.881,22.175,120.893,9.788,9.824,0,1.79,0.04,2.593e4,1.143e4,19.132,0.103,2081.933,1973.105,0.66,0.095,6.316e6,1375.364,10.059,0.625,0.74,0.288,0.216,0.121,2.472,1.627,2.058e-4,0,0,0,0,0.004,0.004,165,213.825,80.131,-0.855,6.469,14.915,1011.719,340.337,0.05,0.035
1.991,14.7,34.02,42.707,34.738,43.855,2.806,0.066,2.807,1.339,7.03,9.972,22.175,120.893,9.788,9.151,3.469e-7,2.381,0.061,2.58e4,1.13e4,19.077,0.103,2091.754,1970.006,0.738,0.101,6.734e6,1389.417,11.272,0.625,0.729,0.288,0.216,0.121,2.261,1.663,1.872e-4,0,0,0,0,0.006,0.005,165,213.825,80.198,-1.32,6.616,14.904,1011.526,340.331,0.05,0.036
2.041,16.456,36.2,43.74,36.975,44.859,3.17,0.083,3.171,1.5,7.532,9.957,22.175,120.893,9.788,7.674,7.986e-7,3.056,0.118,2.567e4,1.117e4,19.021,0.102,2114.743,1966.831,0.896,0.107,7.161e6,1409.711,12.325,0.625,0.705,0.288,0.216,0.122,1.819,1.623,-2.544e-4,0,0,0,0,0.008,0.005,165,213.825,80.284,-1.941,6.225,14.893,1011.32,340.324,0.05,0.036
2.091,18.321,38.426,44.648,39.257,45.745,3.559,0.102,3.56,1.644,8.033,9.955,22.175,120.893,9.788,6.756,1.333e-6,3.786,0.177,2.554e4,1.104e4,18.964,0.102,2130.178,1963.584,1.01,0.114,7.599e6,1426.753,13.597,0.625,0.691,0.287,0.216,0.122,1.559,1.564,-6.459e-6,0,0,0,0,0.011,0.005,165,213.825,80.389,-2.743,6.127,14.881,1011.101,340.317,0.05,0.036
2.141,20.299,40.684,45.282,41.569,46.352,3.972,0.122,3.974,1.766,8.531,9.9,22.175,120.893,9.788,6.064,1.222e-6,4.581,0.244,2.541e4,1.091e4,18.906,0.102,2142.481,1960.282,1.104,0.121,8.045e6,1436.554,15.01,0.626,0.68,0.287,0.216,0.122,1.371,1.5,4.922e-4,0,0,0,0,0.014,0.006,165,213.825,80.513,-3.756,6.152,14.868,1010.869,340.309,0.05,0.036
2.191,22.39,42.977,46,43.915,47.044,4.411,0.144,4.413,1.866,9.026,9.855,22.175,120.893,9.788,5.571,7.899e-7,5.437,0.307,2.528e4,1.078e4,18.847,0.102,2151.622,1956.918,1.18,0.128,8.498e6,1448.404,16.577,0.626,0.673,0.287,0.216,0.122,1.241,1.446,2.375e-4,0,0,0,0,0.018,0.006,165,213.825,80.657,-5.013,6.313,14.854,1010.624,340.301,0.05,0.037
2.241,24.598,45.309,46.766,46.298,47.777,4.874,0.165,4.877,1.943,9.519,9.777,22.175,120.893,9.788,5.063,1.909e-6,6.354,0.388,2.515e4,1.065e4,18.787,0.102,2161.351,1953.489,1.26,0.134,8.959e6,1461.178,18.236,0.626,0.666,0.287,0.217,0.122,1.11,1.377,-3.238e-4,0,0,0,0,0.022,0.006,165,213.825,80.817,-6.551,6.469,14.84,1010.365,340.292,0.05,0.037
2.291,26.922,47.667,47.296,48.707,48.287,5.362,0.187,5.365,1.997,10.007,9.732,22.175,120.893,9.788,5.069,-1.733e-6,7.355,0.36,2.501e4,1.051e4,18.726,0.101,2161.351,1950.006,1.281,0.141,9.423e6,1468.288,20.193,0.627,0.667,0.287,0.217,0.123,1.112,1.398,3.663e-4,0,0,0,0,0.027,0.007,165,213.825,80.993,-8.414,7.074,14.825,1010.093,340.283,0.05,0.037
2.341,29.364,50.032,47.435,51.119,48.37,5.874,0.208,5.877,2.027,10.485,9.464,22.175,120.893,9.788,4.44,3.659e-6,8.442,0.499,2.488e4,1.038e4,18.664,0.101,2173.843,1946.495,1.378,0.149,9.89e6,1464.702,21.977,0.627,0.659,0.287,0.217,0.123,0.955,1.284,1.438e-4,0,0,0,0,0.032,0.007,165,213.825,81.18,-10.66,7.173,14.809,1009.806,340.273,0.05,0.037
2.391,31.925,52.403,47.554,53.534,48.427,6.409,0.227,6.413,2.031,10.946,9.153,22.175,120.893,9.788,3.742,3.755e-6,9.495,0.715,2.475e4,1.025e4,18.602,0.101,2188.365,1942.956,1.487,0.156,1.036e7,1460.577,23.814,0.627,0.651,0.287,0.217,0.123,0.787,1.133,-8.883e-5,0,0,0,0,0.037,0.007,165,213.825,81.374,-13.336,7.208,14.792,1009.506,340.263,0.05,0.037
2.441,34.605,54.782,47.722,55.953,48.532,6.967,0.244,6.972,2.007,11.389,8.832,22.175,120.893,9.788,3.012,8.59e-6,10.482,1.065,2.461e4,1.011e4,18.539,0.101,2204.333,1939.385,1.606,0.163,1.083e7,1457.734,25.733,0.628,0.643,0.287,0.217,0.123,0.618,0.951,4.083e-4,0,0,0,0,0.041,0.008,165,213.825,81.563,-16.47,7.208,14.775,1009.191,340.253,0.05,0.038
2.491,37.403,57.149,47.469,58.355,48.217,7.547,0.257,7.552,1.951,11.807,8.463,22.175,120.893,9.788,2.29,8.119e-6,11.317,1.638,2.448e4,9982.7,18.477,0.101,2220.942,1935.809,1.728,0.17,1.129e7,1444.705,27.748,0.628,0.638,0.287,0.217,0.124,0.458,0.748,-4.19e-4,0,0,0,0,0.044,0.008,165,213.825,81.735,-20.065,7.205,14.757,1008.863,340.242,0.05,0.038
2.541,40.319,59.516,47.483,60.753,48.168,8.147,0.265,8.152,1.861,12.199,8.096,22.175,120.893,9.788,1.121,1.558e-5,11.143,4.686,2.435e4,9851.919,18.414,0.1,2249.679,1932.21,1.924,0.177,1.176e7,1438.362,29.801,0.629,0.631,0.287,0.218,0.124,0.215,0.375,4.098e-4,0,0,0,0,0.039,0.008,165,213.825,81.877,-24.081,6.647,14.738,1008.521,340.23,0.05,0.038
2.591,43.354,61.877,47.344,63.139,47.994,8.766,0.265,8.77,1.732,12.56,7.876,22.175,120.893,9.788,0.561,1.569e-5,6.568,10.442,2.422e4,9721.977,18.351,0.1,2264.415,1928.595,2.035,0.184,1.223e7,1429.136,32.148,0.629,0.63,0.287,0.218,0.124,0.106,0.202,3.122e-4,0,0,0,0,0.013,0.009,165,213.825,81.972,-28.382,6.555,14.718,1008.165,340.218,0.05,0.038
2.641,46.507,64.254,47.647,65.536,48.284,9.403,0.256,9.406,1.562,12.9,7.816,22.175,120.893,9.788,0.742,2.444e-5,-8.31,9.065,2.409e4,9591.843,18.287,0.1,2259.772,1924.936,2.029,0.191,1.27e7,1431.244,34.721,0.63,0.631,0.287,0.218,0.125,0.141,0.304,4.814e-4,0,0,0,0,-0.019,0.009,165,213.825,82.01,-32.807,6.334,14.698,1007.795,340.206,0.05,0.038
2.691,49.78,66.641,47.825,67.939,48.47,10.056,0.237,10.058,1.348,13.217,7.886,22.175,120.893,9.788,1.092,2.336e-5,-10.087,6.176,2.396e4,9461.748,18.222,0.1,2250.836,1921.238,1.998,0.198,1.317e7,1430.823,37.435,0.63,0.632,0.287,0.218,0.125,0.21,0.445,-2.241e-4,0,0,0,0,-0.026,0.009,165,213.825,81.986,-37.144,6.469,14.676,1007.412,340.193,0.05,0.039
2.741,53.172,69.043,48.13,70.354,48.805,10.723,0.204,10.725,1.09,13.517,8.09,22.175,120.893,9.788,1.761,3.378e-5,-10.159,4.324,2.383e4,9331.363,18.157,0.1,2234.279,1917.492,1.92,0.205,1.364e7,1433.995,40.438,0.631,0.636,0.287,0.218,0.125,0.347,0.69,2.192e-5,0,0,0,0,-0.024,0.01,165,213.825,81.905,-41.196,6.201,14.654,1007.014,340.179,0.05,0.039
2.791,56.685,71.469,48.59,72.789,49.321,11.405,0.156,11.406,0.785,13.799,8.462,22.175,120.893,9.788,2.487,3.179e-5,-9.068,3.522,2.37e4,9200.305,18.091,0.099,2217.23,1913.685,1.84,0.213,1.412e7,1441.415,43.738,0.631,0.642,0.287,0.219,0.126,0.502,0.942,-1.575e-4,0,0,0,0,-0.018,0.01,165,213.825,81.776,-44.752,5.755,14.632,1006.602,340.166,0.05,0.039
2.841,60.319,73.914,48.982,75.241,49.782,12.098,0.091,12.099,0.433,14.068,8.887,22.175,120.893,9.788,2.82,4.299e-5,-7.341,3.164,2.357e4,9068.707,18.023,0.099,2209.805,1909.819,1.818,0.22,1.46e7,1447.346,47.028,0.632,0.646,0.286,0.219,0.126,0.576,1.059,3.769e-4,0,0,0,0,-0.011,0.01,165,213.825,81.617,-47.621,5.661,14.608,1006.176,340.151,0.05,0.039
2.891,64.076,76.358,48.945,77.692,49.811,12.803,0.008,12.803,0.034,14.333,9.25,22.175,120.893,9.788,2.952,4.178e-5,-5.295,2.947,2.344e4,8937.495,17.955,0.099,2207.007,1905.922,1.825,0.227,1.508e7,1443.113,50.316,0.632,0.647,0.286,0.219,0.127,0.606,1.111,-4.972e-4,0,0,0,0,-0.005,0.011,165,213.825,81.444,-49.701,5.681,14.584,1005.735,340.137,0.05,0.039
2.941,67.955,78.792,48.753,80.134,49.68,13.519,-0.097,13.519,-0.41,14.603,9.554,22.175,120.893,9.787,2.982,4.537e-5,-3.005,2.821,2.331e4,8806.998,17.887,0.099,2206.517,1902.002,1.846,0.234,1.556e7,1435.232,53.634,0.633,0.648,0.286,0.219,0.127,0.613,1.133,4.254e-4,0,0,0,0,-0.002,0.011,165,213.825,81.276,-50.955,5.682,14.558,1005.28,340.121,0.05,0.04
2.991,71.955,81.239,49.016,82.592,49.988,14.245,-0.222,14.247,-0.895,14.887,9.807,22.175,120.893,9.787,2.726,4.971e-5,-0.604,2.761,2.318e4,8676.274,17.818,0.099,2212.472,1898.031,1.906,0.242,1.603e7,1437.734,56.837,0.634,0.647,0.286,0.22,0.128,0.556,1.059,-2.539e-4,0,0,0,0,-6.195e-5,0.011,165,213.825,81.124,-51.379,5.928,14.532,1004.811,340.105,0.05,0.04
3.041,76.079,83.711,49.524,85.079,50.527,14.983,-0.37,14.987,-1.415,15.196,10.018,22.175,120.893,9.787,2.387,5.531e-5,1.703,2.784,2.305e4,8544.831,17.748,0.098,2220.456,1893.993,1.979,0.249,1.652e7,1445.651,60.119,0.634,0.644,0.286,0.22,0.128,0.481,0.951,3.745e-4,0,0,0,0,4.643e-4,0.012,165,213.825,80.995,-51.016,6.152,14.505,1004.327,340.089,0.05,0.04
3.091,80.327,86.201,49.892,87.589,50.92,15.732,-0.54,15.741,-1.966,15.533,10.179,22.175,120.893,9.787,2.148,6.048e-5,3.926,2.889,2.291e4,8412.968,17.677,0.098,2226.275,1889.896,2.039,0.257,1.7e7,1450.255,63.627,0.635,0.643,0.286,0.22,0.129,0.429,0.873,-1.039e-4,0,0,0,0,0.002,0.012,165,213.825,80.891,-49.932,6.084,14.478,1003.829,340.072,0.05,0.04
