# Time (s),Altitude (m),Vertical velocity (m/s),Vertical acceleration (m/s²),Total velocity (m/s),Total acceleration (m/s²),Position East of launch (m),Position North of launch (m),Lateral distance (m),Lateral direction (°),Lateral velocity (m/s),Lateral acceleration (m/s²),Latitude (°),Longitude (°),Gravitational acceleration (m/s²),Angle of attack (°),Roll rate (°/s),Pitch rate (°/s),Yaw rate (°/s),Mass (g),Motor mass (g),Longitudinal moment of inertia (kg·m²),Rotational moment of inertia (kg·m²),CP location (mm),CG location (mm),Stability margin calibers (​),Mach number (​),Reynolds number (​),Thrust (N),Drag force (N),Drag coefficient (​),Axial drag coefficient (​),Friction drag coefficient (​),Pressure drag coefficient (​),Base drag coefficient (​),Normal force coefficient (​),Pitch moment coefficient (​),Yaw moment coefficient (​),Side force coefficient (​),Roll moment coefficient (​),Roll forcing coefficient (​),Roll damping coefficient (​),Pitch damping coefficient (​),Coriolis acceleration (m/s²),Reference length (mm),Reference area (cm²),Vertical orientation (zenith) (°),Lateral orientation (azimuth) (°),Wind velocity (m/s),Air temperature (°C),Air pressure (mbar),Speed of sound (m/s),Simulation time step (s),Computation time (s)
0.01,-4.757e-4,-0.095,-9.511,0.096,9.563,-5e-5,0,5e-5,180,0.01,1,22.175,120.893,9.788,92.509,0,0,0,2.8e4,1.35e4,19.963,0.106,NaN,2019.994,NaN,0.006,4.285e5,4.784,-9.519e-6,0.741,-1.523e-4,0.405,0.215,0.12,NaN,NaN,NaN,NaN,NaN,NaN,NaN,NaN,1.293e-5,165,213.825,84,0,2.183,15,1013.25,340.389,0.01,0.001
0.02,-4.761e-4,-0.095,-9.522,0.096,9.575,-5.004e-5,0,5.004e-5,180,0.01,1.001,22.175,120.893,9.788,92.489,0,0,0,2.8e4,1.35e4,19.963,0.106,NaN,2019.992,NaN,0.006,4.324e5,4.461,-9.457e-6,0.74,-1.485e-4,0.405,0.215,0.12,NaN,NaN,NaN,NaN,NaN,NaN,NaN,NaN,1.294e-5,165,213.825,84,0,2.203,15,1013.25,340.389,0.01,0.002
0.03,-4.763e-4,-0.095,-9.526,0.096,9.579,-5.006e-5,0,5.006e-5,180,0.01,1.001,22.175,120.893,9.788,92.467,0,0,0,2.8e4,1.35e4,19.963,0.106,NaN,2019.991,NaN,0.007,4.364e5,4.343,-9.374e-6,0.739,-1.445e-4,0.404,0.215,0.12,NaN,NaN,NaN,NaN,NaN,NaN,NaN,NaN,1.295e-5,165,213.825,84,0,2.223,15,1013.25,340.389,0.01,0.002
0.04,-4.765e-4,-0.095,-9.53,0.096,9.582,-5.008e-5,0,5.008e-5,180,0.01,1.002,22.175,120.893,9.788,92.445,0,0,0,2.8e4,1.35e4,19.963,0.106,NaN,2019.989,NaN,0.007,4.404e5,4.249,-9.291e-6,0.738,-1.407e-4,0.403,0.215,0.12,NaN,NaN,NaN,NaN,NaN,NaN,NaN,NaN,1.295e-5,165,213.825,84,0,2.244,15,1013.25,340.389,0.01,0.002
0.05,-4.761e-4,-0.095,-9.523,0.096,9.575,-5.005e-5,0,5.005e-5,180,0.01,1.001,22.175,120.893,9.788,92.422,0,0,0,2.8e4,1.35e4,19.963,0.106,NaN,2019.988,NaN,0.007,4.444e5,4.443,-9.18e-6,0.737,-1.365e-4,0.402,0.215,0.12,NaN,NaN,NaN,NaN,NaN,NaN,NaN,NaN,1.294e-5,165,213.825,84,0,2.264,15,1013.25,340.389,0.01,0.002
0.06,-4.757e-4,-0.095,-9.514,0.096,9.567,-5e-5,0,5e-5,180,0.01,1,22.175,120.893,9.788,92.427,0,0,0,2.8e4,1.35e4,19.963,0.106,NaN,2019.986,NaN,0.007,4.43e5,4.681,-9.188e-6,0.738,-1.375e-4,0.402,0.215,0.12,NaN,NaN,NaN,NaN,NaN,NaN,NaN,NaN,1.293e-5,165,213.825,84,0,2.257,15,1013.25,340.389,0.01,0.003
0.07,-4.762e-4,-0.095,-9.523,0.096,9.576,-5.005e-5,0,5.005e-5,180,0.01,1.001,22.175,120.893,9.788,92.437,0,0,0,2.8e4,1.35e4,19.963,0.106,NaN,2019.984,NaN,0.007,4.416e5,4.438,-9.245e-6,0.738,-1.392e-4,0.403,0.215,0.12,NaN,NaN,NaN,NaN,NaN,NaN,NaN,NaN,1.294e-5,165,213.825,84,0,2.25,15,1013.25,340.389,0.01,0.003
0.08,-4.761e-4,-0.095,-9.522,0.096,9.574,-5.004e-5,0,5.004e-5,180,0.01,1.001,22.175,120.893,9.788,92.445,0,0,0,2.8e4,1.35e4,19.963,0.106,NaN,2019.982,NaN,0.007,4.401e5,4.479,-9.274e-6,0.738,-1.406e-4,0.403,0.215,0.12,NaN,NaN,NaN,NaN,NaN,NaN,NaN,NaN,1.294e-5,165,213.825,84,0,2.242,15,1013.25,340.389,0.01,0.003
0.09,-4.759e-4,-0.095,-9.517,0.096,9.57,-5.002e-5,0,5.002e-5,180,0.01,1,22.175,120.893,9.788,92.452,0,0,0,2.8e4,1.35e4,19.963,0.106,NaN,2019.981,NaN,0.007,4.387e5,4.603,-9.294e-6,0.738,-1.418e-4,0.403,0.215,0.12,NaN,NaN,NaN,NaN,NaN,NaN,NaN,NaN,1.294e-5,165,213.825,84,0,2.235,15,1013.25,340.389,0.01,0.003
0.1,-4.764e-4,-0.095,-9.527,0.096,9.58,-5.007e-5,0,5.007e-5,180,0.01,1.001,22.175,120.893,9.788,92.462,0,0,0,2.8e4,1.35e4,19.963,0.106,NaN,2019.979,NaN,0.007,4.373e5,4.315,-9.357e-6,0.739,-1.437e-4,0.404,0.215,0.12,NaN,NaN,NaN,NaN,NaN,NaN,NaN,NaN,1.295e-5,165,213.825,84,0,2.228,15,1013.25,340.389,0.01,0.003
0.11,-4.762e-4,-0.095,-9.523,0.096,9.576,-5.005e-5,0,5.005e-5,180,0.01,1.001,22.175,120.893,9.788,92.455,0,0,0,2.8e4,1.35e4,19.963,0.106,NaN,2019.977,NaN,0.007,4.384e5,4.431,-9.32e-6,0.739,-1.424e-4,0.403,0.215,0.12,NaN,NaN,NaN,NaN,NaN,NaN,NaN,NaN,1.294e-5,165,213.825,84,0,2.233,15,1013.25,340.389,0.01,0.004
0.12,-4.762e-4,-0.095,-9.523,0.096,9.576,-5.005e-5,0,5.005e-5,180,0.01,1.001,22.175,120.893,9.788,92.449,0,0,0,2.8e4,1.35e4,19.962,0.106,NaN,2019.976,NaN,0.007,4.394e5,4.436,-9.295e-6,0.738,-1.414e-4,0.403,0.215,0.12,NaN,NaN,NaN,NaN,NaN,NaN,NaN,NaN,1.294e-5,165,213.825,84,0,2.239,15,1013.25,340.389,0.01,0.004
0.13,-4.758e-4,-0.095,-9.517,0.096,9.569,-5.001e-5,0,5.001e-5,180,0.01,1,22.175,120.893,9.788,92.442,0,0,0,2.8e4,1.35e4,19.962,0.106,NaN,2019.974,NaN,0.007,4.405e5,4.62,-9.251e-6,0.738,-1.4e-4,0.403,0.215,0.12,NaN,NaN,NaN,NaN,NaN,NaN,NaN,NaN,1.294e-5,165,213.825,84,0,2.244,15,1013.25,340.389,0.01,0.004
0.14,-4.762e-4,-0.095,-9.524,0.096,9.577,-5.005e-5,0,5.005e-5,180,0.01,1.001,22.175,120.893,9.788,92.438,0,0,0,2.8e4,1.35e4,19.962,0.106,NaN,2019.972,NaN,0.007,4.416e5,4.404,-9.249e-6,0.738,-1.393e-4,0.403,0.215,0.12,NaN,NaN,NaN,NaN,NaN,NaN,NaN,NaN,1.295e-5,165,213.825,84,0,2.25,15,1013.25,340.389,0.01,0.004
0.15,-4.761e-4,-0.095,-9.523,0.096,9.575,-5.004e-5,0,5.004e-5,180,0.01,1.001,22.175,120.893,9.788,92.431,0,0,0,2.8e4,1.35e4,19.962,0.106,NaN,2019.97,NaN,0.007,4.427e5,4.444,-9.22e-6,0.738,-1.382e-4,0.403,0.215,0.12,NaN,NaN,NaN,NaN,NaN,NaN,NaN,NaN,1.294e-5,165,213.825,84,0,2.255,15,1013.25,340.389,0.01,0.004
0.16,-4.758e-4,-0.095,-9.516,0.096,9.568,-5.001e-5,0,5.001e-5,180,0.01,1,22.175,120.893,9.788,92.464,0,0,0,2.8e4,1.35e4,19.962,0.106,NaN,2019.969,NaN,0.007,4.365e5,4.651,-9.342e-6,0.739,-1.44e-4,0.404,0.215,0.12,NaN,NaN,NaN,NaN,NaN,NaN,NaN,NaN,1.293e-5,165,213.825,84,0,2.223,15,1013.25,340.389,0.01,0.005
0.17,-4.765e-4,-0.095,-9.531,0.096,9.583,-5.009e-5,0,5.009e-5,180,0.01,1.002,22.175,120.893,9.788,92.504,0,0,0,2.8e4,1.35e4,19.962,0.106,NaN,2019.967,NaN,0.006,4.303e5,4.218,-9.535e-6,0.74,-1.513e-4,0.405,0.215,0.12,NaN,NaN,NaN,NaN,NaN,NaN,NaN,NaN,1.295e-5,165,213.825,84,0,2.192,15,1013.25,340.389,0.01,0.005
0.18,-4.765e-4,-0.095,-9.531,0.096,9.583,-5.009e-5,0,5.009e-5,180,0.01,1.002,22.175,120.893,9.788,92.54,0,0,0,2.8e4,1.35e4,19.962,0.106,NaN,2019.965,NaN,0.006,4.241e5,4.225,-9.687e-6,0.741,-1.582e-4,0.406,0.215,0.12,NaN,NaN,NaN,NaN,NaN,NaN,NaN,NaN,1.295e-5,165,213.825,84,0,2.16,15,1013.25,340.389,0.01,0.005
0.19,-4.764e-4,-0.095,-9.527,0.096,9.58,-5.007e-5,0,5.007e-5,180,0.01,1.001,22.175,120.893,9.788,92.577,0,0,0,2.8e4,1.35e4,19.962,0.106,NaN,2019.964,NaN,0.006,4.179e5,4.321,-9.833e-6,0.743,-1.654e-4,0.408,0.215,0.12,NaN,NaN,NaN,NaN,NaN,NaN,NaN,NaN,1.295e-5,165,213.825,84,0,2.129,15,1013.25,340.389,0.01,0.005
0.2,-4.766e-4,-0.095,-9.532,0.096,9.585,-5.01e-5,0,5.01e-5,180,0.01,1.002,22.175,120.893,9.788,92.617,0,0,0,2.8e4,1.35e4,19.962,0.106,NaN,2019.962,NaN,0.006,4.117e5,4.174,-1.001e-5,0.744,-1.735e-4,0.409,0.215,0.12,NaN,NaN,NaN,NaN,NaN,NaN,NaN,NaN,1.296e-5,165,213.825,84,0,2.097,15,1013.25,340.389,0.01,0.005
0.21,-4.763e-4,-0.095,-9.525,0.096,9.578,-5.006e-5,0,5.006e-5,180,0.01,1.001,22.175,120.893,9.788,92.613,0,0,0,2.8e4,1.35e4,19.962,0.106,NaN,2019.961,NaN,0.006,4.121e5,4.381,-9.978e-6,0.744,-1.726e-4,0.409,0.215,0.12,NaN,NaN,NaN,NaN,NaN,NaN,NaN,NaN,1.295e-5,165,213.825,84,0,2.099,15,1013.25,340.389,0.01,0.006
0.22,-4.758e-4,-0.095,-9.515,0.096,9.568,-5.001e-5,0,5.001e-5,180,0.01,1,22.175,120.893,9.788,92.607,0,0,0,2.8e4,1.35e4,19.962,0.106,NaN,2019.959,NaN,0.006,4.125e5,4.657,-9.937e-6,0.744,-1.715e-4,0.409,0.215,0.12,NaN,NaN,NaN,NaN,NaN,NaN,NaN,NaN,1.293e-5,165,213.825,84,0,2.101,15,1013.25,340.389,0.01,0.006
0.23,-4.762e-4,-0.095,-9.525,0.096,9.577,-5.005e-5,0,5.005e-5,180,0.01,1.001,22.175,120.893,9.788,92.607,0,0,0,2.8e4,1.35e4,19.962,0.106,NaN,2019.957,NaN,0.006,4.129e5,4.392,-9.956e-6,0.744,-1.715e-4,0.409,0.215,0.12,NaN,NaN,NaN,NaN,NaN,NaN,NaN,NaN,1.295e-5,165,213.825,84,0,2.103,15,1013.25,340.389,0.01,0.006
0.24,-4.76e-4,-0.095,-9.52,0.096,9.573,-5.003e-5,0,5.003e-5,180,0.01,1.001,22.175,120.893,9.788,92.604,0,0,0,2.8e4,1.35e4,19.962,0.106,NaN,2019.955,NaN,0.006,4.133e5,4.513,-9.932e-6,0.744,-1.708e-4,0.409,0.215,0.12,NaN,NaN,NaN,NaN,NaN,NaN,NaN,NaN,1.294e-5,165,213.825,84,0,2.105,15,1013.25,340.389,0.01,0.006
0.25,-4.759e-4,-0.095,-9.518,0.096,9.57,-5.002e-5,0,5.002e-5,180,0.01,1,22.175,120.893,9.788,92.601,0,0,0,2.8e4,1.35e4,19.962,0.106,NaN,2019.954,NaN,0.006,4.137e5,4.587,-9.914e-6,0.744,-1.702e-4,0.409,0.215,0.12,NaN,NaN,NaN,NaN,NaN,NaN,NaN,NaN,1.294e-5,165,213.825,84,0,2.107,15,1013.25,340.389,0.01,0.007
0.26,-4.762e-4,-0.095,-9.523,0.096,9.576,-5.005e-5,0,5.005e-5,180,0.01,1.001,22.175,120.893,9.788,92.625,0,0,0,2.8e4,1.35e4,19.962,0.106,NaN,2019.952,NaN,0.006,4.101e5,4.429,-1.003e-5,0.744,-1.751e-4,0.409,0.215,0.12,NaN,NaN,NaN,NaN,NaN,NaN,NaN,NaN,1.294e-5,165,213.825,84,0,2.089,15,1013.25,340.389,0.01,0.007
0.27,-4.76e-4,-0.095,-9.52,0.096,9.572,-5.003e-5,0,5.003e-5,180,0.01,1.001,22.175,120.893,9.788,92.647,0,0,0,2.8e4,1.35e4,19.962,0.106,NaN,2019.95,NaN,0.006,4.065e5,4.527,-1.011e-5,0.745,-1.797e-4,0.41,0.215,0.12,NaN,NaN,NaN,NaN,NaN,NaN,NaN,NaN,1.294e-5,165,213.825,84,0,2.071,15,1013.25,340.389,0.01,0.007
0.28,-4.761e-4,-0.095,-9.521,0.096,9.574,-5.004e-5,0,5.004e-5,180,0.01,1.001,22.175,120.893,9.788,92.671,0,0,0,2.8e4,1.35e4,19.962,0.106,NaN,2019.949,NaN,0.006,4.03e5,4.488,-1.021e-5,0.746,-1.847e-4,0.411,0.215,0.12,NaN,NaN,NaN,NaN,NaN,NaN,NaN,NaN,1.294e-5,165,213.825,84,0,2.052,15,1013.25,340.389,0.01,0.007
0.29,-4.758e-4,-0.095,-9.517,0.096,9.569,-5.001e-5,0,5.001e-5,180,0.01,1,22.175,120.893,9.788,92.693,0,0,0,2.8e4,1.35e4,19.962,0.106,NaN,2019.947,NaN,0.006,3.994e5,4.616,-1.03e-5,0.747,-1.896e-4,0.412,0.215,0.12,NaN,NaN,NaN,NaN,NaN,NaN,NaN,NaN,1.294e-5,165,213.825,84,0,2.034,15,1013.25,340.389,0.01,0.007
0.3,-4.76e-4,-0.095,-9.519,0.096,9.572,-5.003e-5,0,5.003e-5,180,0.01,1.001,22.175,120.893,9.788,92.718,0,0,0,2.8e4,1.35e4,19.962,0.106,NaN,2019.945,NaN,0.006,3.958e5,4.548,-1.041e-5,0.748,-1.951e-4,0.412,0.215,0.12,NaN,NaN,NaN,NaN,NaN,NaN,NaN,NaN,1.294e-5,165,213.825,84,0,2.016,15,1013.25,340.389,0.01,0.008
0.31,-4.757e-4,-0.095,-9.514,0.096,9.566,-5e-5,0,5e-5,180,0.01,1,22.175,120.893,9.788,92.711,0,0,0,2.8e4,1.35e4,19.962,0.106,NaN,2019.943,NaN,0.006,3.966e5,4.706,-1.037e-5,0.747,-1.936e-4,0.412,0.215,0.12,NaN,NaN,NaN,NaN,NaN,NaN,NaN,NaN,1.293e-5,165,213.825,84,0,2.02,15,1013.25,340.389,0.01,0.008
0.32,-4.763e-4,-0.095,-9.527,0.096,9.579,-5.007e-5,0,5.007e-5,180,0.01,1.001,22.175,120.893,9.788,92.71,0,0,0,2.8e4,1.35e4,19.962,0.106,NaN,2019.942,NaN,0.006,3.973e5,4.332,-1.039e-5,0.747,-1.933e-4,0.412,0.215,0.12,NaN,NaN,NaN,NaN,NaN,NaN,NaN,NaN,1.295e-5,165,213.825,84,0,2.024,15,1013.25,340.389,0.01,0.008
0.33,-4.761e-4,-0.095,-9.521,0.096,9.574,-5.004e-5,0,5.004e-5,180,0.01,1.001,22.175,120.893,9.788,92.704,0,0,0,2.8e4,1.35e4,19.962,0.106,NaN,2019.94,NaN,0.006,3.981e5,4.483,-1.035e-5,0.747,-1.918e-4,0.412,0.215,0.12,NaN,NaN,NaN,NaN,NaN,NaN,NaN,NaN,1.294e-5,165,213.825,84,0,2.028,15,1013.25,340.389,0.01,0.008
0.34,-4.759e-4,-0.095,-9.518,0.096,9.571,-5.002e-5,0,5.002e-5,180,0.01,1,22.175,120.893,9.788,92.698,0,0,0,2.8e4,1.35e4,19.962,0.106,NaN,2019.938,NaN,0.006,3.988e5,4.57,-1.032e-5,0.747,-1.906e-4,0.412,0.215,0.12,NaN,NaN,NaN,NaN,NaN,NaN,NaN,NaN,1.294e-5,165,213.825,84,0,2.031,15,1013.25,340.389,0.01,0.008
0.35,-4.762e-4,-0.095,-9.524,0.096,9.576,-5.005e-5,0,5.005e-5,180,0.01,1.001,22.175,120.893,9.788,92.694,0,0,0,2.8e4,1.35e4,19.962,0.106,NaN,2019.936,NaN,0.006,3.996e5,4.419,-1.032e-5,0.747,-1.898e-4,0.412,0.215,0.12,NaN,NaN,NaN,NaN,NaN,NaN,NaN,NaN,1.294e-5,165,213.825,84,0,2.035,15,1013.25,340.389,0.01,0.009
0.36,-4.764e-4,-0.095,-9.527,0.096,9.58,-5.007e-5,0,5.007e-5,180,0.01,1.001,22.175,120.893,9.788,92.683,0,0,0,2.8e4,1.35e4,19.962,0.106,NaN,2019.935,NaN,0.006,4.014e5,4.317,-1.028e-5,0.746,-1.873e-4,0.411,0.215,0.12,NaN,NaN,NaN,NaN,NaN,NaN,NaN,NaN,1.295e-5,165,213.825,84,0,2.044,15,1013.25,340.389,0.01,0.009
0.37,-4.76e-4,-0.095,-9.52,0.096,9.573,-5.003e-5,0,5.003e-5,180,0.01,1.001,22.175,120.893,9.788,92.668,0,0,0,2.8e4,1.35e4,19.962,0.106,NaN,2019.933,NaN,0.006,4.032e5,4.522,-1.02e-5,0.746,-1.843e-4,0.411,0.215,0.12,NaN,NaN,NaN,NaN,NaN,NaN,NaN,NaN,1.294e-5,165,213.825,84,0,2.054,15,1013.25,340.389,0.01,0.009
0.38,-4.762e-4,-0.095,-9.523,0.096,9.576,-5.005e-5,0,5.005e-5,180,0.01,1.001,22.175,120.893,9.788,92.657,0,0,0,2.8e4,1.35e4,19.962,0.106,NaN,2019.931,NaN,0.006,4.051e5,4.433,-1.016e-5,0.745,-1.819e-4,0.41,0.215,0.12,NaN,NaN,NaN,NaN,NaN,NaN,NaN,NaN,1.294e-5,165,213.825,84,0,2.063,15,1013.25,340.389,0.01,0.009
0.39,-4.757e-4,-0.095,-9.515,0.096,9.567,-5e-5,0,5e-5,180,0.01,1,22.175,120.893,9.788,92.643,0,0,0,2.8e4,1.35e4,19.962,0.106,NaN,2019.93,NaN,0.006,4.069e5,4.673,-1.008e-5,0.745,-1.788e-4,0.41,0.215,0.12,NaN,NaN,NaN,NaN,NaN,NaN,NaN,NaN,1.293e-5,165,213.825,84,0,2.073,15,1013.25,340.389,0.01,0.009
0.4,-4.755e-4,-0.095,-9.51,0.096,9.562,-4.998e-5,0,4.998e-5,180,0.01,1,22.175,120.893,9.788,92.63,0,0,0,2.8e4,1.35e4,19.962,0.106,NaN,2019.928,NaN,0.006,4.088e5,4.812,-1.002e-5,0.745,-1.761e-4,0.41,0.215,0.12,NaN,NaN,NaN,NaN,NaN,NaN,NaN,NaN,1.293e-5,165,213.825,84,0,2.082,15,1013.25,340.389,0.01,0.01
0.41,-4.759e-4,-0.095,-9.518,0.096,9.57,-5.002e-5,0,5.002e-5,180,0.01,1,22.175,120.893,9.788,92.62,0,0,0,2.8e4,1.35e4,19.962,0.106,NaN,2019.926,NaN,0.006,4.107e5,4.595,-9.992e-6,0.744,-1.74e-4,0.409,0.215,0.12,NaN,NaN,NaN,NaN,NaN,NaN,NaN,NaN,1.294e-5,165,213.825,84,0,2.092,15,1013.25,340.389,0.01,0.01
0.42,-4.758e-4,-0.095,-9.516,0.096,9.568,-5.001e-5,0,5.001e-5,180,0.01,1,22.175,120.893,9.788,92.607,0,0,0,2.8e4,1.35e4,19.962,0.106,NaN,2019.924,NaN,0.006,4.126e5,4.638,-9.937e-6,0.744,-1.715e-4,0.409,0.215,0.12,NaN,NaN,NaN,NaN,NaN,NaN,NaN,NaN,1.293e-5,165,213.825,84,0,2.101,15,1013.25,340.389,0.01,0.01
0.43,-4.755e-4,-0.095,-9.51,0.096,9.562,-4.998e-5,0,4.998e-5,180,0.01,1,22.175,120.893,9.788,92.593,0,0,0,2.8e4,1.35e4,19.962,0.106,NaN,2019.922,NaN,0.006,4.145e5,4.811,-9.868e-6,0.743,-1.687e-4,0.408,0.215,0.12,NaN,NaN,NaN,NaN,NaN,NaN,NaN,NaN,1.293e-5,165,213.825,84,0,2.111,15,1013.25,340.389,0.01,0.01
0.44,-4.753e-4,-0.095,-9.506,0.096,9.558,-4.996e-5,0,4.996e-5,180,0.01,0.999,22.175,120.893,9.788,92.581,0,0,0,2.8e4,1.35e4,19.962,0.106,NaN,2019.921,NaN,0.006,4.164e5,4.919,-9.807e-6,0.743,-1.661e-4,0.408,0.215,0.12,NaN,NaN,NaN,NaN,NaN,NaN,NaN,NaN,1.292e-5,165,213.825,84,0,2.121,15,1013.25,340.389,0.01,0.01
0.45,-4.759e-4,-0.095,-9.518,0.096,9.57,-5.002e-5,0,5.002e-5,180,0.01,1,22.175,120.893,9.788,92.572,0,0,0,2.8e4,1.35e4,19.961,0.106,NaN,2019.919,NaN,0.006,4.183e5,4.583,-9.795e-6,0.743,-1.644e-4,0.408,0.215,0.12,NaN,NaN,NaN,NaN,NaN,NaN,NaN,NaN,1.294e-5,165,213.825,84,0,2.131,15,1013.25,340.389,0.01,0.011
0.46,-4.762e-4,-0.095,-9.523,0.096,9.576,-5.005e-5,0,5.005e-5,180,0.01,1.001,22.175,120.893,9.788,92.582,0,0,0,2.8e4,1.35e4,19.961,0.106,NaN,2019.917,NaN,0.006,4.169e5,4.429,-9.846e-6,0.743,-1.663e-4,0.408,0.215,0.12,NaN,NaN,NaN,NaN,NaN,NaN,NaN,NaN,1.294e-5,165,213.825,84,0,2.124,15,1013.25,340.389,0.01,0.011
0.47,-4.761e-4,-0.095,-9.523,0.096,9.575,-5.004e-5,0,5.004e-5,180,0.01,1.001,22.175,120.893,9.788,92.59,0,0,0,2.8e4,1.35e4,19.961,0.106,NaN,2019.915,NaN,0.006,4.156e5,4.45,-9.877e-6,0.743,-1.679e-4,0.408,0.215,0.12,NaN,NaN,NaN,NaN,NaN,NaN,NaN,NaN,1.294e-5,165,213.825,84,0,2.117,15,1013.25,340.389,0.01,0.011
0.48,-4.753e-4,-0.095,-9.507,0.096,9.559,-4.996e-5,0,4.996e-5,180,0.01,0.999,22.175,120.893,9.788,92.593,0,0,0,2.8e4,1.35e4,19.961,0.106,NaN,2019.914,NaN,0.006,4.143e5,4.905,-9.862e-6,0.743,-1.687e-4,0.408,0.215,0.12,NaN,NaN,NaN,NaN,NaN,NaN,NaN,NaN,1.292e-5,165,213.825,84,0,2.11,15,1013.25,340.389,0.01,0.011
0.49,-4.756e-4,-0.095,-9.512,0.096,9.565,-4.999e-5,0,4.999e-5,180,0.01,1,22.175,120.893,9.788,92.603,0,0,0,2.8e4,1.35e4,19.961,0.106,NaN,2019.912,NaN,0.006,4.13e5,4.746,-9.913e-6,0.744,-1.707e-4,0.409,0.215,0.12,NaN,NaN,NaN,NaN,NaN,NaN,NaN,NaN,1.293e-5,165,213.825,84,0,2.104,15,1013.25,340.389,0.01,0.011
0.5,-4.761e-4,-0.095,-9.522,0.096,9.574,-5.004e-5,0,5.004e-5,180,0.01,1.001,22.175,120.893,9.788,92.614,0,0,0,2.8e4,1.35e4,19.961,0.106,NaN,2019.91,NaN,0.006,4.117e5,4.47,-9.978e-6,0.744,-1.729e-4,0.409,0.215,0.12,NaN,NaN,NaN,NaN,NaN,NaN,NaN,NaN,1.294e-5,165,213.825,84,0,2.097,15,1013.25,340.389,0.01,0.012
0.51,-4.758e-4,-0.095,-9.515,0.096,9.568,-5.001e-5,0,5.001e-5,180,0.01,1,22.175,120.893,9.788,92.62,0,0,0,2.8e4,1.35e4,19.961,0.106,NaN,2019.908,NaN,0.006,4.105e5,4.657,-9.989e-6,0.744,-1.741e-4,0.409,0.215,0.12,NaN,NaN,NaN,NaN,NaN,NaN,NaN,NaN,1.293e-5,165,213.825,84,0,2.091,15,1013.25,340.389,0.01,0.012
0.52,-4.75e-4,-0.095,-9.499,0.096,9.551,-4.992e-5,0,4.992e-5,180,0.01,0.998,22.175,120.893,9.788,92.623,0,0,0,2.8e4,1.35e4,19.961,0.106,NaN,2019.906,NaN,0.006,4.094e5,5.115,-9.969e-6,0.745,-1.747e-4,0.409,0.215,0.12,NaN,NaN,NaN,NaN,NaN,NaN,NaN,NaN,1.291e-5,165,213.825,84,0,2.085,15,1013.25,340.389,0.01,0.012
0.53,-4.746e-4,-0.095,-9.491,0.095,9.543,-4.988e-5,0,4.988e-5,180,0.01,0.998,22.175,120.893,9.788,92.628,0,0,0,2.8e4,1.35e4,19.961,0.106,NaN,2019.904,NaN,0.006,4.082e5,5.339,-9.976e-6,0.745,-1.758e-4,0.41,0.215,0.12,NaN,NaN,NaN,NaN,NaN,NaN,NaN,NaN,1.29e-5,165,213.825,84,0,2.079,15,1013.25,340.389,0.01,0.012
0.54,-4.758e-4,-0.095,-9.516,0.096,9.568,-5.001e-5,0,5.001e-5,180,0.01,1,22.175,120.893,9.788,92.643,0,0,0,2.8e4,1.35e4,19.961,0.106,NaN,2019.903,NaN,0.006,4.07e5,4.638,-1.009e-5,0.745,-1.788e-4,0.41,0.215,0.12,NaN,NaN,NaN,NaN,NaN,NaN,NaN,NaN,1.293e-5,165,213.825,84,0,2.073,15,1013.25,340.389,0.01,0.012
0.55,-4.755e-4,-0.095,-9.509,0.096,9.562,-4.997e-5,0,4.997e-5,180,0.01,0.999,22.175,120.893,9.788,92.648,0,0,0,2.8e4,1.35e4,19.961,0.106,NaN,2019.901,NaN,0.006,4.058e5,4.82,-1.01e-5,0.745,-1.8e-4,0.41,0.215,0.12,NaN,NaN,NaN,NaN,NaN,NaN,NaN,NaN,1.293e-5,165,213.825,84,0,2.067,15,1013.25,340.389,0.01,0.012
0.56,-4.749e-4,-0.095,-9.498,0.096,9.55,-4.991e-5,0,4.991e-5,180,0.01,0.998,22.175,120.893,9.788,92.612,0,0,0,2.8e4,1.35e4,19.961,0.106,NaN,2019.899,NaN,0.006,4.109e5,5.14,-9.925e-6,0.744,-1.726e-4,0.409,0.215,0.12,NaN,NaN,NaN,NaN,NaN,NaN,NaN,NaN,1.291e-5,165,213.825,84,0,2.093,15,1013.25,340.389,0.01,0.013
0.57,-4.749e-4,-0.095,-9.497,0.095,9.55,-4.991e-5,0,4.991e-5,180,0.01,0.998,22.175,120.893,9.788,92.58,0,0,0,2.8e4,1.35e4,19.961,0.106,NaN,2019.897,NaN,0.006,4.16e5,5.164,-9.79e-6,0.743,-1.661e-4,0.408,0.215,0.12,NaN,NaN,NaN,NaN,NaN,NaN,NaN,NaN,1.291e-5,165,213.825,84,0,2.119,15,1013.25,340.389,0.01,0.013
0.58,-4.749e-4,-0.095,-9.499,0.096,9.551,-4.992e-5,0,4.992e-5,180,0.01,0.998,22.175,120.893,9.788,92.55,0,0,0,2.8e4,1.35e4,19.961,0.106,NaN,2019.895,NaN,0.006,4.211e5,5.125,-9.665e-6,0.742,-1.601e-4,0.407,0.215,0.12,NaN,NaN,NaN,NaN,NaN,NaN,NaN,NaN,1.291e-5,165,213.825,84,0,2.145,15,1013.25,340.389,0.01,0.013
0.59,-4.746e-4,-0.095,-9.493,0.095,9.545,-4.989e-5,0,4.989e-5,180,0.01,0.998,22.175,120.893,9.788,92.518,0,0,0,2.8e4,1.35e4,19.961,0.106,NaN,2019.893,NaN,0.006,4.262e5,5.296,-9.521e-6,0.741,-1.54e-4,0.406,0.215,0.12,NaN,NaN,NaN,NaN,NaN,NaN,NaN,NaN,1.29e-5,165,213.825,84,0,2.171,15,1013.25,340.389,0.01,0.013
0.6,-4.741e-4,-0.095,-9.483,0.095,9.535,-4.984e-5,0,4.984e-5,180,0.01,0.997,22.175,120.893,9.788,92.485,0,0,0,2.8e4,1.349e4,19.961,0.106,NaN,2019.891,NaN,0.006,4.312e5,5.567,-9.37e-6,0.74,-1.48e-4,0.405,0.215,0.12,NaN,NaN,NaN,NaN,NaN,NaN,NaN,NaN,1.289e-5,165,213.825,84,0,2.197,15,1013.25,340.389,0.01,0.013
0.61,-4.739e-4,-0.095,-9.478,0.095,9.53,-4.981e-5,0,4.981e-5,180,0.01,0.996,22.175,120.893,9.788,92.511,0,0,0,2.8e4,1.349e4,19.961,0.106,NaN,2019.889,NaN,0.006,4.267e5,5.717,-9.464e-6,0.741,-1.527e-4,0.406,0.215,0.12,NaN,NaN,NaN,NaN,NaN,NaN,NaN,NaN,1.288e-5,165,213.825,84,0,2.173,15,1013.25,340.389,0.01,0.014
0.62,-4.745e-4,-0.095,-9.49,0.095,9.542,-4.987e-5,0,4.987e-5,180,0.01,0.997,22.175,120.893,9.788,92.541,0,0,0,2.8e4,1.349e4,19.961,0.106,NaN,2019.887,NaN,0.006,4.221e5,5.366,-9.614e-6,0.742,-1.585e-4,0.407,0.215,0.12,NaN,NaN,NaN,NaN,NaN,NaN,NaN,NaN,1.29e-5,165,213.825,84,0,2.15,15,1013.25,340.389,0.01,0.014
0.63,-4.737e-4,-0.095,-9.473,0.095,9.525,-4.978e-5,0,4.978e-5,180,0.01,0.996,22.175,120.893,9.788,92.564,0,0,0,2.799e4,1.349e4,19.961,0.106,NaN,2019.884,NaN,0.006,4.175e5,5.844,-9.677e-6,0.743,-1.63e-4,0.408,0.215,0.12,NaN,NaN,NaN,NaN,NaN,NaN,NaN,NaN,1.288e-5,165,213.825,84,0,2.127,15,1013.25,340.389,0.01,0.014
0.64,-4.738e-4,-0.095,-9.475,0.095,9.527,-4.979e-5,0,4.979e-5,180,0.01,0.996,22.175,120.893,9.788,92.593,0,0,0,2.799e4,1.349e4,19.961,0.106,NaN,2019.882,NaN,0.006,4.129e5,5.786,-9.801e-6,0.744,-1.688e-4,0.409,0.215,0.12,NaN,NaN,NaN,NaN,NaN,NaN,NaN,NaN,1.288e-5,165,213.825,84,0,2.103,15,1013.25,340.389,0.01,0.014
0.65,-4.734e-4,-0.095,-9.469,0.095,9.521,-4.976e-5,0,4.976e-5,180,0.01,0.995,22.175,120.893,9.788,92.621,0,0,0,2.799e4,1.349e4,19.961,0.106,NaN,2019.88,NaN,0.006,4.084e5,5.968,-9.901e-6,0.745,-1.743e-4,0.41,0.215,0.12,NaN,NaN,NaN,NaN,NaN,NaN,NaN,NaN,1.287e-5,165,213.825,84,0,2.08,15,1013.25,340.389,0.01,0.014
0.66,-4.724e-4,-0.094,-9.448,0.095,9.5,-4.965e-5,0,4.965e-5,180,0.01,0.993,22.175,120.893,9.788,92.628,0,0,0,2.799e4,1.349e4,19.961,0.106,NaN,2019.877,NaN,0.006,4.064e5,6.551,-9.889e-6,0.745,-1.759e-4,0.41,0.215,0.12,NaN,NaN,NaN,NaN,NaN,NaN,NaN,NaN,1.284e-5,165,213.825,84,0,2.07,15,1013.25,340.389,0.01,0.014
0.67,-4.721e-4,-0.094,-9.442,0.095,9.494,-4.962e-5,0,4.962e-5,180,0.01,0.992,22.175,120.893,9.788,92.639,0,0,0,2.799e4,1.349e4,19.961,0.106,NaN,2019.875,NaN,0.006,4.044e5,6.72,-9.924e-6,0.746,-1.782e-4,0.411,0.215,0.12,NaN,NaN,NaN,NaN,NaN,NaN,NaN,NaN,1.283e-5,165,213.825,84,0,2.06,15,1013.25,340.389,0.01,0.015
0.68,-4.711e-4,-0.094,-9.421,0.095,9.473,-4.951e-5,0,4.951e-5,180,0.01,0.99,22.175,120.893,9.788,92.646,0,0,0,2.799e4,1.349e4,19.961,0.106,NaN,2019.872,NaN,0.006,4.024e5,7.299,-9.913e-6,0.746,-1.798e-4,0.411,0.215,0.12,NaN,NaN,NaN,NaN,NaN,NaN,NaN,NaN,1.281e-5,165,213.825,84,0,2.05,15,1013.25,340.389,0.01,0.015
0.69,-4.708e-4,-0.094,-9.415,0.095,9.467,-4.948e-5,0,4.948e-5,180,0.01,0.99,22.175,120.893,9.788,92.658,0,0,0,2.799e4,1.349e4,19.961,0.106,NaN,2019.869,NaN,0.006,4.004e5,7.467,-9.949e-6,0.747,-1.822e-4,0.411,0.215,0.12,NaN,NaN,NaN,NaN,NaN,NaN,NaN,NaN,1.28e-5,165,213.825,84,0,2.039,15,1013.25,340.389,0.01,0.015
0.7,-4.699e-4,-0.094,-9.398,0.095,9.45,-4.939e-5,0,4.939e-5,180,0.01,0.988,22.175,120.893,9.788,92.666,0,0,0,2.799e4,1.349e4,19.961,0.106,NaN,2019.866,NaN,0.006,3.984e5,7.951,-9.949e-6,0.747,-1.841e-4,0.412,0.215,0.12,NaN,NaN,NaN,NaN,NaN,NaN,NaN,NaN,1.277e-5,165,213.825,84,0,2.029,15,1013.25,340.389,0.01,0.015
0.71,-4.682e-4,-0.094,-9.363,0.094,9.415,-4.921e-5,0,4.921e-5,180,0.01,0.984,22.175,120.893,9.788,92.646,0,0,0,2.799e4,1.349e4,19.96,0.106,NaN,2019.863,NaN,0.006,4e5,8.938,-9.797e-6,0.747,-1.799e-4,0.412,0.215,0.12,NaN,NaN,NaN,NaN,NaN,NaN,NaN,NaN,1.273e-5,165,213.825,84,0,2.037,15,1013.25,340.389,0.01,0.015
0.72,-4.676e-4,-0.094,-9.352,0.094,9.403,-4.915e-5,0,4.915e-5,180,0.01,0.983,22.175,120.893,9.788,92.632,0,0,0,2.799e4,1.349e4,19.96,0.106,NaN,2019.859,NaN,0.006,4.015e5,9.255,-9.72e-6,0.746,-1.771e-4,0.411,0.215,0.12,NaN,NaN,NaN,NaN,NaN,NaN,NaN,NaN,1.271e-5,165,213.825,84,0,2.045,15,1013.25,340.389,0.01,0.015
0.73,-4.659e-4,-0.093,-9.319,0.094,9.37,-4.897e-5,0,4.897e-5,180,0.01,0.979,22.175,120.893,9.788,92.613,0,0,0,2.799e4,1.349e4,19.96,0.106,NaN,2019.855,NaN,0.006,4.031e5,10.185,-9.578e-6,0.746,-1.731e-4,0.411,0.215,0.12,NaN,NaN,NaN,NaN,NaN,NaN,NaN,NaN,1.267e-5,165,213.825,84,0,2.053,15,1013.25,340.389,0.01,0.016
0.74,-4.64e-4,-0.093,-9.28,0.093,9.331,-4.877e-5,0,4.877e-5,180,0.01,0.975,22.175,120.893,9.788,92.592,0,0,0,2.799e4,1.349e4,19.96,0.106,NaN,2019.851,NaN,0.006,4.047e5,11.275,-9.42e-6,0.746,-1.689e-4,0.41,0.215,0.12,NaN,NaN,NaN,NaN,NaN,NaN,NaN,NaN,1.261e-5,165,213.825,84,0,2.061,15,1013.25,340.389,0.01,0.016
0.75,-4.621e-4,-0.092,-9.243,0.093,9.294,-4.857e-5,0,4.857e-5,180,0.01,0.971,22.175,120.893,9.788,92.572,0,0,0,2.799e4,1.349e4,19.96,0.106,NaN,2019.846,NaN,0.006,4.062e5,12.322,-9.269e-6,0.745,-1.65e-4,0.41,0.215,0.12,NaN,NaN,NaN,NaN,NaN,NaN,NaN,NaN,1.256e-5,165,213.825,84,0,2.069,15,1013.25,340.389,0.01,0.016
0.76,-4.598e-4,-0.092,-9.195,0.092,9.246,-4.832e-5,0,4.832e-5,180,0.01,0.966,22.175,120.893,9.788,92.553,0,0,0,2.799e4,1.349e4,19.96,0.106,NaN,2019.841,NaN,0.006,4.071e5,13.663,-9.107e-6,0.745,-1.614e-4,0.41,0.215,0.12,NaN,NaN,NaN,NaN,NaN,NaN,NaN,NaN,1.25e-5,165,213.825,84,0,2.074,15,1013.25,340.389,0.01,0.016
0.77,-4.586e-4,-0.092,-9.173,0.092,9.223,-4.82e-5,0,4.82e-5,180,0.01,0.964,22.175,120.893,9.788,92.542,0,0,0,2.799e4,1.349e4,19.96,0.106,NaN,2019.836,NaN,0.006,4.079e5,14.302,-9.019e-6,0.745,-1.592e-4,0.41,0.215,0.12,NaN,NaN,NaN,NaN,NaN,NaN,NaN,NaN,1.247e-5,165,213.825,84,0,2.078,15,1013.25,340.389,0.01,0.016
0.78,-4.56e-4,-0.091,-9.12,0.092,9.171,-4.793e-5,0,4.793e-5,180,0.01,0.959,22.175,120.893,9.788,92.522,0,0,0,2.799e4,1.349e4,19.96,0.106,NaN,2019.83,NaN,0.006,4.087e5,15.77,-8.848e-6,0.745,-1.555e-4,0.41,0.215,0.12,NaN,NaN,NaN,NaN,NaN,NaN,NaN,NaN,1.24e-5,165,213.825,84,0,2.082,15,1013.25,340.389,0.01,0.017
0.79,-4.54e-4,-0.091,-9.079,0.091,9.129,-4.771e-5,0,4.771e-5,180,0.01,0.954,22.175,120.893,9.788,92.505,0,0,0,2.799e4,1.349e4,19.96,0.106,NaN,2019.823,NaN,0.006,4.096e5,16.927,-8.71e-6,0.744,-1.525e-4,0.409,0.215,0.12,NaN,NaN,NaN,NaN,NaN,NaN,NaN,NaN,1.234e-5,165,213.825,84,0,2.086,15,1013.25,340.389,0.01,0.017
0.8,-4.518e-4,-0.09,-9.037,0.091,9.087,-4.749e-5,0,4.749e-5,180,0.009,0.95,22.175,120.893,9.788,92.489,0,0,0,2.799e4,1.349e4,19.96,0.106,NaN,2019.816,NaN,0.006,4.104e5,18.121,-8.57e-6,0.744,-1.494e-4,0.409,0.215,0.12,NaN,NaN,NaN,NaN,NaN,NaN,NaN,NaN,1.228e-5,165,213.825,84,0,2.091,15,1013.25,340.389,0.01,0.017
0.81,-4.495e-4,-0.09,-8.99,0.09,9.04,-4.725e-5,0,4.725e-5,180,0.009,0.945,22.175,120.893,9.788,92.515,0,0,0,2.799e4,1.349e4,19.96,0.106,NaN,2019.809,NaN,0.006,4.04e5,19.438,-8.587e-6,0.746,-1.545e-4,0.411,0.215,0.12,NaN,NaN,NaN,NaN,NaN,NaN,NaN,NaN,1.222e-5,165,213.825,84,0,2.058,15,1013.25,340.389,0.01,0.017
0.82,-4.482e-4,-0.09,-8.965,0.09,9.014,-4.711e-5,0,4.711e-5,180,0.009,0.942,22.175,120.893,9.788,92.549,0,0,0,2.799e4,1.349e4,19.959,0.106,NaN,2019.801,NaN,0.006,3.975e5,20.155,-8.666e-6,0.747,-1.611e-4,0.412,0.215,0.12,NaN,NaN,NaN,NaN,NaN,NaN,NaN,NaN,1.218e-5,165,213.825,84,0,2.025,15,1013.25,340.389,0.01,0.017
0.83,-4.434e-4,-0.089,-8.867,0.089,8.916,-4.66e-5,0,4.66e-5,180,0.009,0.932,22.175,120.893,9.788,92.563,0,0,0,2.799e4,1.349e4,19.959,0.106,NaN,2019.793,NaN,0.006,3.91e5,22.899,-8.54e-6,0.749,-1.64e-4,0.414,0.215,0.12,NaN,NaN,NaN,NaN,NaN,NaN,NaN,NaN,1.205e-5,165,213.825,84,0,1.992,15,1013.25,340.389,0.01,0.017
0.84,-4.345e-4,-0.087,-8.69,0.087,8.738,-4.567e-5,0,4.567e-5,180,0.009,0.913,22.175,120.893,9.788,92.554,0,0,0,2.799e4,1.349e4,19.959,0.106,NaN,2019.782,NaN,0.006,3.846e5,27.886,-8.191e-6,0.75,-1.626e-4,0.415,0.215,0.12,NaN,NaN,NaN,NaN,NaN,NaN,NaN,NaN,1.181e-5,165,213.825,84,0,1.959,15,1013.25,340.389,0.01,0.018
0.85,-4.271e-4,-0.085,-8.542,0.086,8.589,-4.489e-5,0,4.489e-5,180,0.009,0.898,22.175,120.893,9.788,92.553,0,0,0,2.799e4,1.349e4,19.959,0.106,NaN,2019.77,NaN,0.006,3.781e5,32.036,-7.93e-6,0.752,-1.629e-4,0.417,0.215,0.12,NaN,NaN,NaN,NaN,NaN,NaN,NaN,NaN,1.161e-5,165,213.825,84,0,1.926,15,1013.25,340.389,0.01,0.018
0.86,-4.194e-4,-0.084,-8.388,0.084,8.434,-4.408e-5,0,4.408e-5,180,0.009,0.882,22.175,120.893,9.788,92.516,0,0,0,2.799e4,1.349e4,19.959,0.106,NaN,2019.756,NaN,0.006,3.768e5,36.392,-7.539e-6,0.752,-1.559e-4,0.417,0.215,0.12,NaN,NaN,NaN,NaN,NaN,NaN,NaN,NaN,1.14e-5,165,213.825,84,0,1.92,15,1013.25,340.389,0.01,0.018
0.87,-4.119e-4,-0.082,-8.239,0.083,8.284,-4.33e-5,0,4.33e-5,180,0.009,0.866,22.175,120.893,9.788,92.48,0,0,0,2.799e4,1.349e4,19.958,0.106,NaN,2019.74,NaN,0.006,3.755e5,40.581,-7.175e-6,0.752,-1.494e-4,0.417,0.215,0.12,NaN,NaN,NaN,NaN,NaN,NaN,NaN,NaN,1.12e-5,165,213.825,84,0,1.913,15,1013.25,340.389,0.01,0.018
0.88,-4.047e-4,-0.081,-8.093,0.081,8.138,-4.253e-5,0,4.253e-5,180,0.009,0.851,22.175,120.893,9.788,92.444,0,0,0,2.799e4,1.349e4,19.958,0.106,NaN,2019.723,NaN,0.006,3.742e5,44.682,-6.83e-6,0.753,-1.432e-4,0.418,0.215,0.12,NaN,NaN,NaN,NaN,NaN,NaN,NaN,NaN,1.1e-5,165,213.825,84,0,1.906,15,1013.25,340.389,0.01,0.018
0.89,-3.982e-4,-0.08,-7.965,0.08,8.008,-4.186e-5,0,4.186e-5,180,0.008,0.837,22.175,120.893,9.788,92.414,0,0,0,2.799e4,1.349e4,19.958,0.106,NaN,2019.705,NaN,0.006,3.729e5,48.294,-6.537e-6,0.753,-1.38e-4,0.418,0.215,0.12,NaN,NaN,NaN,NaN,NaN,NaN,NaN,NaN,1.083e-5,165,213.825,84,0,1.9,15,1013.25,340.389,0.01,0.019
0.9,-3.921e-4,-0.078,-7.842,0.079,7.885,-4.121e-5,0,4.121e-5,180,0.008,0.824,22.175,120.893,9.788,92.385,0,0,0,2.799e4,1.349e4,19.957,0.106,NaN,2019.685,NaN,0.006,3.716e5,51.752,-6.265e-6,0.753,-1.332e-4,0.418,0.215,0.12,NaN,NaN,NaN,NaN,NaN,NaN,NaN,NaN,1.066e-5,165,213.825,84,0,1.893,15,1013.25,340.389,0.01,0.019
0.91,-3.84e-4,-0.077,-7.679,0.077,7.722,-4.036e-5,0,4.036e-5,180,0.008,0.807,22.175,120.893,9.788,92.323,0,0,0,2.798e4,1.348e4,19.957,0.106,NaN,2019.664,NaN,0.006,3.736e5,56.319,-5.853e-6,0.753,-1.232e-4,0.418,0.215,0.12,NaN,NaN,NaN,NaN,NaN,NaN,NaN,NaN,1.044e-5,165,213.825,84,0,1.903,15,1013.25,340.389,0.01,0.019
0.92,-3.761e-4,-0.075,-7.522,0.076,7.563,-3.953e-5,0,3.953e-5,180,0.008,0.791,22.175,120.893,9.788,92.264,0,0,0,2.798e4,1.348e4,19.957,0.106,NaN,2019.641,NaN,0.006,3.755e5,60.748,-5.471e-6,0.752,-1.139e-4,0.417,0.215,0.12,NaN,NaN,NaN,NaN,NaN,NaN,NaN,NaN,1.022e-5,165,213.825,84,0,1.913,15,1013.25,340.389,0.01,0.019
0.93,-3.643e-4,-0.073,-7.286,0.073,7.326,-3.829e-5,0,3.829e-5,180,0.008,0.766,22.175,120.893,9.788,92.181,0,0,0,2.798e4,1.348e4,19.956,0.106,NaN,2019.615,NaN,0.006,3.775e5,67.387,-4.947e-6,0.752,-1.019e-4,0.417,0.215,0.12,NaN,NaN,NaN,NaN,NaN,NaN,NaN,NaN,9.903e-6,165,213.825,84,0,1.924,15,1013.25,340.389,0.01,0.019
0.94,-3.499e-4,-0.07,-6.999,0.07,7.037,-3.678e-5,0,3.678e-5,180,0.007,0.736,22.175,120.893,9.788,92.084,0,0,0,2.798e4,1.348e4,19.956,0.106,NaN,2019.586,NaN,0.006,3.795e5,75.455,-4.364e-6,0.751,-8.901e-5,0.416,0.215,0.12,NaN,NaN,NaN,NaN,NaN,NaN,NaN,NaN,9.513e-6,165,213.825,84,0,1.934,15,1013.25,340.389,0.01,0.019
0.95,-3.337e-4,-0.067,-6.674,0.067,6.71,-3.507e-5,0,3.507e-5,180,0.007,0.701,22.175,120.893,9.788,91.977,0,0,0,2.798e4,1.348e4,19.955,0.106,NaN,2019.554,NaN,0.006,3.814e5,84.603,-3.766e-6,0.751,-7.601e-5,0.416,0.215,0.12,NaN,NaN,NaN,NaN,NaN,NaN,NaN,NaN,9.071e-6,165,213.825,84,0,1.944,15,1013.25,340.389,0.01,0.02
0.96,-3.135e-4,-0.063,-6.271,0.063,6.305,-3.295e-5,0,3.295e-5,180,0.007,0.659,22.175,120.893,9.788,91.871,0,0,0,2.798e4,1.348e4,19.954,0.106,NaN,2019.517,NaN,0.006,3.787e5,95.934,-3.153e-6,0.752,-6.457e-5,0.416,0.215,0.12,NaN,NaN,NaN,NaN,NaN,NaN,NaN,NaN,8.523e-6,165,213.825,84,0,1.93,15,1013.25,340.389,0.01,0.02
0.97,-2.933e-4,-0.059,-5.865,0.059,5.898,-3.082e-5,0,3.082e-5,180,0.006,0.616,22.175,120.893,9.788,91.763,0,0,0,2.798e4,1.348e4,19.954,0.106,NaN,2019.476,NaN,0.006,3.759e5,107.326,-2.604e-6,0.752,-5.411e-5,0.417,0.215,0.12,NaN,NaN,NaN,NaN,NaN,NaN,NaN,NaN,7.972e-6,165,213.825,84,0,1.916,15,1013.25,340.389,0.01,0.02
0.98,-2.671e-4,-0.053,-5.342,0.054,5.372,-2.808e-5,0,2.808e-5,180,0.006,0.561,22.175,120.893,9.788,91.618,0,0,0,2.797e4,1.347e4,19.953,0.106,NaN,2019.43,NaN,0.006,3.732e5,122.033,-1.987e-6,0.753,-4.189e-5,0.418,0.215,0.12,NaN,NaN,NaN,NaN,NaN,NaN,NaN,NaN,7.261e-6,165,213.825,84,0,1.902,15,1013.25,340.389,0.01,0.02
0.99,-2.333e-4,-0.047,-4.667,0.047,4.692,-2.453e-5,0,2.453e-5,180,0.005,0.49,22.175,120.893,9.788,91.424,0,0,0,2.797e4,1.347e4,19.952,0.106,NaN,2019.376,NaN,0.006,3.704e5,141.022,-1.338e-6,0.754,-2.864e-5,0.418,0.215,0.12,NaN,NaN,NaN,NaN,NaN,NaN,NaN,NaN,6.343e-6,165,213.825,84,0,1.888,15,1013.25,340.389,0.01,0.02
1,-1.839e-4,-0.037,-3.678,0.037,3.699,-1.933e-5,0,1.933e-5,180,0.004,0.387,22.175,120.893,9.788,91.131,0,0,0,2.797e4,1.347e4,19.951,0.106,NaN,2019.312,NaN,0.006,3.677e5,168.795,-6.629e-7,0.754,-1.44e-5,0.419,0.215,0.12,NaN,NaN,NaN,NaN,NaN,NaN,NaN,NaN,5e-6,165,213.825,84,0,1.874,15,1013.25,340.389,0.01,0.021
1.01,-1.138e-4,-0.023,-2.275,0.023,2.288,-1.196e-5,0,1.196e-5,180,0.002,0.239,22.175,120.893,9.788,90.708,0,0,0,2.796e4,1.346e4,19.949,0.106,NaN,2019.232,NaN,0.005,3.632e5,208.221,-1.598e-7,0.755,-3.559e-6,0.42,0.215,0.12,NaN,NaN,NaN,NaN,NaN,NaN,NaN,NaN,3.094e-6,165,213.825,84,0,1.852,15,1013.25,340.389,0.01,0.021
1.02,-4.855e-5,-0.01,-0.97,0.01,0.975,-5.103e-6,0,5.103e-6,180,0.001,0.102,22.175,120.893,9.788,90.306,0,0,0,2.796e4,1.346e4,19.948,0.106,NaN,2019.139,NaN,0.005,3.587e5,244.886,-1.263e-8,0.757,-2.883e-7,0.421,0.215,0.12,NaN,NaN,NaN,NaN,NaN,NaN,NaN,NaN,1.32e-6,165,213.825,84,0,1.829,15,1013.25,340.389,0.01,0.021
1.03,2.205e-5,0.004,0.442,0.004,0.445,2.317e-6,0,2.317e-6,0,4.638e-4,0.046,22.175,120.893,9.788,89.859,0,0,0,2.795e4,1.345e4,19.946,0.106,NaN,2019.03,NaN,0.005,3.542e5,284.538,0,0.758,2.82e-8,0.423,0.215,0.12,NaN,NaN,NaN,NaN,NaN,NaN,NaN,NaN,5.998e-7,165,213.825,84,0,1.806,15,1013.25,340.389,0.01,0.021
1.04,1.641e-4,0.024,1.96,0.024,1.971,1.725e-5,0,1.725e-5,0,0.003,0.206,22.175,120.893,9.788,89.225,0,0,0,2.795e4,1.345e4,19.943,0.106,NaN,2018.905,NaN,0.005,3.498e5,327.142,1.955e-7,0.759,4.692e-6,0.424,0.215,0.12,NaN,NaN,NaN,NaN,NaN,NaN,NaN,NaN,3.263e-6,165,213.825,84,0,1.783,15,1013.25,340.389,0.01,0.021
1.05,5.833e-4,0.06,3.585,0.06,3.604,6.13e-5,0,6.13e-5,0,0.006,0.377,22.175,120.893,9.788,88.043,0,0,0,2.794e4,1.344e4,19.941,0.106,NaN,2018.763,NaN,0.005,3.455e5,372.693,3.033e-6,0.76,7.464e-5,0.425,0.215,0.12,NaN,NaN,NaN,NaN,NaN,NaN,NaN,NaN,8.133e-6,165,213.825,84,0,1.761,15,1013.25,340.389,0.01,0.021
1.06,0.001,0.115,5.563,0.116,5.594,1.534e-4,0,1.534e-4,0,0.012,0.585,22.175,120.893,9.788,86.219,0,0,0,2.793e4,1.343e4,19.938,0.106,NaN,2018.599,NaN,0.005,3.452e5,428.171,2.143e-5,0.76,5.281e-4,0.425,0.215,0.12,NaN,NaN,NaN,NaN,NaN,NaN,NaN,NaN,1.569e-5,165,213.825,84,0,1.756,15,1013.25,340.389,0.01,0.022
1.07,0.003,0.191,7.517,0.192,7.558,3.142e-4,0,3.142e-4,0,0.02,0.79,22.175,120.893,9.788,83.758,0,0,0,2.792e4,1.342e4,19.935,0.106,NaN,2018.415,NaN,0.005,3.456e5,482.882,9.408e-5,0.76,0.002,0.425,0.215,0.12,NaN,NaN,NaN,NaN,NaN,NaN,NaN,NaN,2.59e-5,165,213.825,84,0,1.752,15,1013.25,340.389,0.01,0.022
1.08,0.005,0.288,9.758,0.29,9.812,5.658e-4,0,5.658e-4,0,0.03,1.026,22.175,120.893,9.788,80.588,0,0,0,2.791e4,1.341e4,19.931,0.106,NaN,2018.206,NaN,0.005,3.474e5,545.617,3.143e-4,0.76,0.008,0.424,0.215,0.12,NaN,NaN,NaN,NaN,NaN,NaN,NaN,NaN,3.916e-5,165,213.825,84,0,1.748,15,1013.249,340.389,0.01,0.022
1.09,0.009,0.411,12.305,0.413,12.373,9.333e-4,0,9.333e-4,0,0.043,1.293,22.175,120.893,9.788,76.661,0,0,0,2.79e4,1.34e4,19.927,0.106,NaN,2017.969,NaN,0.005,3.514e5,616.859,8.731e-4,0.758,0.021,0.423,0.215,0.12,NaN,NaN,NaN,NaN,NaN,NaN,NaN,NaN,5.588e-5,165,213.825,84,0,1.744,15,1013.249,340.389,0.01,0.022
1.1,0.014,0.563,15.219,0.566,15.303,0.001,0,0.001,0,0.059,1.6,22.175,120.893,9.788,71.963,0,0,0,2.789e4,1.339e4,19.922,0.106,NaN,2017.702,NaN,0.005,3.587e5,698.307,0.002,0.757,0.048,0.421,0.215,0.12,NaN,NaN,NaN,NaN,NaN,NaN,NaN,NaN,7.656e-5,165,213.825,84,0,1.739,15,1013.248,340.389,0.01,0.022
1.11,0.02,0.746,18.29,0.75,18.39,0.002,0,0.002,0,0.078,1.922,22.175,120.893,9.788,67.003,0,0,0,2.788e4,1.338e4,19.917,0.106,NaN,2017.401,NaN,0.006,3.766e5,784.022,0.005,0.752,0.093,0.417,0.215,0.12,NaN,NaN,NaN,NaN,NaN,NaN,NaN,NaN,1.014e-4,165,213.825,84,0,1.768,15,1013.248,340.389,0.01,0.023
1.12,0.029,0.96,21.44,0.966,21.558,0.003,0,0.003,0,0.101,2.253,22.175,120.893,9.788,61.734,0,0,0,2.786e4,1.336e4,19.911,0.106,NaN,2017.066,NaN,0.006,3.999e5,871.849,0.009,0.747,0.16,0.412,0.215,0.12,NaN,NaN,NaN,NaN,NaN,NaN,NaN,NaN,1.305e-4,165,213.825,84,0,1.796,15,1013.247,340.389,0.01,0.023
1.13,0.04,1.207,24.646,1.213,24.781,0.004,0,0.004,0,0.127,2.59,22.175,120.893,9.788,56.372,0,0,0,2.784e4,1.334e4,19.904,0.106,NaN,2016.696,NaN,0.006,4.297e5,961.049,0.015,0.74,0.246,0.405,0.215,0.12,NaN,NaN,NaN,NaN,NaN,NaN,NaN,NaN,1.64e-4,165,213.825,84,0,1.824,15,1013.245,340.389,0.01,0.023
1.14,0.053,1.482,27.565,1.49,27.717,0.006,0,0.006,0,0.156,2.897,22.175,120.893,9.788,51.186,0,0,0,2.782e4,1.332e4,19.897,0.106,NaN,2016.295,NaN,0.007,4.663e5,1042.073,0.026,0.733,0.345,0.398,0.215,0.12,NaN,NaN,NaN,NaN,NaN,NaN,NaN,NaN,2.015e-4,165,213.825,84,0,1.853,15,1013.244,340.389,0.01,0.023
1.15,0.069,1.783,30.094,1.793,30.259,0.007,0,0.007,0,0.187,3.163,22.175,120.893,9.788,46.376,0,0,0,2.78e4,1.33e4,19.889,0.106,NaN,2015.866,NaN,0.008,5.096e5,1112.029,0.039,0.726,0.444,0.391,0.215,0.12,NaN,NaN,NaN,NaN,NaN,NaN,NaN,NaN,2.424e-4,165,213.825,84,0,1.881,15,1013.242,340.389,0.01,0.023
1.16,0.089,2.106,32.29,2.117,32.468,0.009,0,0.009,0,0.221,3.394,22.175,120.893,9.788,41.926,0,0,0,2.778e4,1.328e4,19.881,0.106,NaN,2015.413,NaN,0.008,5.581e5,1172.553,0.057,0.718,0.54,0.383,0.215,0.12,NaN,NaN,NaN,NaN,NaN,NaN,NaN,NaN,2.862e-4,165,213.825,84,0,1.902,14.999,1013.24,340.389,0.01,0.023
1.17,0.112,2.446,34.029,2.459,34.217,0.012,0,0.012,0,0.257,3.577,22.175,120.893,9.788,38.007,0,0,0,2.776e4,1.326e4,19.873,0.105,NaN,2014.941,NaN,0.009,6.121e5,1220.187,0.079,0.711,0.622,0.376,0.215,0.12,NaN,NaN,NaN,NaN,NaN,NaN,NaN,NaN,3.325e-4,165,213.825,84,0,1.922,14.999,1013.237,340.388,0.01,0.024
1.18,0.138,2.799,35.306,2.814,35.5,0.014,0,0.014,0,0.294,3.711,22.175,120.893,9.788,34.614,0,0,0,2.774e4,1.324e4,19.864,0.105,NaN,2014.455,NaN,0.01,6.706e5,1254.818,0.105,0.704,0.689,0.369,0.215,0.12,NaN,NaN,NaN,NaN,NaN,NaN,NaN,NaN,3.804e-4,165,213.825,84,0,1.942,14.999,1013.234,340.388,0.01,0.024
1.19,0.168,3.16,36.107,3.177,36.306,0.018,0,0.018,0,0.332,3.795,22.175,120.893,9.788,31.708,0,0,0,2.771e4,1.321e4,19.855,0.105,NaN,2013.959,NaN,0.011,7.324e5,1276.135,0.135,0.697,0.74,0.362,0.215,0.12,NaN,NaN,NaN,NaN,NaN,NaN,NaN,NaN,4.295e-4,165,213.825,84,0,1.963,14.999,1013.23,340.388,0.01,0.024
1.2,0.201,3.526,36.66,3.546,36.862,0.021,0,0.021,0,0.371,3.853,22.175,120.893,9.788,29.222,0,0,0,2.769e4,1.319e4,19.846,0.105,NaN,2013.458,NaN,0.012,7.967e5,1290.479,0.168,0.691,0.779,0.356,0.215,0.12,NaN,NaN,NaN,NaN,NaN,NaN,NaN,NaN,4.793e-4,165,213.825,84,0,1.983,14.999,1013.226,340.388,0.01,0.024
1.21,0.238,3.896,36.966,3.917,37.17,0.025,0,0.025,0,0.409,3.885,22.175,120.893,9.788,26.876,0,0,0,2.767e4,1.317e4,19.837,0.105,NaN,2012.952,NaN,0.013,8.612e5,1297.933,0.205,0.686,0.81,0.35,0.215,0.12,NaN,NaN,NaN,NaN,NaN,NaN,NaN,NaN,5.295e-4,165,213.825,84,0,1.985,14.998,1013.222,340.388,0.01,0.024
1.22,0.279,4.266,37.026,4.289,37.23,0.029,0,0.029,0,0.448,3.892,22.175,120.893,9.788,24.858,0,0,0,2.764e4,1.314e4,19.828,0.105,NaN,2012.446,NaN,0.014,9.27e5,1298.512,0.243,0.68,0.832,0.345,0.215,0.12,NaN,NaN,NaN,NaN,NaN,NaN,NaN,NaN,5.798e-4,165,213.825,84,0,1.987,14.998,1013.217,340.388,0.01,0.025
1.23,0.324,4.636,37.068,4.662,37.273,0.034,0,0.034,0,0.487,3.896,22.175,120.893,9.788,23.107,0,0,0,2.762e4,1.312e4,19.819,0.105,NaN,2011.938,NaN,0.015,9.939e5,1298.633,0.284,0.676,0.845,0.341,0.215,0.12,NaN,NaN,NaN,NaN,NaN,NaN,NaN,NaN,6.302e-4,165,213.825,84,0,1.989,14.998,1013.212,340.388,0.01,0.025
1.24,0.372,5.006,36.975,5.033,37.178,0.039,0,0.039,0,0.526,3.886,22.175,120.893,9.788,21.582,0,0,0,2.76e4,1.31e4,19.81,0.105,NaN,2011.431,NaN,0.016,1.061e6,1294.965,0.328,0.671,0.854,0.336,0.215,0.12,NaN,NaN,NaN,NaN,NaN,NaN,NaN,NaN,6.804e-4,165,213.825,84,0,1.991,14.998,1013.206,340.387,0.01,0.025
1.25,0.424,5.374,36.889,5.404,37.092,0.045,0,0.045,0,0.565,3.877,22.175,120.893,9.788,20.243,0,0,0,2.757e4,1.307e4,19.801,0.105,NaN,2010.925,NaN,0.017,1.13e6,1291.53,0.373,0.667,0.858,0.332,0.215,0.12,NaN,NaN,NaN,NaN,NaN,NaN,NaN,NaN,7.305e-4,165,213.825,84,0,1.993,14.997,1013.2,340.387,0.01,0.025
1.26,0.479,5.742,36.801,5.774,37.004,0.05,0,0.05,0,0.604,3.868,22.175,120.893,9.788,19.129,0,0,0,2.755e4,1.305e4,19.792,0.105,NaN,2010.419,NaN,0.018,1.198e6,1288.052,0.42,0.663,0.858,0.328,0.215,0.12,NaN,NaN,NaN,NaN,NaN,NaN,NaN,NaN,7.805e-4,165,213.825,84,0,2.003,14.997,1013.194,340.387,0.01,0.025
1.27,0.538,6.109,36.689,6.143,36.891,0.057,0,0.057,0,0.642,3.856,22.175,120.893,9.788,18.139,0,0,0,2.753e4,1.303e4,19.783,0.105,NaN,2009.914,NaN,0.019,1.268e6,1283.912,0.469,0.66,0.857,0.325,0.215,0.12,NaN,NaN,NaN,NaN,NaN,NaN,NaN,NaN,8.303e-4,165,213.825,84,0,2.012,14.997,1013.187,340.387,0.01,0.025
1.28,0.601,6.475,36.656,6.511,36.858,0.063,0,0.063,0,0.681,3.853,22.175,120.893,9.788,17.253,0,0,0,2.75e4,1.3e4,19.774,0.105,NaN,2009.409,NaN,0.02,1.337e6,1281.967,0.519,0.657,0.853,0.321,0.215,0.12,NaN,NaN,NaN,NaN,NaN,NaN,NaN,NaN,8.801e-4,165,213.825,84,0,2.022,14.996,1013.179,340.387,0.01,0.026
1.29,0.668,6.841,36.574,6.879,36.775,0.07,0,0.07,0,0.719,3.844,22.175,120.893,9.788,16.456,0,0,0,2.748e4,1.298e4,19.765,0.105,NaN,2008.904,NaN,0.021,1.407e6,1278.651,0.572,0.653,0.849,0.318,0.215,0.12,NaN,NaN,NaN,NaN,NaN,NaN,NaN,NaN,9.298e-4,165,213.825,84,0,2.032,14.996,1013.172,340.386,0.01,0.026
1.3,0.738,7.206,36.532,7.246,36.733,0.078,0,0.078,0,0.757,3.84,22.175,120.893,9.788,15.735,0,0,0,2.746e4,1.296e4,19.756,0.105,NaN,2008.399,NaN,0.022,1.476e6,1276.485,0.625,0.65,0.843,0.315,0.215,0.12,NaN,NaN,NaN,NaN,NaN,NaN,NaN,NaN,9.795e-4,165,213.825,84,0,2.041,14.995,1013.163,340.386,0.01,0.026
1.31,0.812,7.571,36.527,7.613,36.728,0.085,0,0.085,0,0.796,3.839,22.175,120.893,9.788,14.993,0,0,0,2.743e4,1.293e4,19.747,0.105,NaN,2007.894,NaN,0.023,1.546e6,1275.318,0.679,0.648,0.835,0.313,0.215,0.12,NaN,NaN,NaN,NaN,NaN,NaN,NaN,NaN,0.001,165,213.825,84,0,2.039,14.995,1013.155,340.386,0.01,0.026
1.32,0.89,7.936,36.499,7.98,36.7,0.094,0,0.094,0,0.834,3.836,22.175,120.893,9.788,14.315,0,0,0,2.741e4,1.291e4,19.738,0.105,NaN,2007.388,NaN,0.024,1.615e6,1273.528,0.733,0.645,0.826,0.31,0.215,0.12,NaN,NaN,NaN,NaN,NaN,NaN,NaN,NaN,0.001,165,213.825,84,0,2.036,14.994,1013.146,340.385,0.01,0.026
1.33,0.971,8.301,36.549,8.347,36.751,0.102,0,0.102,0,0.872,3.841,22.175,120.893,9.788,13.693,0,0,0,2.739e4,1.289e4,19.729,0.105,NaN,2006.882,NaN,0.025,1.685e6,1273.891,0.789,0.643,0.816,0.307,0.215,0.12,NaN,NaN,NaN,NaN,NaN,NaN,NaN,NaN,0.001,165,213.825,84,0,2.034,14.994,1013.136,340.385,0.01,0.027
1.34,1.056,8.666,36.527,8.714,36.728,0.111,0,0.111,0,0.911,3.839,22.175,120.893,9.788,13.12,0,0,0,2.736e4,1.286e4,19.72,0.105,NaN,2006.376,NaN,0.026,1.755e6,1272.247,0.846,0.64,0.807,0.305,0.215,0.12,NaN,NaN,NaN,NaN,NaN,NaN,NaN,NaN,0.001,165,213.825,84,0,2.031,14.993,1013.126,340.385,0.01,0.027
1.35,1.144,9.031,36.537,9.081,36.738,0.12,0,0.12,0,0.949,3.84,22.175,120.893,9.788,12.591,0,0,0,2.734e4,1.284e4,19.711,0.105,NaN,2005.868,NaN,0.027,1.825e6,1271.517,0.904,0.638,0.798,0.303,0.215,0.12,NaN,NaN,NaN,NaN,NaN,NaN,NaN,NaN,0.001,165,213.825,84,0,2.028,14.993,1013.116,340.384,0.01,0.027
1.36,1.236,9.397,36.575,9.449,36.776,0.13,0,0.13,0,0.988,3.844,22.175,120.893,9.788,12.205,0,0,0,2.732e4,1.282e4,19.702,0.105,NaN,2005.361,NaN,0.028,1.896e6,1271.539,0.967,0.636,0.79,0.301,0.215,0.12,NaN,NaN,NaN,NaN,NaN,NaN,NaN,NaN,0.001,165,213.825,84,0,2.044,14.992,1013.105,340.384,0.01,0.027
1.37,1.332,9.763,36.591,9.816,36.793,0.14,0,0.14,0,1.026,3.846,22.175,120.893,9.788,11.847,0,0,0,2.729e4,1.279e4,19.693,0.105,NaN,2004.852,NaN,0.029,1.967e6,1270.983,1.031,0.634,0.782,0.299,0.215,0.12,NaN,NaN,NaN,NaN,NaN,NaN,NaN,NaN,0.001,165,213.825,84,0,2.059,14.991,1013.094,340.384,0.01,0.027
1.38,1.432,10.13,36.708,10.185,36.91,0.15,0,0.15,0,1.065,3.858,22.175,120.893,9.788,11.512,0,0,0,2.727e4,1.277e4,19.684,0.105,NaN,2004.342,NaN,0.031,2.038e6,1273.167,1.097,0.632,0.775,0.297,0.215,0.12,NaN,NaN,NaN,NaN,NaN,NaN,NaN,NaN,0.001,165,213.825,84,0,2.075,14.991,1013.082,340.383,0.01,0.027
1.39,1.535,10.497,36.749,10.555,36.951,0.161,0,0.161,0,1.103,3.862,22.175,120.893,9.788,11.2,0,0,0,2.725e4,1.275e4,19.675,0.105,NaN,2003.83,NaN,0.032,2.11e6,1273.278,1.165,0.63,0.768,0.295,0.215,0.12,NaN,NaN,NaN,NaN,NaN,NaN,NaN,NaN,0.001,165,213.825,84,0,2.09,14.99,1013.07,340.383,0.01,0.028
1.4,1.641,10.865,36.836,10.925,37.039,0.173,0,0.173,0,1.142,3.872,22.175,120.893,9.788,10.908,0,0,0,2.723e4,1.273e4,19.666,0.105,NaN,2003.318,NaN,0.033,2.182e6,1274.663,1.234,0.628,0.762,0.293,0.215,0.12,NaN,NaN,NaN,NaN,NaN,NaN,NaN,NaN,0.001,165,213.825,84,0,2.105,14.989,1013.057,340.382,0.01,0.028
1.41,1.752,11.234,36.944,11.296,37.147,0.184,0,0.184,0,1.181,3.883,22.175,120.893,9.788,10.67,0,0,0,2.72e4,1.27e4,19.657,0.105,NaN,2002.803,NaN,0.034,2.254e6,1276.588,1.308,0.627,0.756,0.291,0.215,0.12,NaN,NaN,NaN,NaN,NaN,NaN,NaN,NaN,0.002,165,213.825,84,0,2.128,14.989,1013.045,340.382,0.01,0.028
1.42,1.866,11.604,37.012,11.668,37.216,0.196,0,0.196,0,1.22,3.89,22.175,120.893,9.788,10.447,0,0,0,2.718e4,1.268e4,19.648,0.105,NaN,2002.288,NaN,0.035,2.327e6,1277.444,1.383,0.625,0.75,0.29,0.215,0.12,NaN,NaN,NaN,NaN,NaN,NaN,NaN,NaN,0.002,165,213.825,84,0,2.151,14.988,1013.031,340.382,0.01,0.028
1.43,1.984,11.976,37.148,12.042,37.353,0.209,0,0.209,0,1.259,3.904,22.175,120.893,9.788,10.236,0,0,0,2.716e4,1.266e4,19.639,0.105,NaN,2001.77,NaN,0.036,2.399e6,1280.14,1.461,0.623,0.745,0.288,0.215,0.12,NaN,NaN,NaN,NaN,NaN,NaN,NaN,NaN,0.002,165,213.825,84,0,2.175,14.987,1013.017,340.381,0.01,0.028
1.44,2.106,12.347,37.205,12.415,37.41,0.221,0,0.221,0,1.298,3.91,22.175,120.893,9.788,10.038,0,0,0,2.713e4,1.263e4,19.629,0.105,NaN,2001.252,NaN,0.037,2.472e6,1280.681,1.544,0.623,0.742,0.288,0.215,0.12,NaN,NaN,NaN,NaN,NaN,NaN,NaN,NaN,0.002,165,213.825,84,0,2.198,14.986,1013.003,340.381,0.01,0.029
1.45,2.231,12.72,37.314,12.79,37.52,0.234,0,0.234,0,1.337,3.922,22.175,120.893,9.788,9.849,0,0,0,2.711e4,1.261e4,19.62,0.105,NaN,2000.731,NaN,0.038,2.546e6,1282.653,1.63,0.623,0.739,0.288,0.215,0.12,NaN,NaN,NaN,NaN,NaN,NaN,NaN,NaN,0.002,165,213.825,84,0,2.221,14.985,1012.988,340.38,0.01,0.029
1.46,2.36,13.095,37.433,13.167,37.639,0.248,0,0.248,0,1.376,3.934,22.175,120.893,9.788,9.457,0,0,0,2.709e4,1.259e4,19.611,0.104,NaN,2000.209,NaN,0.039,2.617e6,1284.861,1.709,0.623,0.732,0.288,0.215,0.12,NaN,NaN,NaN,NaN,NaN,NaN,NaN,NaN,0.002,165,213.825,84,0,2.193,14.985,1012.973,340.38,0.01,0.029
1.47,2.493,13.469,37.487,13.543,37.693,0.262,0,0.262,0,1.416,3.94,22.175,120.893,9.788,9.086,0,0,0,2.706e4,1.256e4,19.602,0.104,NaN,1999.686,NaN,0.04,2.689e6,1285.292,1.789,0.623,0.726,0.288,0.215,0.12,NaN,NaN,NaN,NaN,NaN,NaN,NaN,NaN,0.002,165,213.825,84,0,2.166,14.984,1012.958,340.379,0.01,0.029
1.48,2.629,13.845,37.609,13.921,37.816,0.276,0,0.276,0,1.455,3.953,22.175,120.893,9.788,8.733,0,0,0,2.704e4,1.254e4,19.592,0.104,NaN,1999.161,NaN,0.041,2.762e6,1287.587,1.872,0.623,0.721,0.288,0.215,0.12,NaN,NaN,NaN,NaN,NaN,NaN,NaN,NaN,0.002,165,213.825,84,0,2.139,14.983,1012.942,340.379,0.01,0.029
1.49,2.77,14.221,37.656,14.3,37.863,0.291,0,0.291,0,1.495,3.958,22.175,120.893,9.788,8.398,0,0,0,2.702e4,1.252e4,19.583,0.104,NaN,1998.635,NaN,0.042,2.834e6,1287.832,1.956,0.623,0.715,0.288,0.215,0.12,NaN,NaN,NaN,NaN,NaN,NaN,NaN,NaN,0.002,165,213.825,84,0,2.111,14.982,1012.925,340.378,0.01,0.03
1.5,2.914,14.599,37.727,14.679,37.935,0.306,0,0.306,0,1.534,3.965,22.175,120.893,9.788,8.08,0,0,0,2.699e4,1.249e4,19.574,0.104,NaN,1998.108,NaN,0.044,2.907e6,1288.735,2.043,0.623,0.71,0.288,0.215,0.12,NaN,NaN,NaN,NaN,NaN,NaN,NaN,NaN,0.002,165,213.825,84,0,2.084,14.981,1012.908,340.377,0.01,0.03
1.51,3.062,14.976,37.809,15.059,38.018,0.322,0,0.322,0,1.574,3.974,22.175,120.893,9.788,7.939,0,0,0,2.697e4,1.247e4,19.564,0.104,NaN,1997.579,NaN,0.045,2.981e6,1289.948,2.142,0.623,0.708,0.288,0.215,0.12,NaN,NaN,NaN,NaN,NaN,NaN,NaN,NaN,0.002,165,213.825,84,0,2.1,14.98,1012.891,340.377,0.01,0.03
1.52,3.213,15.355,37.826,15.439,38.034,0.338,0,0.338,0,1.614,3.976,22.175,120.893,9.788,7.804,0,0,0,2.695e4,1.244e4,19.555,0.104,NaN,1997.049,NaN,0.046,3.055e6,1289.376,2.243,0.623,0.705,0.288,0.215,0.12,NaN,NaN,NaN,NaN,NaN,NaN,NaN,NaN,0.002,165,213.825,84,0,2.116,14.979,1012.873,340.376,0.01,0.03
1.53,3.369,15.734,37.966,15.821,38.176,0.354,0,0.354,0,1.654,3.99,22.175,120.893,9.788,7.676,0,0,0,2.692e4,1.242e4,19.546,0.104,NaN,1996.518,NaN,0.047,3.13e6,1292.164,2.347,0.623,0.703,0.288,0.215,0.12,NaN,NaN,NaN,NaN,NaN,NaN,NaN,NaN,0.002,165,213.825,84,0,2.132,14.978,1012.855,340.376,0.01,0.03
1.54,3.528,16.114,38.037,16.203,38.246,0.371,0,0.371,0,1.694,3.998,22.175,120.893,9.788,7.553,0,0,0,2.69e4,1.24e4,19.536,0.104,NaN,1995.985,NaN,0.048,3.205e6,1293.051,2.453,0.623,0.701,0.288,0.215,0.12,NaN,NaN,NaN,NaN,NaN,NaN,NaN,NaN,0.002,165,213.825,84,0,2.148,14.977,1012.836,340.375,0.01,0.031
1.55,3.691,16.495,38.143,16.586,38.353,0.388,0,0.388,0,1.734,4.009,22.175,120.893,9.788,7.435,0,0,0,2.687e4,1.237e4,19.527,0.104,NaN,1995.451,NaN,0.049,3.28e6,1294.89,2.562,0.623,0.699,0.288,0.215,0.12,NaN,NaN,NaN,NaN,NaN,NaN,NaN,NaN,0.002,165,213.825,84,0,2.165,14.976,1012.817,340.374,0.01,0.031
1.56,3.858,16.878,38.268,16.971,38.479,0.405,0,0.405,0,1.774,4.022,22.175,120.893,9.788,7.169,0,0,0,2.685e4,1.235e4,19.517,0.104,NaN,1994.914,NaN,0.05,3.354e6,1297.251,2.663,0.623,0.695,0.288,0.215,0.12,NaN,NaN,NaN,NaN,NaN,NaN,NaN,NaN,0.002,165,213.825,84,0,2.135,14.975,1012.798,340.374,0.01,0.031
1.57,4.029,17.261,38.289,17.356,38.5,0.423,0,0.423,0,1.814,4.024,22.175,120.893,9.788,6.914,0,0,0,2.683e4,1.233e4,19.508,0.104,NaN,1994.377,NaN,0.051,3.428e6,1296.778,2.766,0.623,0.691,0.288,0.215,0.12,NaN,NaN,NaN,NaN,NaN,NaN,NaN,NaN,0.002,165,213.825,84,0,2.105,14.974,1012.777,340.373,0.01,0.031
1.585,4.292,17.835,38.31,17.935,38.642,0.451,2.688e-5,0.451,0.003,1.89,5.057,22.175,120.893,9.788,6.54,0,0.038,1.548e-4,2.679e4,1.229e4,19.493,0.104,2133.395,1993.568,0.847,0.053,3.539e6,1298.654,2.923,0.624,0.685,0.288,0.215,0.12,1.498,1.27,2.98e-4,0,0,0,0,5.206e-6,0.002,165,213.825,84,-0.003,2.06,14.972,1012.747,340.372,0.015,0.031
1.608,4.703,18.7,38.514,18.807,38.846,0.495,1.677e-4,0.495,0.019,2.004,5.075,22.175,120.893,9.788,6.16,0,0.1,8.96e-4,2.674e4,1.224e4,19.472,0.104,2140.131,1992.348,0.896,0.056,3.709e6,1301.804,3.183,0.624,0.679,0.288,0.215,0.12,1.395,1.25,-3.219e-4,0,0,0,0,3.187e-5,0.003,165,213.825,84,-0.018,2.039,14.969,1012.698,340.37,0.023,0.032
1.641,5.356,20.009,38.851,20.127,39.185,0.566,6.131e-4,0.566,0.062,2.176,5.107,22.175,120.893,9.788,6.042,0,0.203,0.003,2.666e4,1.216e4,19.439,0.104,2142.276,1990.501,0.92,0.059,3.968e6,1307.398,3.634,0.624,0.678,0.288,0.215,0.12,1.364,1.254,-2.246e-4,0,0,0,0,1.153e-4,0.003,165,213.825,84,-0.066,2.149,14.965,1012.622,340.368,0.034,0.032
1.691,6.406,21.968,39.276,22.102,39.611,0.681,0.002,0.681,0.154,2.433,5.144,22.175,120.893,9.788,5.278,0,0.379,0.011,2.654e4,1.204e4,19.39,0.104,2156.498,1987.731,1.023,0.065,4.351e6,1313.533,4.299,0.624,0.667,0.288,0.215,0.121,1.163,1.19,-3.567e-4,0,0,0,0,3.354e-4,0.003,165,213.825,84,-0.204,2.077,14.958,1012.499,340.364,0.05,0.032
1.741,7.554,23.956,39.856,24.106,40.194,0.809,0.004,0.809,0.263,2.692,5.197,22.175,120.893,9.788,4.97,0,0.58,0.021,2.642e4,1.192e4,19.34,0.104,2162.454,1984.915,1.076,0.071,4.743e6,1323.765,5.078,0.624,0.663,0.288,0.216,0.121,1.085,1.167,-2.122e-4,0,0,0,0,6.596e-4,0.003,165,213.825,83.998,-0.432,2.153,14.951,1012.364,340.359,0.05,0.032
1.791,8.802,25.975,40.485,26.142,40.825,0.95,0.006,0.95,0.379,2.954,5.255,22.175,120.893,9.788,4.817,0,0.817,0.034,2.63e4,1.18e4,19.29,0.103,2165.489,1982.048,1.112,0.077,5.142e6,1335.184,5.951,0.624,0.661,0.288,0.216,0.121,1.047,1.163,-3.037e-4,0,0,0,0,0.001,0.004,165,213.825,83.996,-0.764,2.287,14.943,1012.218,340.354,0.05,0.032
1.841,10.152,28.028,41.163,28.212,41.504,1.104,0.01,1.104,0.496,3.22,5.316,22.175,120.893,9.788,4.22,0,1.086,0.062,2.617e4,1.167e4,19.238,0.103,2177.5,1979.127,1.202,0.083,5.544e6,1347.677,6.841,0.624,0.653,0.288,0.216,0.121,0.9,1.079,-1.642e-4,0,0,0,0,0.002,0.004,165,213.825,83.992,-1.217,2.199,14.934,1012.059,340.349,0.05,0.032
1.891,11.605,30.121,41.97,30.322,42.315,1.272,0.013,1.272,0.605,3.489,5.392,22.175,120.893,9.788,3.964,0,1.376,0.087,2.605e4,1.155e4,19.185,0.103,2182.841,1976.143,1.253,0.089,5.957e6,1363.475,7.862,0.624,0.65,0.288,0.216,0.121,0.838,1.048,2.835e-4,0,0,0,0,0.002,0.004,165,213.825,83.986,-1.801,2.261,14.925,1011.889,340.343,0.05,0.033
1.941,13.165,32.248,42.635,32.466,42.982,1.453,0.018,1.453,0.704,3.761,5.454,22.175,120.893,9.788,3.573,0,1.7,0.129,2.593e4,1.143e4,19.132,0.103,2191.164,1973.105,1.322,0.096,6.375e6,1375.364,8.946,0.625,0.646,0.288,0.216,0.121,0.746,0.983,3.969e-4,0,0,0,0,0.003,0.004,165,213.825,83.976,-2.529,2.239,14.914,1011.706,340.337,0.05,0.033
1.991,14.831,34.412,43.387,34.648,43.738,1.648,0.023,1.648,0.786,4.037,5.528,22.175,120.893,9.788,3.383,0,2.049,0.164,2.58e4,1.13e4,19.077,0.103,2195.328,1970.006,1.366,0.102,6.801e6,1389.417,10.156,0.625,0.644,0.288,0.216,0.121,0.702,0.955,1.866e-4,0,0,0,0,0.004,0.005,165,213.825,83.961,-3.411,2.324,14.904,1011.511,340.33,0.05,0.033
2.041,16.607,36.626,44.389,36.879,44.745,1.857,0.028,1.857,0.851,4.318,5.633,22.175,120.893,9.788,3.04,5.5e-7,2.43,0.229,2.567e4,1.117e4,19.021,0.102,2202.92,1966.831,1.431,0.109,7.237e6,1409.711,11.441,0.625,0.641,0.288,0.216,0.122,0.623,0.887,2.996e-4,0,0,0,0,0.005,0.005,165,213.825,83.939,-4.457,2.312,14.892,1011.302,340.323,0.05,0.033
2.091,18.495,38.884,45.272,39.155,45.633,2.08,0.033,2.08,0.895,4.604,5.731,22.175,120.893,9.788,2.893,6.348e-7,2.836,0.269,2.554e4,1.104e4,18.964,0.102,2206.292,1963.584,1.471,0.115,7.682e6,1426.753,12.871,0.625,0.64,0.287,0.216,0.122,0.59,0.862,-2.255e-4,0,0,0,0,0.006,0.005,165,213.825,83.909,-5.672,2.429,14.88,1011.081,340.316,0.05,0.034
2.141,20.496,41.172,45.878,41.462,46.245,2.317,0.037,2.317,0.917,4.893,5.811,22.175,120.893,9.788,2.556,7.141e-7,3.267,0.372,2.541e4,1.091e4,18.906,0.102,2214.024,1960.282,1.538,0.122,8.132e6,1436.554,14.363,0.626,0.637,0.287,0.216,0.122,0.516,0.786,-2.193e-5,0,0,0,0,0.007,0.006,165,213.825,83.869,-7.063,2.413,14.867,1010.846,340.308,0.05,0.034
2.191,22.613,43.495,46.568,43.803,46.943,2.569,0.041,2.569,0.912,5.186,5.917,22.175,120.893,9.788,2.143,1.023e-6,3.681,0.551,2.528e4,1.078e4,18.847,0.102,2223.758,1956.918,1.617,0.129,8.587e6,1448.404,15.946,0.626,0.634,0.287,0.216,0.122,0.426,0.682,3.84e-4,0,0,0,0,0.008,0.006,165,213.825,83.817,-8.623,2.327,14.853,1010.598,340.3,0.05,0.034
2.241,24.846,45.854,47.297,46.181,47.682,2.836,0.043,2.836,0.877,5.484,6.041,22.175,120.893,9.788,1.918,1.629e-6,4.092,0.672,2.515e4,1.065e4,18.787,0.102,2229.245,1953.489,1.671,0.136,9.052e6,1461.178,17.684,0.626,0.633,0.287,0.217,0.122,0.379,0.624,1.037e-4,0,0,0,0,0.009,0.006,165,213.825,83.749,-10.329,2.386,14.838,1010.336,340.291,0.05,0.034
2.291,27.199,48.238,47.804,48.584,48.199,3.118,0.044,3.118,0.811,5.787,6.162,22.175,120.893,9.788,1.708,1.795e-6,4.512,0.808,2.501e4,1.051e4,18.726,0.101,2234.445,1950.006,1.724,0.143,9.521e6,1468.288,19.539,0.627,0.632,0.287,0.217,0.123,0.335,0.567,3.291e-4,0,0,0,0,0.01,0.007,165,213.825,83.665,-12.165,2.464,14.823,1010.06,340.282,0.05,0.034
2.341,29.67,50.627,47.881,50.992,48.289,3.415,0.042,3.415,0.711,6.093,6.266,22.175,120.893,9.788,1.416,2.367e-6,4.886,1.096,2.488e4,1.038e4,18.664,0.101,2241.77,1946.495,1.79,0.15,9.99e6,1464.702,21.474,0.627,0.631,0.287,0.217,0.123,0.275,0.481,9.747e-5,0,0,0,0,0.011,0.007,165,213.825,83.561,-14.109,2.468,14.807,1009.77,340.272,0.05,0.035
2.391,32.261,53.018,47.929,53.403,48.353,3.727,0.038,3.727,0.577,6.402,6.39,22.175,120.893,9.788,1.226,0,5.245,1.292,2.475e4,1.025e4,18.602,0.101,2246.661,1942.956,1.841,0.157,1.046e7,1460.577,23.53,0.627,0.63,0.287,0.217,0.123,0.236,0.424,3.961e-5,0,0,0,0,0.011,0.007,165,213.825,83.436,-16.127,2.575,14.79,1009.466,340.262,0.05,0.035
2.441,34.972,55.414,48.021,55.82,48.466,4.055,0.029,4.055,0.408,6.716,6.554,22.175,120.893,9.788,0.996,3.292e-6,5.529,1.673,2.461e4,1.011e4,18.539,0.101,2252.671,1939.385,1.899,0.164,1.093e7,1457.734,25.681,0.628,0.63,0.287,0.217,0.124,0.19,0.35,1.974e-5,0,0,0,0,0.011,0.008,165,213.825,83.289,-18.185,2.644,14.773,1009.148,340.251,0.05,0.035
2.491,37.802,57.794,47.688,58.22,48.16,4.398,0.016,4.398,0.203,7.034,6.727,22.175,120.893,9.788,0.624,2.57e-6,5.096,3.291,2.448e4,9982.7,18.477,0.101,2262.502,1935.809,1.98,0.171,1.14e7,1444.705,27.892,0.628,0.629,0.287,0.217,0.124,0.118,0.224,-1.713e-4,0,0,0,0,0.009,0.008,165,213.825,83.12,-20.242,2.512,14.754,1008.816,340.24,0.05,0.035
2.541,40.751,60.17,47.614,60.618,48.12,4.757,-0.003,4.757,-0.04,7.358,6.963,22.175,120.893,9.788,0.413,5.628e-6,2.622,5.629,2.435e4,9851.919,18.414,0.1,2268.271,1932.21,2.037,0.178,1.186e7,1438.362,30.226,0.629,0.629,0.287,0.218,0.124,0.077,0.155,3.4e-4,0,0,0,0,0.002,0.008,165,213.825,82.93,-22.234,2.438,14.735,1008.471,340.228,0.05,0.035
2.591,43.819,62.536,47.409,63.007,47.956,5.133,-0.029,5.133,-0.323,7.69,7.217,22.175,120.893,9.788,0.444,6.484e-6,-2.145,5.833,2.422e4,9721.977,18.351,0.1,2267.587,1928.595,2.054,0.185,1.233e7,1429.136,32.669,0.629,0.63,0.287,0.218,0.124,0.083,0.172,-2.112e-4,0,0,0,0,-0.001,0.009,165,213.825,82.723,-24.096,2.363,14.715,1008.111,340.216,0.05,0.036
2.641,47.005,64.915,47.659,65.41,48.256,5.524,-0.062,5.525,-0.646,8.033,7.566,22.175,120.893,9.788,0.669,8.159e-6,-4.249,4.296,2.409e4,9591.843,18.287,0.1,2261.73,1924.936,2.041,0.192,1.28e7,1431.244,35.247,0.63,0.631,0.287,0.218,0.125,0.126,0.263,8.474e-5,0,0,0,0,-0.005,0.009,165,213.825,82.505,-25.773,2.261,14.694,1007.737,340.204,0.05,0.036
2.691,50.31,67.301,47.796,67.822,48.45,5.933,-0.104,5.933,-1.009,8.388,7.933,22.175,120.893,9.788,0.953,9.562e-6,-4.583,3.348,2.396e4,9461.748,18.222,0.1,2254.446,1921.238,2.019,0.2,1.326e7,1430.823,37.959,0.63,0.632,0.287,0.218,0.125,0.182,0.373,3.172e-4,0,0,0,0,-0.005,0.009,165,213.825,82.281,-27.213,2.122,14.673,1007.349,340.191,0.05,0.036
2.741,53.735,69.701,48.08,70.249,48.793,6.358,-0.157,6.36,-1.412,8.759,8.31,22.175,120.893,9.788,1.137,1.08e-5,-4.238,2.883,2.383e4,9331.363,18.157,0.1,2249.881,1917.492,2.014,0.207,1.373e7,1433.995,40.791,0.631,0.633,0.287,0.219,0.126,0.219,0.445,-1.35e-4,0,0,0,0,-0.004,0.01,165,213.825,82.062,-28.372,2.074,14.651,1006.948,340.177,0.05,0.036
2.791,57.281,72.124,48.54,72.702,49.314,6.801,-0.22,6.805,-1.854,9.146,8.704,22.175,120.893,9.788,1.28,1.152e-5,-3.615,2.591,2.37e4,9200.305,18.091,0.099,2246.403,1913.685,2.016,0.214,1.421e7,1441.415,43.756,0.631,0.634,0.287,0.219,0.126,0.248,0.503,-2.304e-4,0,0,0,0,-0.003,0.01,165,213.825,81.854,-29.228,2.027,14.628,1006.532,340.163,0.05,0.036
2.841,60.948,74.568,48.942,75.177,49.774,7.262,-0.295,7.268,-2.33,9.551,9.062,22.175,120.893,9.788,1.366,1.296e-5,-2.784,2.403,2.357e4,9068.707,18.023,0.099,2244.408,1909.819,2.028,0.221,1.469e7,1447.346,46.843,0.632,0.635,0.286,0.219,0.126,0.265,0.54,2.819e-4,0,0,0,0,-0.002,0.01,165,213.825,81.667,-29.768,1.992,14.604,1006.102,340.149,0.05,0.037
2.891,64.738,77.01,48.927,77.653,49.798,7.742,-0.383,7.752,-2.836,9.97,9.278,22.175,120.893,9.787,1.296,1.679e-5,-1.85,2.268,2.344e4,8937.495,17.955,0.099,2246.341,1905.922,2.063,0.229,1.517e7,1443.113,49.991,0.632,0.636,0.286,0.219,0.127,0.251,0.518,-2.564e-4,0,0,0,0,-6.507e-4,0.011,165,213.825,81.506,-29.99,2.102,14.579,1005.657,340.134,0.05,0.037
2.941,68.649,79.444,48.756,80.121,49.66,8.241,-0.485,8.256,-3.365,10.4,9.432,22.175,120.893,9.787,1.232,1.828e-5,-0.895,2.188,2.331e4,8806.998,17.887,0.099,2248.149,1902.002,2.098,0.236,1.565e7,1435.232,53.233,0.633,0.636,0.286,0.22,0.127,0.238,0.5,2.122e-4,0,0,0,0,-1.431e-4,0.011,165,213.825,81.376,-29.911,2.145,14.554,1005.199,340.118,0.05,0.037
2.991,72.682,81.891,49.025,82.606,49.962,8.76,-0.599,8.78,-3.911,10.845,9.63,22.175,120.893,9.787,1.214,1.873e-5,0.142,2.169,2.318e4,8676.274,17.818,0.099,2248.781,1898.031,2.126,0.243,1.613e7,1437.734,56.608,0.634,0.636,0.286,0.22,0.128,0.235,0.499,4.905e-4,0,0,0,0,3.372e-6,0.011,165,213.825,81.28,-29.547,2.051,14.528,1004.726,340.103,0.05,0.037
3.041,76.839,84.363,49.534,85.117,50.496,9.299,-0.726,9.327,-4.467,11.303,9.81,22.175,120.893,9.787,1.178,1.986e-5,1.264,2.198,2.305e4,8544.831,17.748,0.098,2249.9,1893.993,2.157,0.251,1.661e7,1445.651,60.115,0.634,0.637,0.286,0.22,0.128,0.227,0.491,4.713e-4,0,0,0,0,2.528e-4,0.012,165,213.825,81.222,-28.899,1.9,14.501,1004.238,340.086,0.05,0.037
