# Time (s),Altitude (m),Vertical velocity (m/s),Vertical acceleration (m/s²),Total velocity (m/s),Total acceleration (m/s²),Position East of launch (m),Position North of launch (m),Lateral distance (m),Lateral direction (°),Lateral velocity (m/s),Lateral acceleration (m/s²),Latitude (°),Longitude (°),Gravitational acceleration (m/s²),Angle of attack (°),Roll rate (°/s),Pitch rate (°/s),Yaw rate (°/s),Mass (g),Motor mass (g),Longitudinal moment of inertia (kg·m²),Rotational moment of inertia (kg·m²),CP location (mm),CG location (mm),Stability margin calibers (​),Mach number (​),Reynolds number (​),Thrust (N),Drag force (N),Drag coefficient (​),Axial drag coefficient (​),Friction drag coefficient (​),Pressure drag coefficient (​),Base drag coefficient (​),Normal force coefficient (​),Pitch moment coefficient (​),Yaw moment coefficient (​),Side force coefficient (​),Roll moment coefficient (​),Roll forcing coefficient (​),Roll damping coefficient (​),Pitch damping coefficient (​),Coriolis acceleration (m/s²),Reference length (mm),Reference area (cm²),Vertical orientation (zenith) (°),Lateral orientation (azimuth) (°),Wind velocity (m/s),Air temperature (°C),Air pressure (mbar),Speed of sound (m/s),Simulation time step (s),Computation time (s)
0.01,-4.664e-4,-0.093,-9.324,0.095,9.468,-8.224e-5,0,8.224e-5,180,0.016,1.644,22.175,120.893,9.788,90.933,0,0,0,2.8e4,1.35e4,19.963,0.106,NaN,2019.994,NaN,0.017,1.14e6,4.784,-3.175e-6,0.667,-7.179e-6,0.331,0.215,0.12,NaN,NaN,NaN,NaN,NaN,NaN,NaN,NaN,1.282e-5,165,213.825,80,0,5.811,15,1013.25,340.389,0.01,0.001
0.02,-4.668e-4,-0.093,-9.336,0.095,9.48,-8.231e-5,0,8.231e-5,180,0.016,1.646,22.175,120.893,9.788,90.93,0,0,0,2.8e4,1.35e4,19.963,0.106,NaN,2019.992,NaN,0.017,1.146e6,4.461,-3.169e-6,0.666,-7.091e-6,0.331,0.215,0.12,NaN,NaN,NaN,NaN,NaN,NaN,NaN,NaN,1.283e-5,165,213.825,80,0,5.841,15,1013.25,340.389,0.01,0.002
0.03,-4.67e-4,-0.093,-9.34,0.095,9.484,-8.234e-5,0,8.234e-5,180,0.016,1.647,22.175,120.893,9.788,90.925,0,0,0,2.8e4,1.35e4,19.963,0.106,NaN,2019.991,NaN,0.017,1.152e6,4.343,-3.156e-6,0.666,-6.988e-6,0.331,0.215,0.12,NaN,NaN,NaN,NaN,NaN,NaN,NaN,NaN,1.284e-5,165,213.825,80,0,5.871,15,1013.25,340.389,0.01,0.002
0.04,-4.672e-4,-0.093,-9.343,0.095,9.487,-8.237e-5,0,8.237e-5,180,0.016,1.647,22.175,120.893,9.788,90.921,0,0,0,2.8e4,1.35e4,19.963,0.106,NaN,2019.989,NaN,0.017,1.158e6,4.249,-3.141e-6,0.666,-6.885e-6,0.33,0.215,0.12,NaN,NaN,NaN,NaN,NaN,NaN,NaN,NaN,1.285e-5,165,213.825,80,0,5.901,15,1013.25,340.389,0.01,0.002
0.05,-4.668e-4,-0.093,-9.336,0.095,9.48,-8.231e-5,0,8.231e-5,180,0.016,1.646,22.175,120.893,9.788,90.916,0,0,0,2.8e4,1.35e4,19.963,0.106,NaN,2019.988,NaN,0.017,1.163e6,4.443,-3.117e-6,0.665,-6.763e-6,0.33,0.215,0.12,NaN,NaN,NaN,NaN,NaN,NaN,NaN,NaN,1.284e-5,165,213.825,80,0,5.932,15,1013.25,340.389,0.01,0.002
0.06,-4.664e-4,-0.093,-9.328,0.095,9.472,-8.224e-5,0,8.224e-5,180,0.016,1.645,22.175,120.893,9.788,90.916,0,0,0,2.8e4,1.35e4,19.963,0.106,NaN,2019.986,NaN,0.017,1.162e6,4.681,-3.114e-6,0.665,-6.778e-6,0.33,0.215,0.12,NaN,NaN,NaN,NaN,NaN,NaN,NaN,NaN,1.282e-5,165,213.825,80,0,5.922,15,1013.25,340.389,0.01,0.002
0.07,-4.668e-4,-0.093,-9.336,0.095,9.481,-8.231e-5,0,8.231e-5,180,0.016,1.646,22.175,120.893,9.788,90.919,0,0,0,2.8e4,1.35e4,19.963,0.106,NaN,2019.984,NaN,0.017,1.16e6,4.438,-3.128e-6,0.665,-6.83e-6,0.33,0.215,0.12,NaN,NaN,NaN,NaN,NaN,NaN,NaN,NaN,1.284e-5,165,213.825,80,0,5.913,15,1013.25,340.389,0.01,0.003
0.08,-4.668e-4,-0.093,-9.335,0.095,9.479,-8.23e-5,0,8.23e-5,180,0.016,1.646,22.175,120.893,9.788,90.92,0,0,0,2.8e4,1.35e4,19.963,0.106,NaN,2019.982,NaN,0.017,1.158e6,4.479,-3.132e-6,0.666,-6.861e-6,0.33,0.215,0.12,NaN,NaN,NaN,NaN,NaN,NaN,NaN,NaN,1.283e-5,165,213.825,80,0,5.903,15,1013.25,340.389,0.01,0.003
0.09,-4.665e-4,-0.093,-9.331,0.095,9.475,-8.226e-5,0,8.226e-5,180,0.016,1.645,22.175,120.893,9.788,90.921,0,0,0,2.8e4,1.35e4,19.963,0.106,NaN,2019.981,NaN,0.017,1.156e6,4.603,-3.133e-6,0.666,-6.885e-6,0.331,0.215,0.12,NaN,NaN,NaN,NaN,NaN,NaN,NaN,NaN,1.283e-5,165,213.825,80,0,5.894,15,1013.25,340.389,0.01,0.003
0.1,-4.67e-4,-0.093,-9.341,0.095,9.485,-8.235e-5,0,8.235e-5,180,0.016,1.647,22.175,120.893,9.788,90.923,0,0,0,2.8e4,1.35e4,19.963,0.106,NaN,2019.979,NaN,0.017,1.154e6,4.315,-3.149e-6,0.666,-6.941e-6,0.331,0.215,0.12,NaN,NaN,NaN,NaN,NaN,NaN,NaN,NaN,1.284e-5,165,213.825,80,0,5.885,15,1013.25,340.389,0.01,0.003
0.11,-4.668e-4,-0.093,-9.337,0.095,9.481,-8.232e-5,0,8.232e-5,180,0.016,1.646,22.175,120.893,9.788,90.922,0,0,0,2.8e4,1.35e4,19.963,0.106,NaN,2019.977,NaN,0.017,1.156e6,4.431,-3.14e-6,0.666,-6.904e-6,0.331,0.215,0.12,NaN,NaN,NaN,NaN,NaN,NaN,NaN,NaN,1.284e-5,165,213.825,80,0,5.892,15,1013.25,340.389,0.01,0.004
0.12,-4.668e-4,-0.093,-9.337,0.095,9.481,-8.231e-5,0,8.231e-5,180,0.016,1.646,22.175,120.893,9.788,90.921,0,0,0,2.8e4,1.35e4,19.962,0.106,NaN,2019.976,NaN,0.017,1.157e6,4.436,-3.135e-6,0.666,-6.875e-6,0.33,0.215,0.12,NaN,NaN,NaN,NaN,NaN,NaN,NaN,NaN,1.284e-5,165,213.825,80,0,5.9,15,1013.25,340.389,0.01,0.004
0.13,-4.665e-4,-0.093,-9.33,0.095,9.474,-8.226e-5,0,8.226e-5,180,0.016,1.645,22.175,120.893,9.788,90.919,0,0,0,2.8e4,1.35e4,19.962,0.106,NaN,2019.974,NaN,0.017,1.159e6,4.62,-3.124e-6,0.666,-6.833e-6,0.33,0.215,0.12,NaN,NaN,NaN,NaN,NaN,NaN,NaN,NaN,1.283e-5,165,213.825,80,0,5.908,15,1013.25,340.389,0.01,0.004
0.14,-4.669e-4,-0.093,-9.338,0.095,9.482,-8.232e-5,0,8.232e-5,180,0.016,1.646,22.175,120.893,9.788,90.918,0,0,0,2.8e4,1.35e4,19.962,0.106,NaN,2019.972,NaN,0.017,1.16e6,4.404,-3.128e-6,0.665,-6.821e-6,0.33,0.215,0.12,NaN,NaN,NaN,NaN,NaN,NaN,NaN,NaN,1.284e-5,165,213.825,80,0,5.916,15,1013.25,340.389,0.01,0.004
0.15,-4.668e-4,-0.093,-9.336,0.095,9.48,-8.231e-5,0,8.231e-5,180,0.016,1.646,22.175,120.893,9.788,90.917,0,0,0,2.8e4,1.35e4,19.962,0.106,NaN,2019.97,NaN,0.017,1.162e6,4.444,-3.122e-6,0.665,-6.79e-6,0.33,0.215,0.12,NaN,NaN,NaN,NaN,NaN,NaN,NaN,NaN,1.284e-5,165,213.825,80,0,5.924,15,1013.25,340.389,0.01,0.004
0.16,-4.664e-4,-0.093,-9.329,0.095,9.473,-8.225e-5,0,8.225e-5,180,0.016,1.645,22.175,120.893,9.788,90.919,0,0,0,2.8e4,1.35e4,19.962,0.106,NaN,2019.969,NaN,0.017,1.158e6,4.651,-3.126e-6,0.666,-6.848e-6,0.33,0.215,0.12,NaN,NaN,NaN,NaN,NaN,NaN,NaN,NaN,1.283e-5,165,213.825,80,0,5.903,15,1013.25,340.389,0.01,0.005
0.17,-4.672e-4,-0.093,-9.344,0.095,9.488,-8.238e-5,0,8.238e-5,180,0.016,1.648,22.175,120.893,9.788,90.924,0,0,0,2.8e4,1.35e4,19.962,0.106,NaN,2019.967,NaN,0.017,1.154e6,4.218,-3.153e-6,0.666,-6.956e-6,0.331,0.215,0.12,NaN,NaN,NaN,NaN,NaN,NaN,NaN,NaN,1.285e-5,165,213.825,80,0,5.883,15,1013.25,340.389,0.01,0.005
0.18,-4.672e-4,-0.093,-9.344,0.095,9.488,-8.238e-5,0,8.238e-5,180,0.016,1.648,22.175,120.893,9.788,90.927,0,0,0,2.8e4,1.35e4,19.962,0.106,NaN,2019.965,NaN,0.017,1.15e6,4.225,-3.165e-6,0.666,-7.031e-6,0.331,0.215,0.12,NaN,NaN,NaN,NaN,NaN,NaN,NaN,NaN,1.285e-5,165,213.825,80,0,5.862,15,1013.25,340.389,0.01,0.005
0.19,-4.67e-4,-0.093,-9.341,0.095,9.485,-8.235e-5,0,8.235e-5,180,0.016,1.647,22.175,120.893,9.788,90.93,0,0,0,2.8e4,1.35e4,19.962,0.106,NaN,2019.964,NaN,0.017,1.146e6,4.321,-3.174e-6,0.666,-7.1e-6,0.331,0.215,0.12,NaN,NaN,NaN,NaN,NaN,NaN,NaN,NaN,1.284e-5,165,213.825,80,0,5.842,15,1013.25,340.389,0.01,0.005
0.2,-4.673e-4,-0.093,-9.346,0.095,9.49,-8.24e-5,0,8.24e-5,180,0.016,1.648,22.175,120.893,9.788,90.934,0,0,0,2.8e4,1.35e4,19.962,0.106,NaN,2019.962,NaN,0.017,1.142e6,4.174,-3.191e-6,0.667,-7.19e-6,0.331,0.215,0.12,NaN,NaN,NaN,NaN,NaN,NaN,NaN,NaN,1.285e-5,165,213.825,80,0,5.821,15,1013.25,340.389,0.01,0.005
0.21,-4.669e-4,-0.093,-9.338,0.095,9.483,-8.233e-5,0,8.233e-5,180,0.016,1.647,22.175,120.893,9.788,90.938,0,0,0,2.8e4,1.35e4,19.962,0.106,NaN,2019.961,NaN,0.017,1.136e6,4.381,-3.201e-6,0.667,-7.282e-6,0.332,0.215,0.12,NaN,NaN,NaN,NaN,NaN,NaN,NaN,NaN,1.284e-5,165,213.825,80,0,5.792,15,1013.25,340.389,0.01,0.006
0.22,-4.664e-4,-0.093,-9.329,0.095,9.473,-8.225e-5,0,8.225e-5,180,0.016,1.645,22.175,120.893,9.788,90.942,0,0,0,2.8e4,1.35e4,19.962,0.106,NaN,2019.959,NaN,0.017,1.131e6,4.657,-3.208e-6,0.667,-7.371e-6,0.332,0.215,0.12,NaN,NaN,NaN,NaN,NaN,NaN,NaN,NaN,1.283e-5,165,213.825,80,0,5.764,15,1013.25,340.389,0.01,0.006
0.23,-4.669e-4,-0.093,-9.338,0.095,9.482,-8.233e-5,0,8.233e-5,180,0.016,1.647,22.175,120.893,9.788,90.947,0,0,0,2.8e4,1.35e4,19.962,0.106,NaN,2019.957,NaN,0.017,1.125e6,4.392,-3.235e-6,0.667,-7.507e-6,0.332,0.215,0.12,NaN,NaN,NaN,NaN,NaN,NaN,NaN,NaN,1.284e-5,165,213.825,80,0,5.735,15,1013.25,340.389,0.01,0.006
0.24,-4.667e-4,-0.093,-9.334,0.095,9.478,-8.229e-5,0,8.229e-5,180,0.016,1.646,22.175,120.893,9.788,90.951,0,0,0,2.8e4,1.35e4,19.962,0.106,NaN,2019.955,NaN,0.017,1.119e6,4.513,-3.248e-6,0.668,-7.614e-6,0.333,0.215,0.12,NaN,NaN,NaN,NaN,NaN,NaN,NaN,NaN,1.283e-5,165,213.825,80,0,5.707,15,1013.25,340.389,0.01,0.006
0.25,-4.666e-4,-0.093,-9.331,0.095,9.475,-8.227e-5,0,8.227e-5,180,0.016,1.645,22.175,120.893,9.788,90.956,0,0,0,2.8e4,1.35e4,19.962,0.106,NaN,2019.954,NaN,0.017,1.114e6,4.587,-3.263e-6,0.668,-7.726e-6,0.333,0.215,0.12,NaN,NaN,NaN,NaN,NaN,NaN,NaN,NaN,1.283e-5,165,213.825,80,0,5.678,15,1013.25,340.389,0.01,0.006
0.26,-4.668e-4,-0.093,-9.337,0.095,9.481,-8.232e-5,0,8.232e-5,180,0.016,1.646,22.175,120.893,9.788,90.943,0,0,0,2.8e4,1.35e4,19.962,0.106,NaN,2019.952,NaN,0.017,1.13e6,4.429,-3.217e-6,0.667,-7.396e-6,0.332,0.215,0.12,NaN,NaN,NaN,NaN,NaN,NaN,NaN,NaN,1.284e-5,165,213.825,80,0,5.762,15,1013.25,340.389,0.01,0.007
0.27,-4.667e-4,-0.093,-9.333,0.095,9.477,-8.229e-5,0,8.229e-5,180,0.016,1.646,22.175,120.893,9.788,90.929,0,0,0,2.8e4,1.35e4,19.962,0.106,NaN,2019.95,NaN,0.017,1.147e6,4.527,-3.164e-6,0.666,-7.065e-6,0.331,0.215,0.12,NaN,NaN,NaN,NaN,NaN,NaN,NaN,NaN,1.283e-5,165,213.825,80,0,5.846,15,1013.25,340.389,0.01,0.007
0.28,-4.667e-4,-0.093,-9.335,0.095,9.479,-8.23e-5,0,8.23e-5,180,0.016,1.646,22.175,120.893,9.788,90.916,0,0,0,2.8e4,1.35e4,19.962,0.106,NaN,2019.949,NaN,0.017,1.163e6,4.488,-3.116e-6,0.665,-6.763e-6,0.33,0.215,0.12,NaN,NaN,NaN,NaN,NaN,NaN,NaN,NaN,1.283e-5,165,213.825,80,0,5.931,15,1013.25,340.389,0.01,0.007
0.29,-4.665e-4,-0.093,-9.33,0.095,9.474,-8.226e-5,0,8.226e-5,180,0.016,1.645,22.175,120.893,9.788,90.902,0,0,0,2.8e4,1.35e4,19.962,0.106,NaN,2019.947,NaN,0.018,1.18e6,4.616,-3.064e-6,0.664,-6.466e-6,0.329,0.215,0.12,NaN,NaN,NaN,NaN,NaN,NaN,NaN,NaN,1.283e-5,165,213.825,80,0,6.015,15,1013.25,340.389,0.01,0.007
0.3,-4.666e-4,-0.093,-9.333,0.095,9.477,-8.228e-5,0,8.228e-5,180,0.016,1.646,22.175,120.893,9.788,90.89,0,0,0,2.8e4,1.35e4,19.962,0.106,NaN,2019.945,NaN,0.018,1.196e6,4.548,-3.021e-6,0.664,-6.2e-6,0.328,0.215,0.12,NaN,NaN,NaN,NaN,NaN,NaN,NaN,NaN,1.283e-5,165,213.825,80,0,6.099,15,1013.25,340.389,0.01,0.007
0.31,-4.664e-4,-0.093,-9.327,0.095,9.471,-8.223e-5,0,8.223e-5,180,0.016,1.645,22.175,120.893,9.788,90.898,0,0,0,2.8e4,1.35e4,19.962,0.106,NaN,2019.943,NaN,0.018,1.185e6,4.706,-3.048e-6,0.664,-6.378e-6,0.329,0.215,0.12,NaN,NaN,NaN,NaN,NaN,NaN,NaN,NaN,1.282e-5,165,213.825,80,0,6.039,15,1013.25,340.389,0.01,0.007
0.32,-4.67e-4,-0.093,-9.34,0.095,9.484,-8.235e-5,0,8.235e-5,180,0.016,1.647,22.175,120.893,9.788,90.909,0,0,0,2.8e4,1.35e4,19.962,0.106,NaN,2019.942,NaN,0.018,1.173e6,4.332,-3.094e-6,0.665,-6.603e-6,0.33,0.215,0.12,NaN,NaN,NaN,NaN,NaN,NaN,NaN,NaN,1.284e-5,165,213.825,80,0,5.98,15,1013.25,340.389,0.01,0.008
0.33,-4.667e-4,-0.093,-9.335,0.095,9.479,-8.23e-5,0,8.23e-5,180,0.016,1.646,22.175,120.893,9.788,90.917,0,0,0,2.8e4,1.35e4,19.962,0.106,NaN,2019.94,NaN,0.017,1.161e6,4.483,-3.122e-6,0.665,-6.798e-6,0.33,0.215,0.12,NaN,NaN,NaN,NaN,NaN,NaN,NaN,NaN,1.283e-5,165,213.825,80,0,5.921,15,1013.25,340.389,0.01,0.008
0.34,-4.666e-4,-0.093,-9.332,0.095,9.476,-8.227e-5,0,8.227e-5,180,0.016,1.645,22.175,120.893,9.788,90.926,0,0,0,2.8e4,1.35e4,19.962,0.106,NaN,2019.938,NaN,0.017,1.15e6,4.57,-3.153e-6,0.666,-7.005e-6,0.331,0.215,0.12,NaN,NaN,NaN,NaN,NaN,NaN,NaN,NaN,1.283e-5,165,213.825,80,0,5.862,15,1013.25,340.389,0.01,0.008
0.35,-4.669e-4,-0.093,-9.337,0.095,9.481,-8.232e-5,0,8.232e-5,180,0.016,1.646,22.175,120.893,9.788,90.936,0,0,0,2.8e4,1.35e4,19.962,0.106,NaN,2019.936,NaN,0.017,1.138e6,4.419,-3.194e-6,0.667,-7.241e-6,0.332,0.215,0.12,NaN,NaN,NaN,NaN,NaN,NaN,NaN,NaN,1.284e-5,165,213.825,80,0,5.802,15,1013.25,340.389,0.01,0.008
0.36,-4.67e-4,-0.093,-9.341,0.095,9.485,-8.235e-5,0,8.235e-5,180,0.016,1.647,22.175,120.893,9.788,90.915,0,0,0,2.8e4,1.35e4,19.962,0.106,NaN,2019.935,NaN,0.017,1.165e6,4.317,-3.117e-6,0.665,-6.741e-6,0.33,0.215,0.12,NaN,NaN,NaN,NaN,NaN,NaN,NaN,NaN,1.284e-5,165,213.825,80,0,5.941,15,1013.25,340.389,0.01,0.008
0.37,-4.667e-4,-0.093,-9.333,0.095,9.477,-8.229e-5,0,8.229e-5,180,0.016,1.646,22.175,120.893,9.788,90.893,0,0,0,2.8e4,1.35e4,19.962,0.106,NaN,2019.933,NaN,0.018,1.192e6,4.522,-3.033e-6,0.664,-6.265e-6,0.329,0.215,0.12,NaN,NaN,NaN,NaN,NaN,NaN,NaN,NaN,1.283e-5,165,213.825,80,0,6.079,15,1013.25,340.389,0.01,0.009
0.38,-4.668e-4,-0.093,-9.337,0.095,9.481,-8.232e-5,0,8.232e-5,180,0.016,1.646,22.175,120.893,9.788,90.874,0,0,0,2.8e4,1.35e4,19.962,0.106,NaN,2019.931,NaN,0.018,1.219e6,4.433,-2.962e-6,0.662,-5.852e-6,0.327,0.215,0.12,NaN,NaN,NaN,NaN,NaN,NaN,NaN,NaN,1.284e-5,165,213.825,80,0,6.217,15,1013.25,340.389,0.01,0.009
0.39,-4.664e-4,-0.093,-9.328,0.095,9.472,-8.224e-5,0,8.224e-5,180,0.016,1.645,22.175,120.893,9.788,90.854,0,0,0,2.8e4,1.35e4,19.962,0.106,NaN,2019.93,NaN,0.019,1.246e6,4.673,-2.885e-6,0.661,-5.453e-6,0.326,0.215,0.12,NaN,NaN,NaN,NaN,NaN,NaN,NaN,NaN,1.282e-5,165,213.825,80,0,6.355,15,1013.25,340.389,0.01,0.009
0.4,-4.662e-4,-0.093,-9.323,0.095,9.467,-8.22e-5,0,8.22e-5,180,0.016,1.644,22.175,120.893,9.788,90.835,0,0,0,2.8e4,1.35e4,19.962,0.106,NaN,2019.928,NaN,0.019,1.273e6,4.812,-2.814e-6,0.66,-5.095e-6,0.324,0.215,0.12,NaN,NaN,NaN,NaN,NaN,NaN,NaN,NaN,1.282e-5,165,213.825,80,0,6.493,15,1013.25,340.389,0.01,0.009
0.41,-4.665e-4,-0.093,-9.331,0.095,9.475,-8.226e-5,0,8.226e-5,180,0.016,1.645,22.175,120.893,9.788,90.836,0,0,0,2.8e4,1.35e4,19.962,0.106,NaN,2019.926,NaN,0.019,1.274e6,4.595,-2.82e-6,0.66,-5.107e-6,0.324,0.215,0.12,NaN,NaN,NaN,NaN,NaN,NaN,NaN,NaN,1.283e-5,165,213.825,80,0,6.493,15,1013.25,340.389,0.01,0.009
0.42,-4.665e-4,-0.093,-9.329,0.095,9.473,-8.225e-5,0,8.225e-5,180,0.016,1.645,22.175,120.893,9.788,90.836,0,0,0,2.8e4,1.35e4,19.962,0.106,NaN,2019.924,NaN,0.019,1.274e6,4.638,-2.819e-6,0.66,-5.103e-6,0.324,0.215,0.12,NaN,NaN,NaN,NaN,NaN,NaN,NaN,NaN,1.283e-5,165,213.825,80,0,6.494,15,1013.25,340.389,0.01,0.01
0.43,-4.662e-4,-0.093,-9.323,0.095,9.467,-8.22e-5,0,8.22e-5,180,0.016,1.644,22.175,120.893,9.788,90.835,0,0,0,2.8e4,1.35e4,19.962,0.106,NaN,2019.922,NaN,0.019,1.274e6,4.811,-2.813e-6,0.66,-5.091e-6,0.324,0.215,0.12,NaN,NaN,NaN,NaN,NaN,NaN,NaN,NaN,1.282e-5,165,213.825,80,0,6.494,15,1013.25,340.389,0.01,0.01
0.44,-4.66e-4,-0.093,-9.32,0.095,9.463,-8.216e-5,0,8.216e-5,180,0.016,1.643,22.175,120.893,9.788,90.835,0,0,0,2.8e4,1.35e4,19.962,0.106,NaN,2019.921,NaN,0.019,1.274e6,4.919,-2.809e-6,0.66,-5.084e-6,0.324,0.215,0.12,NaN,NaN,NaN,NaN,NaN,NaN,NaN,NaN,1.281e-5,165,213.825,80,0,6.495,15,1013.25,340.389,0.01,0.01
0.45,-4.666e-4,-0.093,-9.331,0.095,9.475,-8.227e-5,0,8.227e-5,180,0.016,1.645,22.175,120.893,9.788,90.836,0,0,0,2.8e4,1.35e4,19.961,0.106,NaN,2019.919,NaN,0.019,1.274e6,4.583,-2.82e-6,0.66,-5.102e-6,0.324,0.215,0.12,NaN,NaN,NaN,NaN,NaN,NaN,NaN,NaN,1.283e-5,165,213.825,80,0,6.496,15,1013.25,340.389,0.01,0.01
0.46,-4.668e-4,-0.093,-9.337,0.095,9.481,-8.232e-5,0,8.232e-5,180,0.016,1.646,22.175,120.893,9.788,90.831,0,0,0,2.8e4,1.35e4,19.961,0.106,NaN,2019.917,NaN,0.019,1.281e6,4.429,-2.807e-6,0.659,-5.022e-6,0.324,0.215,0.12,NaN,NaN,NaN,NaN,NaN,NaN,NaN,NaN,1.284e-5,165,213.825,80,0,6.533,15,1013.25,340.389,0.01,0.01
0.47,-4.668e-4,-0.093,-9.336,0.095,9.48,-8.231e-5,0,8.231e-5,180,0.016,1.646,22.175,120.893,9.788,90.827,0,0,0,2.8e4,1.35e4,19.961,0.106,NaN,2019.915,NaN,0.019,1.289e6,4.45,-2.789e-6,0.659,-4.934e-6,0.324,0.215,0.12,NaN,NaN,NaN,NaN,NaN,NaN,NaN,NaN,1.284e-5,165,213.825,80,0,6.57,15,1013.25,340.389,0.01,0.01
0.48,-4.66e-4,-0.093,-9.32,0.095,9.464,-8.217e-5,0,8.217e-5,180,0.016,1.643,22.175,120.893,9.788,90.821,0,0,0,2.8e4,1.35e4,19.961,0.106,NaN,2019.914,NaN,0.019,1.296e6,4.905,-2.758e-6,0.658,-4.824e-6,0.323,0.215,0.12,NaN,NaN,NaN,NaN,NaN,NaN,NaN,NaN,1.281e-5,165,213.825,80,0,6.607,15,1013.25,340.389,0.01,0.011
0.49,-4.663e-4,-0.093,-9.326,0.095,9.469,-8.222e-5,0,8.222e-5,180,0.016,1.644,22.175,120.893,9.788,90.817,0,0,0,2.8e4,1.35e4,19.961,0.106,NaN,2019.912,NaN,0.02,1.303e6,4.746,-2.746e-6,0.658,-4.75e-6,0.323,0.215,0.12,NaN,NaN,NaN,NaN,NaN,NaN,NaN,NaN,1.282e-5,165,213.825,80,0,6.644,15,1013.25,340.389,0.01,0.011
0.5,-4.668e-4,-0.093,-9.335,0.095,9.479,-8.23e-5,0,8.23e-5,180,0.016,1.646,22.175,120.893,9.788,90.813,0,0,0,2.8e4,1.35e4,19.961,0.106,NaN,2019.91,NaN,0.02,1.31e6,4.47,-2.738e-6,0.658,-4.684e-6,0.323,0.215,0.12,NaN,NaN,NaN,NaN,NaN,NaN,NaN,NaN,1.283e-5,165,213.825,80,0,6.681,15,1013.25,340.389,0.01,0.011
0.51,-4.664e-4,-0.093,-9.329,0.095,9.473,-8.225e-5,0,8.225e-5,180,0.016,1.645,22.175,120.893,9.788,90.811,0,0,0,2.8e4,1.35e4,19.961,0.106,NaN,2019.908,NaN,0.02,1.313e6,4.657,-2.726e-6,0.658,-4.642e-6,0.322,0.215,0.12,NaN,NaN,NaN,NaN,NaN,NaN,NaN,NaN,1.283e-5,165,213.825,80,0,6.696,15,1013.25,340.389,0.01,0.011
0.52,-4.656e-4,-0.093,-9.313,0.095,9.456,-8.21e-5,0,8.21e-5,180,0.016,1.642,22.175,120.893,9.788,90.807,0,0,0,2.8e4,1.35e4,19.961,0.106,NaN,2019.906,NaN,0.02,1.316e6,5.115,-2.705e-6,0.657,-4.585e-6,0.322,0.215,0.12,NaN,NaN,NaN,NaN,NaN,NaN,NaN,NaN,1.28e-5,165,213.825,80,0,6.711,15,1013.25,340.389,0.01,0.011
0.53,-4.652e-4,-0.093,-9.305,0.094,9.448,-8.203e-5,0,8.203e-5,180,0.016,1.641,22.175,120.893,9.788,90.805,0,0,0,2.8e4,1.35e4,19.961,0.106,NaN,2019.904,NaN,0.02,1.319e6,5.339,-2.692e-6,0.657,-4.542e-6,0.322,0.215,0.12,NaN,NaN,NaN,NaN,NaN,NaN,NaN,NaN,1.279e-5,165,213.825,80,0,6.726,15,1013.25,340.389,0.01,0.012
0.54,-4.665e-4,-0.093,-9.329,0.095,9.473,-8.225e-5,0,8.225e-5,180,0.016,1.645,22.175,120.893,9.788,90.805,0,0,0,2.8e4,1.35e4,19.961,0.106,NaN,2019.903,NaN,0.02,1.322e6,4.638,-2.707e-6,0.657,-4.547e-6,0.322,0.215,0.12,NaN,NaN,NaN,NaN,NaN,NaN,NaN,NaN,1.283e-5,165,213.825,80,0,6.741,15,1013.25,340.389,0.01,0.012
0.55,-4.661e-4,-0.093,-9.323,0.095,9.467,-8.219e-5,0,8.219e-5,180,0.016,1.644,22.175,120.893,9.788,90.803,0,0,0,2.8e4,1.35e4,19.961,0.106,NaN,2019.901,NaN,0.02,1.325e6,4.82,-2.694e-6,0.657,-4.506e-6,0.322,0.215,0.12,NaN,NaN,NaN,NaN,NaN,NaN,NaN,NaN,1.282e-5,165,213.825,80,0,6.756,15,1013.25,340.389,0.01,0.012
0.56,-4.656e-4,-0.093,-9.312,0.095,9.455,-8.21e-5,0,8.21e-5,180,0.016,1.642,22.175,120.893,9.788,90.793,0,0,0,2.8e4,1.35e4,19.961,0.106,NaN,2019.899,NaN,0.02,1.339e6,5.14,-2.654e-6,0.656,-4.345e-6,0.321,0.215,0.12,NaN,NaN,NaN,NaN,NaN,NaN,NaN,NaN,1.28e-5,165,213.825,80,0,6.828,15,1013.25,340.389,0.01,0.012
0.57,-4.655e-4,-0.093,-9.311,0.095,9.455,-8.209e-5,0,8.209e-5,180,0.016,1.642,22.175,120.893,9.788,90.785,0,0,0,2.8e4,1.35e4,19.961,0.106,NaN,2019.897,NaN,0.02,1.353e6,5.164,-2.623e-6,0.656,-4.206e-6,0.321,0.215,0.12,NaN,NaN,NaN,NaN,NaN,NaN,NaN,NaN,1.28e-5,165,213.825,80,0,6.9,15,1013.25,340.389,0.01,0.012
0.58,-4.656e-4,-0.093,-9.312,0.095,9.456,-8.21e-5,0,8.21e-5,180,0.016,1.642,22.175,120.893,9.788,90.777,0,0,0,2.8e4,1.35e4,19.961,0.106,NaN,2019.895,NaN,0.02,1.368e6,5.125,-2.595e-6,0.655,-4.075e-6,0.32,0.215,0.12,NaN,NaN,NaN,NaN,NaN,NaN,NaN,NaN,1.28e-5,165,213.825,80,0,6.972,15,1013.25,340.389,0.01,0.012
0.59,-4.653e-4,-0.093,-9.306,0.094,9.45,-8.205e-5,0,8.205e-5,180,0.016,1.641,22.175,120.893,9.788,90.769,0,0,0,2.8e4,1.35e4,19.961,0.106,NaN,2019.893,NaN,0.021,1.382e6,5.296,-2.561e-6,0.654,-3.94e-6,0.319,0.215,0.12,NaN,NaN,NaN,NaN,NaN,NaN,NaN,NaN,1.279e-5,165,213.825,80,0,7.044,15,1013.25,340.389,0.01,0.013
0.6,-4.648e-4,-0.093,-9.297,0.094,9.44,-8.196e-5,0,8.196e-5,180,0.016,1.639,22.175,120.893,9.788,90.76,0,0,0,2.8e4,1.349e4,19.961,0.106,NaN,2019.891,NaN,0.021,1.396e6,5.567,-2.525e-6,0.654,-3.807e-6,0.319,0.215,0.12,NaN,NaN,NaN,NaN,NaN,NaN,NaN,NaN,1.278e-5,165,213.825,80,0,7.116,15,1013.25,340.389,0.01,0.013
0.61,-4.646e-4,-0.093,-9.291,0.094,9.435,-8.192e-5,0,8.192e-5,180,0.016,1.638,22.175,120.893,9.788,90.77,0,0,0,2.8e4,1.349e4,19.961,0.106,NaN,2019.889,NaN,0.021,1.376e6,5.717,-2.56e-6,0.655,-3.971e-6,0.32,0.215,0.12,NaN,NaN,NaN,NaN,NaN,NaN,NaN,NaN,1.277e-5,165,213.825,80,0,7.016,15,1013.25,340.389,0.01,0.013
0.62,-4.652e-4,-0.093,-9.304,0.094,9.447,-8.203e-5,0,8.203e-5,180,0.016,1.641,22.175,120.893,9.788,90.783,0,0,0,2.8e4,1.349e4,19.961,0.106,NaN,2019.887,NaN,0.02,1.356e6,5.366,-2.611e-6,0.656,-4.168e-6,0.32,0.215,0.12,NaN,NaN,NaN,NaN,NaN,NaN,NaN,NaN,1.279e-5,165,213.825,80,0,6.916,15,1013.25,340.389,0.01,0.013
0.63,-4.643e-4,-0.093,-9.287,0.094,9.43,-8.188e-5,0,8.188e-5,180,0.016,1.638,22.175,120.893,9.788,90.793,0,0,0,2.799e4,1.349e4,19.961,0.106,NaN,2019.884,NaN,0.02,1.337e6,5.844,-2.639e-6,0.657,-4.337e-6,0.321,0.215,0.12,NaN,NaN,NaN,NaN,NaN,NaN,NaN,NaN,1.277e-5,165,213.825,80,0,6.815,15,1013.25,340.389,0.01,0.013
0.64,-4.645e-4,-0.093,-9.289,0.094,9.432,-8.19e-5,0,8.19e-5,180,0.016,1.638,22.175,120.893,9.788,90.805,0,0,0,2.799e4,1.349e4,19.961,0.106,NaN,2019.882,NaN,0.02,1.317e6,5.786,-2.683e-6,0.657,-4.543e-6,0.322,0.215,0.12,NaN,NaN,NaN,NaN,NaN,NaN,NaN,NaN,1.277e-5,165,213.825,80,0,6.715,15,1013.25,340.389,0.01,0.013
0.65,-4.641e-4,-0.093,-9.283,0.094,9.426,-8.184e-5,0,8.184e-5,180,0.016,1.637,22.175,120.893,9.788,90.816,0,0,0,2.799e4,1.349e4,19.961,0.106,NaN,2019.88,NaN,0.019,1.297e6,5.968,-2.722e-6,0.658,-4.75e-6,0.323,0.215,0.12,NaN,NaN,NaN,NaN,NaN,NaN,NaN,NaN,1.276e-5,165,213.825,80,0,6.614,15,1013.25,340.389,0.01,0.014
0.66,-4.631e-4,-0.093,-9.262,0.094,9.405,-8.166e-5,0,8.166e-5,180,0.016,1.633,22.175,120.893,9.788,90.81,0,0,0,2.799e4,1.349e4,19.961,0.106,NaN,2019.877,NaN,0.02,1.305e6,6.551,-2.688e-6,0.658,-4.638e-6,0.323,0.215,0.12,NaN,NaN,NaN,NaN,NaN,NaN,NaN,NaN,1.273e-5,165,213.825,80,0,6.651,15,1013.25,340.389,0.01,0.014
0.67,-4.628e-4,-0.093,-9.256,0.094,9.399,-8.161e-5,0,8.161e-5,180,0.016,1.632,22.175,120.893,9.788,90.805,0,0,0,2.799e4,1.349e4,19.961,0.106,NaN,2019.875,NaN,0.02,1.312e6,6.72,-2.666e-6,0.658,-4.55e-6,0.323,0.215,0.12,NaN,NaN,NaN,NaN,NaN,NaN,NaN,NaN,1.273e-5,165,213.825,80,0,6.688,15,1013.25,340.389,0.01,0.014
0.68,-4.618e-4,-0.092,-9.236,0.094,9.378,-8.143e-5,0,8.143e-5,180,0.016,1.629,22.175,120.893,9.788,90.799,0,0,0,2.799e4,1.349e4,19.961,0.106,NaN,2019.872,NaN,0.02,1.319e6,7.299,-2.633e-6,0.657,-4.444e-6,0.322,0.215,0.12,NaN,NaN,NaN,NaN,NaN,NaN,NaN,NaN,1.27e-5,165,213.825,80,0,6.725,15,1013.25,340.389,0.01,0.014
0.69,-4.615e-4,-0.092,-9.23,0.094,9.372,-8.137e-5,0,8.137e-5,180,0.016,1.627,22.175,120.893,9.788,90.794,0,0,0,2.799e4,1.349e4,19.961,0.106,NaN,2019.869,NaN,0.02,1.326e6,7.467,-2.612e-6,0.657,-4.361e-6,0.322,0.215,0.12,NaN,NaN,NaN,NaN,NaN,NaN,NaN,NaN,1.269e-5,165,213.825,80,0,6.762,15,1013.25,340.389,0.01,0.014
0.7,-4.606e-4,-0.092,-9.213,0.094,9.355,-8.122e-5,0,8.122e-5,180,0.016,1.624,22.175,120.893,9.788,90.788,0,0,0,2.799e4,1.349e4,19.961,0.106,NaN,2019.866,NaN,0.02,1.334e6,7.951,-2.583e-6,0.657,-4.265e-6,0.321,0.215,0.12,NaN,NaN,NaN,NaN,NaN,NaN,NaN,NaN,1.267e-5,165,213.825,80,0,6.799,15,1013.25,340.389,0.01,0.015
0.71,-4.589e-4,-0.092,-9.178,0.093,9.32,-8.092e-5,0,8.092e-5,180,0.016,1.618,22.175,120.893,9.788,90.796,0,0,0,2.799e4,1.349e4,19.96,0.106,NaN,2019.863,NaN,0.02,1.316e6,8.938,-2.59e-6,0.657,-4.391e-6,0.322,0.215,0.12,NaN,NaN,NaN,NaN,NaN,NaN,NaN,NaN,1.262e-5,165,213.825,80,0,6.71,15,1013.25,340.389,0.01,0.015
0.72,-4.583e-4,-0.092,-9.167,0.093,9.308,-8.082e-5,0,8.082e-5,180,0.016,1.616,22.175,120.893,9.788,90.805,0,0,0,2.799e4,1.349e4,19.96,0.106,NaN,2019.859,NaN,0.019,1.299e6,9.255,-2.618e-6,0.658,-4.559e-6,0.323,0.215,0.12,NaN,NaN,NaN,NaN,NaN,NaN,NaN,NaN,1.26e-5,165,213.825,80,0,6.622,15,1013.25,340.389,0.01,0.015
0.73,-4.567e-4,-0.091,-9.134,0.093,9.275,-8.053e-5,0,8.053e-5,180,0.016,1.611,22.175,120.893,9.788,90.813,0,0,0,2.799e4,1.349e4,19.96,0.106,NaN,2019.855,NaN,0.019,1.281e6,10.185,-2.629e-6,0.659,-4.702e-6,0.324,0.215,0.12,NaN,NaN,NaN,NaN,NaN,NaN,NaN,NaN,1.256e-5,165,213.825,80,0,6.533,15,1013.25,340.389,0.01,0.015
0.74,-4.548e-4,-0.091,-9.096,0.092,9.236,-8.019e-5,0,8.019e-5,180,0.016,1.604,22.175,120.893,9.788,90.821,0,0,0,2.799e4,1.349e4,19.96,0.106,NaN,2019.851,NaN,0.019,1.264e6,11.275,-2.635e-6,0.66,-4.844e-6,0.325,0.215,0.12,NaN,NaN,NaN,NaN,NaN,NaN,NaN,NaN,1.251e-5,165,213.825,80,0,6.444,15,1013.25,340.389,0.01,0.015
0.75,-4.53e-4,-0.091,-9.059,0.092,9.199,-7.987e-5,0,7.987e-5,180,0.016,1.597,22.175,120.893,9.788,90.829,0,0,0,2.799e4,1.349e4,19.96,0.106,NaN,2019.846,NaN,0.019,1.247e6,12.322,-2.643e-6,0.661,-4.995e-6,0.326,0.215,0.12,NaN,NaN,NaN,NaN,NaN,NaN,NaN,NaN,1.245e-5,165,213.825,80,0,6.355,15,1013.25,340.389,0.01,0.015
0.76,-4.506e-4,-0.09,-9.012,0.092,9.151,-7.945e-5,0,7.945e-5,180,0.016,1.589,22.175,120.893,9.788,90.831,0,0,0,2.799e4,1.349e4,19.96,0.106,NaN,2019.841,NaN,0.019,1.237e6,13.663,-2.622e-6,0.661,-5.029e-6,0.326,0.215,0.12,NaN,NaN,NaN,NaN,NaN,NaN,NaN,NaN,1.239e-5,165,213.825,80,0,6.309,15,1013.25,340.389,0.01,0.016
0.77,-4.495e-4,-0.09,-8.989,0.091,9.128,-7.925e-5,0,7.925e-5,180,0.016,1.585,22.175,120.893,9.788,90.835,0,0,0,2.799e4,1.349e4,19.96,0.106,NaN,2019.836,NaN,0.018,1.228e6,14.302,-2.624e-6,0.662,-5.106e-6,0.327,0.215,0.12,NaN,NaN,NaN,NaN,NaN,NaN,NaN,NaN,1.236e-5,165,213.825,80,0,6.263,15,1013.25,340.389,0.01,0.016
0.78,-4.469e-4,-0.089,-8.938,0.091,9.076,-7.88e-5,0,7.88e-5,180,0.016,1.576,22.175,120.893,9.788,90.836,0,0,0,2.799e4,1.349e4,19.96,0.106,NaN,2019.83,NaN,0.018,1.219e6,15.77,-2.6e-6,0.662,-5.135e-6,0.327,0.215,0.12,NaN,NaN,NaN,NaN,NaN,NaN,NaN,NaN,1.229e-5,165,213.825,80,0,6.217,15,1013.25,340.389,0.01,0.016
0.79,-4.449e-4,-0.089,-8.897,0.09,9.034,-7.844e-5,0,7.844e-5,180,0.016,1.569,22.175,120.893,9.788,90.839,0,0,0,2.799e4,1.349e4,19.96,0.106,NaN,2019.823,NaN,0.018,1.21e6,16.927,-2.585e-6,0.663,-5.183e-6,0.328,0.215,0.12,NaN,NaN,NaN,NaN,NaN,NaN,NaN,NaN,1.223e-5,165,213.825,80,0,6.171,15,1013.25,340.389,0.01,0.016
0.8,-4.428e-4,-0.089,-8.855,0.09,8.992,-7.807e-5,0,7.807e-5,180,0.016,1.561,22.175,120.893,9.788,90.841,0,0,0,2.799e4,1.349e4,19.96,0.106,NaN,2019.816,NaN,0.018,1.201e6,18.121,-2.57e-6,0.663,-5.23e-6,0.328,0.215,0.12,NaN,NaN,NaN,NaN,NaN,NaN,NaN,NaN,1.217e-5,165,213.825,80,0,6.124,15,1013.25,340.389,0.01,0.016
0.81,-4.404e-4,-0.088,-8.809,0.089,8.945,-7.766e-5,0,7.766e-5,180,0.016,1.553,22.175,120.893,9.788,90.844,0,0,0,2.799e4,1.349e4,19.96,0.106,NaN,2019.809,NaN,0.018,1.191e6,19.438,-2.553e-6,0.664,-5.281e-6,0.329,0.215,0.12,NaN,NaN,NaN,NaN,NaN,NaN,NaN,NaN,1.211e-5,165,213.825,80,0,6.074,15,1013.25,340.389,0.01,0.016
0.82,-4.392e-4,-0.088,-8.783,0.089,8.919,-7.744e-5,0,7.744e-5,180,0.015,1.549,22.175,120.893,9.788,90.848,0,0,0,2.799e4,1.349e4,19.959,0.106,NaN,2019.801,NaN,0.018,1.182e6,20.155,-2.554e-6,0.664,-5.371e-6,0.329,0.215,0.12,NaN,NaN,NaN,NaN,NaN,NaN,NaN,NaN,1.208e-5,165,213.825,80,0,6.024,15,1013.25,340.389,0.01,0.017
0.83,-4.343e-4,-0.087,-8.687,0.088,8.821,-7.659e-5,0,7.659e-5,180,0.015,1.532,22.175,120.893,9.788,90.846,0,0,0,2.799e4,1.349e4,19.959,0.106,NaN,2019.793,NaN,0.018,1.172e6,22.899,-2.493e-6,0.665,-5.332e-6,0.33,0.215,0.12,NaN,NaN,NaN,NaN,NaN,NaN,NaN,NaN,1.194e-5,165,213.825,80,0,5.974,15,1013.25,340.389,0.01,0.017
0.84,-4.256e-4,-0.085,-8.511,0.086,8.643,-7.504e-5,0,7.504e-5,180,0.015,1.501,22.175,120.893,9.788,90.836,0,0,0,2.799e4,1.349e4,19.959,0.106,NaN,2019.782,NaN,0.017,1.162e6,27.886,-2.367e-6,0.665,-5.149e-6,0.33,0.215,0.12,NaN,NaN,NaN,NaN,NaN,NaN,NaN,NaN,1.17e-5,165,213.825,80,0,5.924,15,1013.25,340.389,0.01,0.017
0.85,-4.183e-4,-0.084,-8.365,0.085,8.494,-7.375e-5,0,7.375e-5,180,0.015,1.475,22.175,120.893,9.788,90.828,0,0,0,2.799e4,1.349e4,19.959,0.106,NaN,2019.77,NaN,0.017,1.152e6,32.036,-2.268e-6,0.666,-5.019e-6,0.331,0.215,0.12,NaN,NaN,NaN,NaN,NaN,NaN,NaN,NaN,1.15e-5,165,213.825,80,0,5.874,15,1013.25,340.389,0.01,0.017
0.86,-4.106e-4,-0.082,-8.212,0.083,8.339,-7.24e-5,0,7.24e-5,180,0.014,1.448,22.175,120.893,9.788,90.82,0,0,0,2.799e4,1.349e4,19.959,0.106,NaN,2019.756,NaN,0.017,1.142e6,36.392,-2.166e-6,0.666,-4.875e-6,0.331,0.215,0.12,NaN,NaN,NaN,NaN,NaN,NaN,NaN,NaN,1.129e-5,165,213.825,80,0,5.824,15,1013.25,340.389,0.01,0.017
0.87,-4.032e-4,-0.081,-8.065,0.082,8.189,-7.11e-5,0,7.11e-5,180,0.014,1.422,22.175,120.893,9.788,90.812,0,0,0,2.799e4,1.349e4,19.958,0.106,NaN,2019.74,NaN,0.017,1.133e6,40.581,-2.071e-6,0.667,-4.742e-6,0.332,0.215,0.12,NaN,NaN,NaN,NaN,NaN,NaN,NaN,NaN,1.109e-5,165,213.825,80,0,5.775,15,1013.25,340.389,0.01,0.018
0.88,-3.96e-4,-0.079,-7.92,0.08,8.042,-6.983e-5,0,6.983e-5,180,0.014,1.397,22.175,120.893,9.788,90.805,0,0,0,2.799e4,1.349e4,19.958,0.106,NaN,2019.723,NaN,0.017,1.123e6,44.682,-1.981e-6,0.668,-4.614e-6,0.332,0.215,0.12,NaN,NaN,NaN,NaN,NaN,NaN,NaN,NaN,1.089e-5,165,213.825,80,0,5.725,15,1013.25,340.389,0.01,0.018
0.89,-3.897e-4,-0.078,-7.793,0.079,7.913,-6.871e-5,0,6.871e-5,180,0.014,1.374,22.175,120.893,9.788,90.799,0,0,0,2.799e4,1.349e4,19.958,0.106,NaN,2019.705,NaN,0.017,1.113e6,48.294,-1.905e-6,0.668,-4.516e-6,0.333,0.215,0.12,NaN,NaN,NaN,NaN,NaN,NaN,NaN,NaN,1.071e-5,165,213.825,80,0,5.675,15,1013.25,340.389,0.01,0.018
0.9,-3.836e-4,-0.077,-7.671,0.078,7.79,-6.763e-5,0,6.763e-5,180,0.014,1.353,22.175,120.893,9.788,90.793,0,0,0,2.799e4,1.349e4,19.957,0.106,NaN,2019.685,NaN,0.017,1.103e6,51.752,-1.835e-6,0.669,-4.427e-6,0.334,0.215,0.12,NaN,NaN,NaN,NaN,NaN,NaN,NaN,NaN,1.055e-5,165,213.825,80,0,5.625,15,1013.25,340.389,0.01,0.018
0.91,-3.755e-4,-0.075,-7.511,0.076,7.626,-6.622e-5,0,6.622e-5,180,0.013,1.324,22.175,120.893,9.788,90.771,0,0,0,2.798e4,1.348e4,19.957,0.106,NaN,2019.664,NaN,0.017,1.111e6,56.319,-1.71e-6,0.668,-4.068e-6,0.333,0.215,0.12,NaN,NaN,NaN,NaN,NaN,NaN,NaN,NaN,1.033e-5,165,213.825,80,0,5.664,15,1013.25,340.389,0.01,0.018
0.92,-3.677e-4,-0.074,-7.355,0.075,7.468,-6.484e-5,0,6.484e-5,180,0.013,1.297,22.175,120.893,9.788,90.75,0,0,0,2.798e4,1.348e4,19.957,0.106,NaN,2019.641,NaN,0.017,1.119e6,60.748,-1.594e-6,0.668,-3.74e-6,0.333,0.215,0.12,NaN,NaN,NaN,NaN,NaN,NaN,NaN,NaN,1.011e-5,165,213.825,80,0,5.704,15,1013.25,340.389,0.01,0.019
0.93,-3.56e-4,-0.071,-7.121,0.072,7.231,-6.278e-5,0,6.278e-5,180,0.013,1.256,22.175,120.893,9.788,90.721,0,0,0,2.798e4,1.348e4,19.956,0.106,NaN,2019.615,NaN,0.017,1.126e6,67.387,-1.436e-6,0.667,-3.324e-6,0.332,0.215,0.12,NaN,NaN,NaN,NaN,NaN,NaN,NaN,NaN,9.79e-6,165,213.825,80,0,5.743,15,1013.25,340.389,0.01,0.019
0.94,-3.418e-4,-0.068,-6.837,0.069,6.942,-6.028e-5,0,6.028e-5,180,0.012,1.206,22.175,120.893,9.788,90.688,0,0,0,2.798e4,1.348e4,19.956,0.106,NaN,2019.586,NaN,0.017,1.134e6,75.455,-1.262e-6,0.667,-2.882e-6,0.332,0.215,0.12,NaN,NaN,NaN,NaN,NaN,NaN,NaN,NaN,9.4e-6,165,213.825,80,0,5.782,15,1013.25,340.389,0.01,0.019
0.95,-3.257e-4,-0.065,-6.515,0.066,6.615,-5.744e-5,0,5.744e-5,180,0.011,1.149,22.175,120.893,9.788,90.651,0,0,0,2.798e4,1.348e4,19.955,0.106,NaN,2019.554,NaN,0.017,1.142e6,84.603,-1.084e-6,0.667,-2.443e-6,0.331,0.215,0.12,NaN,NaN,NaN,NaN,NaN,NaN,NaN,NaN,8.957e-6,165,213.825,80,0,5.821,15,1013.25,340.389,0.01,0.019
0.96,-3.058e-4,-0.061,-6.116,0.062,6.21,-5.392e-5,0,5.392e-5,180,0.011,1.078,22.175,120.893,9.788,90.606,0,0,0,2.798e4,1.348e4,19.954,0.106,NaN,2019.517,NaN,0.017,1.152e6,95.934,-8.884e-7,0.666,-1.966e-6,0.331,0.215,0.12,NaN,NaN,NaN,NaN,NaN,NaN,NaN,NaN,8.408e-6,165,213.825,80,0,5.874,15,1013.25,340.389,0.01,0.019
0.97,-2.857e-4,-0.057,-5.714,0.058,5.803,-5.038e-5,0,5.038e-5,180,0.01,1.008,22.175,120.893,9.788,90.561,0,0,0,2.798e4,1.348e4,19.954,0.106,NaN,2019.476,NaN,0.017,1.163e6,107.326,-7.18e-7,0.665,-1.56e-6,0.33,0.215,0.12,NaN,NaN,NaN,NaN,NaN,NaN,NaN,NaN,7.856e-6,165,213.825,80,0,5.927,15,1013.25,340.389,0.01,0.019
0.98,-2.598e-4,-0.052,-5.196,0.053,5.276,-4.581e-5,0,4.581e-5,180,0.009,0.916,22.175,120.893,9.788,90.505,0,0,0,2.797e4,1.347e4,19.953,0.106,NaN,2019.43,NaN,0.018,1.173e6,122.033,-5.349e-7,0.665,-1.142e-6,0.33,0.215,0.12,NaN,NaN,NaN,NaN,NaN,NaN,NaN,NaN,7.144e-6,165,213.825,80,0,5.981,15,1013.25,340.389,0.01,0.02
0.99,-2.264e-4,-0.045,-4.527,0.046,4.597,-3.992e-5,0,3.992e-5,180,0.008,0.798,22.175,120.893,9.788,90.437,0,0,0,2.797e4,1.347e4,19.952,0.106,NaN,2019.376,NaN,0.018,1.183e6,141.022,-3.506e-7,0.664,-7.353e-7,0.329,0.215,0.12,NaN,NaN,NaN,NaN,NaN,NaN,NaN,NaN,6.225e-6,165,213.825,80,0,6.034,15,1013.25,340.389,0.01,0.02
1,-1.775e-4,-0.035,-3.549,0.036,3.604,-3.129e-5,0,3.129e-5,180,0.006,0.626,22.175,120.893,9.788,90.339,0,0,0,2.797e4,1.347e4,19.951,0.106,NaN,2019.312,NaN,0.018,1.194e6,168.795,-1.674e-7,0.664,-3.45e-7,0.328,0.215,0.12,NaN,NaN,NaN,NaN,NaN,NaN,NaN,NaN,4.88e-6,165,213.825,80,0,6.087,15,1013.25,340.389,0.01,0.02
1.01,-1.08e-4,-0.022,-2.16,0.022,2.193,-1.905e-5,0,1.905e-5,180,0.004,0.381,22.175,120.893,9.788,90.205,0,0,0,2.796e4,1.346e4,19.949,0.106,NaN,2019.232,NaN,0.018,1.2e6,208.221,-3.76e-8,0.663,-7.674e-8,0.328,0.215,0.12,NaN,NaN,NaN,NaN,NaN,NaN,NaN,NaN,2.97e-6,165,213.825,80,0,6.117,15,1013.25,340.389,0.01,0.02
1.02,-4.34e-5,-0.009,-0.867,0.009,0.88,-7.652e-6,0,7.652e-6,180,0.002,0.153,22.175,120.893,9.788,90.082,0,0,0,2.796e4,1.346e4,19.948,0.106,NaN,2019.139,NaN,0.018,1.205e6,244.886,0,0.663,0,0.328,0.215,0.12,NaN,NaN,NaN,NaN,NaN,NaN,NaN,NaN,1.193e-6,165,213.825,80,0,6.146,15,1013.25,340.389,0.01,0.02
1.03,2.651e-5,0.005,0.532,0.005,0.54,4.675e-6,0,4.675e-6,0,9.356e-4,0.094,22.175,120.893,9.788,89.95,0,0,0,2.795e4,1.345e4,19.946,0.106,NaN,2019.03,NaN,0.018,1.211e6,284.538,0,0.663,0,0.328,0.215,0.12,NaN,NaN,NaN,NaN,NaN,NaN,NaN,NaN,7.294e-7,165,213.825,80,0,6.176,15,1013.25,340.389,0.01,0.021
1.04,1.812e-4,0.026,2.035,0.026,2.066,3.196e-5,0,3.196e-5,0,0.005,0.359,22.175,120.893,9.788,89.76,0,0,0,2.795e4,1.345e4,19.943,0.106,NaN,2018.905,NaN,0.018,1.217e6,327.142,6.19e-8,0.662,1.227e-7,0.327,0.215,0.12,NaN,NaN,NaN,NaN,NaN,NaN,NaN,NaN,3.525e-6,165,213.825,80,0,6.205,15,1013.25,340.389,0.01,0.021
1.05,6.197e-4,0.062,3.643,0.063,3.699,1.093e-4,0,1.093e-4,0,0.011,0.642,22.175,120.893,9.788,89.421,0,0,0,2.794e4,1.344e4,19.941,0.106,NaN,2018.763,NaN,0.018,1.223e6,372.693,8.698e-7,0.662,1.708e-6,0.327,0.215,0.12,NaN,NaN,NaN,NaN,NaN,NaN,NaN,NaN,8.532e-6,165,213.825,80,0,6.235,15,1013.25,340.389,0.01,0.021
1.06,0.002,0.118,5.603,0.12,5.689,2.681e-4,0,2.681e-4,0,0.021,0.988,22.175,120.893,9.788,88.9,0,0,0,2.793e4,1.343e4,19.938,0.106,NaN,2018.599,NaN,0.018,1.225e6,428.171,5.948e-6,0.662,1.165e-5,0.327,0.215,0.12,NaN,NaN,NaN,NaN,NaN,NaN,NaN,NaN,1.623e-5,165,213.825,80,0,6.243,15,1013.25,340.389,0.01,0.021
1.07,0.003,0.193,7.537,0.196,7.653,5.427e-4,0,5.427e-4,0,0.034,1.329,22.175,120.893,9.788,88.201,0,0,0,2.792e4,1.342e4,19.935,0.106,NaN,2018.415,NaN,0.018,1.227e6,482.882,2.592e-5,0.662,5.06e-5,0.327,0.215,0.12,NaN,NaN,NaN,NaN,NaN,NaN,NaN,NaN,2.659e-5,165,213.825,80,0,6.251,15,1013.25,340.389,0.01,0.021
1.08,0.005,0.291,9.756,0.295,9.907,9.697e-4,0,9.697e-4,0,0.051,1.72,22.175,120.893,9.788,87.298,0,0,0,2.791e4,1.341e4,19.931,0.106,NaN,2018.206,NaN,0.018,1.229e6,545.617,8.727e-5,0.662,1.697e-4,0.327,0.215,0.12,NaN,NaN,NaN,NaN,NaN,NaN,NaN,NaN,4e-5,165,213.825,80,0,6.259,15,1013.249,340.389,0.01,0.028
1.09,0.009,0.414,12.278,0.42,12.468,0.002,0,0.002,0,0.073,2.165,22.175,120.893,9.788,86.166,0,0,0,2.79e4,1.34e4,19.927,0.106,NaN,2017.969,NaN,0.018,1.232e6,616.859,2.475e-4,0.662,4.789e-4,0.326,0.215,0.12,NaN,NaN,NaN,NaN,NaN,NaN,NaN,NaN,5.687e-5,165,213.825,80,0,6.268,15,1013.249,340.389,0.01,0.029
1.1,0.014,0.565,15.164,0.574,15.398,0.002,0,0.002,0,0.1,2.674,22.175,120.893,9.788,84.774,0,0,0,2.789e4,1.339e4,19.922,0.106,NaN,2017.702,NaN,0.019,1.236e6,698.307,6.21e-4,0.661,0.001,0.326,0.215,0.12,NaN,NaN,NaN,NaN,NaN,NaN,NaN,NaN,7.771e-5,165,213.825,80,0,6.276,15,1013.248,340.389,0.01,0.029
1.11,0.02,0.747,18.205,0.759,18.485,0.004,0,0.004,0,0.132,3.21,22.175,120.893,9.788,83.049,0,0,0,2.788e4,1.338e4,19.917,0.106,NaN,2017.401,NaN,0.018,1.23e6,784.022,0.001,0.662,0.003,0.327,0.215,0.12,NaN,NaN,NaN,NaN,NaN,NaN,NaN,NaN,1.027e-4,165,213.825,80,0,6.223,15,1013.248,340.389,0.01,0.029
1.12,0.029,0.96,21.325,0.975,21.654,0.005,0,0.005,0,0.169,3.76,22.175,120.893,9.788,81.019,0,0,0,2.786e4,1.336e4,19.911,0.106,NaN,2017.066,NaN,0.018,1.225e6,871.849,0.003,0.662,0.006,0.327,0.215,0.12,NaN,NaN,NaN,NaN,NaN,NaN,NaN,NaN,1.32e-4,165,213.825,80,0,6.171,15,1013.247,340.389,0.01,0.029
1.13,0.04,1.205,24.499,1.224,24.877,0.007,0,0.007,0,0.213,4.32,22.175,120.893,9.788,78.688,0,0,0,2.784e4,1.334e4,19.904,0.106,NaN,2016.696,NaN,0.018,1.224e6,961.049,0.006,0.662,0.011,0.327,0.215,0.12,NaN,NaN,NaN,NaN,NaN,NaN,NaN,NaN,1.657e-4,165,213.825,80,0,6.118,15,1013.245,340.389,0.01,0.029
1.14,0.053,1.479,27.39,1.502,27.812,0.009,0,0.009,0,0.261,4.83,22.175,120.893,9.788,76.093,0,0,0,2.782e4,1.332e4,19.897,0.106,NaN,2016.295,NaN,0.018,1.225e6,1042.073,0.01,0.662,0.02,0.327,0.215,0.12,NaN,NaN,NaN,NaN,NaN,NaN,NaN,NaN,2.033e-4,165,213.825,80,0,6.066,15,1013.244,340.389,0.01,0.03
1.15,0.07,1.778,29.894,1.805,30.355,0.012,0,0.012,0,0.313,5.271,22.175,120.893,9.788,73.289,0,0,0,2.78e4,1.33e4,19.889,0.106,NaN,2015.866,NaN,0.018,1.231e6,1112.029,0.018,0.662,0.034,0.326,0.215,0.12,NaN,NaN,NaN,NaN,NaN,NaN,NaN,NaN,2.444e-4,165,213.825,80,0,6.013,15,1013.242,340.389,0.01,0.03
1.16,0.089,2.098,32.069,2.131,32.564,0.016,0,0.016,0,0.37,5.655,22.175,120.893,9.788,70.554,0,0,0,2.778e4,1.328e4,19.881,0.106,NaN,2015.413,NaN,0.019,1.255e6,1172.553,0.028,0.66,0.052,0.325,0.215,0.12,NaN,NaN,NaN,NaN,NaN,NaN,NaN,NaN,2.885e-4,165,213.825,80,0,6.035,14.999,1013.24,340.389,0.01,0.03
1.17,0.112,2.436,33.792,2.474,34.313,0.02,0,0.02,0,0.43,5.958,22.175,120.893,9.788,67.786,0,0,0,2.776e4,1.326e4,19.873,0.105,NaN,2014.941,NaN,0.019,1.283e6,1220.187,0.042,0.659,0.075,0.324,0.215,0.12,NaN,NaN,NaN,NaN,NaN,NaN,NaN,NaN,3.349e-4,165,213.825,80,0,6.057,14.999,1013.237,340.388,0.01,0.03
1.18,0.138,2.786,35.056,2.829,35.597,0.024,0,0.024,0,0.491,6.181,22.175,120.893,9.788,65.042,0,0,0,2.774e4,1.324e4,19.864,0.105,NaN,2014.455,NaN,0.02,1.315e6,1254.818,0.06,0.658,0.102,0.322,0.215,0.12,NaN,NaN,NaN,NaN,NaN,NaN,NaN,NaN,3.831e-4,165,213.825,80,0,6.08,14.999,1013.234,340.388,0.01,0.03
1.19,0.167,3.145,35.85,3.193,36.403,0.03,0,0.03,0,0.555,6.321,22.175,120.893,9.788,62.375,0,0,0,2.771e4,1.321e4,19.855,0.105,NaN,2013.959,NaN,0.02,1.351e6,1276.135,0.082,0.656,0.132,0.321,0.215,0.12,NaN,NaN,NaN,NaN,NaN,NaN,NaN,NaN,4.324e-4,165,213.825,80,0,6.102,14.999,1013.23,340.388,0.01,0.031
1.2,0.201,3.509,36.398,3.563,36.959,0.035,0,0.035,0,0.619,6.418,22.175,120.893,9.788,59.81,0,0,0,2.769e4,1.319e4,19.846,0.105,NaN,2013.458,NaN,0.021,1.389e6,1290.479,0.109,0.654,0.166,0.319,0.215,0.12,NaN,NaN,NaN,NaN,NaN,NaN,NaN,NaN,4.824e-4,165,213.825,80,0,6.124,14.999,1013.226,340.388,0.01,0.031
1.21,0.238,3.875,36.701,3.935,37.267,0.042,0,0.042,0,0.683,6.471,22.175,120.893,9.788,57.086,0,0,0,2.767e4,1.317e4,19.837,0.105,NaN,2012.952,NaN,0.021,1.42e6,1297.933,0.141,0.653,0.206,0.318,0.215,0.12,NaN,NaN,NaN,NaN,NaN,NaN,NaN,NaN,5.328e-4,165,213.825,80,0,6.08,14.998,1013.222,340.388,0.01,0.031
1.22,0.278,4.243,36.76,4.308,37.327,0.049,0,0.049,0,0.748,6.482,22.175,120.893,9.788,54.478,0,0,0,2.764e4,1.314e4,19.828,0.105,NaN,2012.446,NaN,0.022,1.454e6,1298.512,0.178,0.651,0.248,0.316,0.215,0.12,NaN,NaN,NaN,NaN,NaN,NaN,NaN,NaN,5.833e-4,165,213.825,80,0,6.035,14.998,1013.217,340.388,0.01,0.031
1.23,0.322,4.611,36.802,4.682,37.37,0.057,0,0.057,0,0.813,6.489,22.175,120.893,9.788,51.992,0,0,0,2.762e4,1.312e4,19.819,0.105,NaN,2011.938,NaN,0.022,1.491e6,1298.633,0.22,0.65,0.291,0.315,0.215,0.12,NaN,NaN,NaN,NaN,NaN,NaN,NaN,NaN,6.339e-4,165,213.825,80,0,5.991,14.998,1013.212,340.388,0.01,0.031
1.24,0.37,4.978,36.709,5.054,37.275,0.065,0,0.065,0,0.878,6.473,22.175,120.893,9.788,49.636,0,0,0,2.76e4,1.31e4,19.81,0.105,NaN,2011.431,NaN,0.023,1.53e6,1294.965,0.266,0.648,0.334,0.313,0.215,0.12,NaN,NaN,NaN,NaN,NaN,NaN,NaN,NaN,6.843e-4,165,213.825,80,0,5.946,14.998,1013.207,340.387,0.01,0.031
1.25,0.422,5.344,36.624,5.426,37.189,0.074,0,0.074,0,0.942,6.458,22.175,120.893,9.788,47.406,0,0,0,2.757e4,1.307e4,19.801,0.105,NaN,2010.925,NaN,0.024,1.572e6,1291.53,0.316,0.647,0.376,0.312,0.215,0.12,NaN,NaN,NaN,NaN,NaN,NaN,NaN,NaN,7.346e-4,165,213.825,80,0,5.902,14.997,1013.201,340.387,0.01,0.032
1.26,0.477,5.709,36.537,5.797,37.101,0.084,0,0.084,0,1.007,6.442,22.175,120.893,9.788,45.611,0,0,0,2.755e4,1.305e4,19.792,0.105,NaN,2010.419,NaN,0.024,1.625e6,1288.052,0.369,0.645,0.41,0.31,0.215,0.12,NaN,NaN,NaN,NaN,NaN,NaN,NaN,NaN,7.849e-4,165,213.825,80,0,5.922,14.997,1013.194,340.387,0.01,0.032
1.27,0.536,6.073,36.426,6.167,36.988,0.095,0,0.095,0,1.071,6.423,22.175,120.893,9.788,43.937,0,0,0,2.753e4,1.303e4,19.783,0.105,NaN,2009.914,NaN,0.025,1.679e6,1283.912,0.425,0.643,0.442,0.308,0.215,0.12,NaN,NaN,NaN,NaN,NaN,NaN,NaN,NaN,8.349e-4,165,213.825,80,0,5.942,14.997,1013.187,340.387,0.01,0.032
1.28,0.599,6.437,36.393,6.536,36.954,0.106,0,0.106,0,1.135,6.417,22.175,120.893,9.788,42.369,0,0,0,2.75e4,1.3e4,19.774,0.105,NaN,2009.409,NaN,0.026,1.735e6,1281.967,0.485,0.641,0.473,0.306,0.215,0.12,NaN,NaN,NaN,NaN,NaN,NaN,NaN,NaN,8.849e-4,165,213.825,80,0,5.962,14.996,1013.18,340.387,0.01,0.032
1.29,0.665,6.8,36.311,6.904,36.871,0.117,0,0.117,0,1.199,6.403,22.175,120.893,9.788,40.904,0,0,0,2.748e4,1.298e4,19.765,0.105,NaN,2008.904,NaN,0.027,1.791e6,1278.651,0.548,0.639,0.501,0.304,0.215,0.12,NaN,NaN,NaN,NaN,NaN,NaN,NaN,NaN,9.348e-4,165,213.825,80,0,5.982,14.996,1013.172,340.386,0.01,0.033
1.3,0.735,7.162,36.269,7.273,36.829,0.13,0,0.13,0,1.263,6.395,22.175,120.893,9.788,39.53,0,0,0,2.746e4,1.296e4,19.756,0.105,NaN,2008.399,NaN,0.028,1.849e6,1276.485,0.614,0.637,0.527,0.302,0.215,0.12,NaN,NaN,NaN,NaN,NaN,NaN,NaN,NaN,9.847e-4,165,213.825,80,0,6.002,14.995,1013.164,340.386,0.01,0.033
1.31,0.808,7.525,36.264,7.641,36.823,0.142,0,0.142,0,1.327,6.394,22.175,120.893,9.788,38.112,0,0,0,2.743e4,1.293e4,19.747,0.105,NaN,2007.894,NaN,0.029,1.904e6,1275.318,0.685,0.636,0.554,0.3,0.215,0.12,NaN,NaN,NaN,NaN,NaN,NaN,NaN,NaN,0.001,165,213.825,80,0,5.994,14.995,1013.155,340.386,0.01,0.033
1.32,0.885,7.887,36.235,8.008,36.794,0.156,0,0.156,0,1.391,6.389,22.175,120.893,9.788,36.776,0,0,0,2.741e4,1.291e4,19.738,0.105,NaN,2007.388,NaN,0.029,1.961e6,1273.528,0.758,0.634,0.579,0.299,0.215,0.12,NaN,NaN,NaN,NaN,NaN,NaN,NaN,NaN,0.001,165,213.825,80,0,5.986,14.994,1013.146,340.385,0.01,0.033
1.33,0.966,8.249,36.284,8.377,36.844,0.17,0,0.17,0,1.455,6.398,22.175,120.893,9.788,35.513,0,0,0,2.739e4,1.289e4,19.729,0.105,NaN,2006.882,NaN,0.03,2.018e6,1273.891,0.835,0.633,0.602,0.297,0.215,0.12,NaN,NaN,NaN,NaN,NaN,NaN,NaN,NaN,0.001,165,213.825,80,0,5.978,14.994,1013.137,340.385,0.01,0.033
1.34,1.05,8.612,36.261,8.745,36.82,0.185,0,0.185,0,1.518,6.394,22.175,120.893,9.788,34.321,0,0,0,2.736e4,1.286e4,19.72,0.105,NaN,2006.376,NaN,0.031,2.076e6,1272.247,0.915,0.631,0.623,0.296,0.215,0.12,NaN,NaN,NaN,NaN,NaN,NaN,NaN,NaN,0.001,165,213.825,80,0,5.97,14.993,1013.127,340.385,0.01,0.034
1.35,1.138,8.974,36.27,9.113,36.83,0.201,0,0.201,0,1.582,6.395,22.175,120.893,9.788,33.195,0,0,0,2.734e4,1.284e4,19.711,0.105,NaN,2005.868,NaN,0.032,2.135e6,1271.517,0.997,0.629,0.642,0.294,0.215,0.12,NaN,NaN,NaN,NaN,NaN,NaN,NaN,NaN,0.001,165,213.825,80,0,5.962,14.993,1013.117,340.384,0.01,0.034
1.36,1.23,9.337,36.307,9.481,36.867,0.217,0,0.217,0,1.646,6.402,22.175,120.893,9.788,32.128,0,0,0,2.732e4,1.282e4,19.702,0.105,NaN,2005.361,NaN,0.033,2.195e6,1271.539,1.083,0.628,0.66,0.293,0.215,0.12,NaN,NaN,NaN,NaN,NaN,NaN,NaN,NaN,0.001,165,213.825,80,0,5.954,14.992,1013.106,340.384,0.01,0.034
1.37,1.325,9.7,36.322,9.85,36.883,0.234,0,0.234,0,1.71,6.405,22.175,120.893,9.788,31.118,0,0,0,2.729e4,1.279e4,19.693,0.105,NaN,2004.852,NaN,0.034,2.256e6,1270.983,1.171,0.627,0.675,0.291,0.215,0.12,NaN,NaN,NaN,NaN,NaN,NaN,NaN,NaN,0.001,165,213.825,80,0,5.946,14.991,1013.095,340.384,0.01,0.034
1.38,1.424,10.064,36.437,10.22,36.999,0.251,0,0.251,0,1.775,6.425,22.175,120.893,9.788,30.158,0,0,0,2.727e4,1.277e4,19.684,0.105,NaN,2004.342,NaN,0.035,2.318e6,1273.167,1.262,0.625,0.69,0.29,0.215,0.12,NaN,NaN,NaN,NaN,NaN,NaN,NaN,NaN,0.001,165,213.825,80,0,5.938,14.991,1013.083,340.383,0.01,0.034
1.39,1.526,10.429,36.476,10.59,37.039,0.269,0,0.269,0,1.839,6.432,22.175,120.893,9.788,29.247,0,0,0,2.725e4,1.275e4,19.675,0.105,NaN,2003.83,NaN,0.036,2.38e6,1273.278,1.355,0.624,0.703,0.288,0.215,0.12,NaN,NaN,NaN,NaN,NaN,NaN,NaN,NaN,0.001,165,213.825,80,0,5.93,14.99,1013.071,340.383,0.01,0.035
1.4,1.632,10.794,36.562,10.961,37.126,0.288,0,0.288,0,1.903,6.447,22.175,120.893,9.788,28.381,0,0,0,2.723e4,1.273e4,19.666,0.105,NaN,2003.318,NaN,0.037,2.443e6,1274.663,1.454,0.623,0.715,0.288,0.215,0.12,NaN,NaN,NaN,NaN,NaN,NaN,NaN,NaN,0.001,165,213.825,80,0,5.922,14.989,1013.059,340.382,0.01,0.035
1.41,1.742,11.161,36.667,11.333,37.233,0.307,0,0.307,0,1.968,6.465,22.175,120.893,9.788,27.949,0,0,0,2.72e4,1.27e4,19.657,0.105,NaN,2002.803,NaN,0.038,2.516e6,1276.588,1.555,0.623,0.722,0.288,0.215,0.12,NaN,NaN,NaN,NaN,NaN,NaN,NaN,NaN,0.002,165,213.825,80,0,6.013,14.989,1013.046,340.382,0.01,0.035
1.42,1.855,11.528,36.734,11.706,37.301,0.327,0,0.327,0,2.033,6.477,22.175,120.893,9.788,27.539,0,0,0,2.718e4,1.268e4,19.648,0.105,NaN,2002.288,NaN,0.039,2.589e6,1277.444,1.66,0.623,0.727,0.288,0.215,0.12,NaN,NaN,NaN,NaN,NaN,NaN,NaN,NaN,0.002,165,213.825,80,0,6.104,14.988,1013.032,340.382,0.01,0.035
1.43,1.973,11.897,36.867,12.08,37.436,0.348,0,0.348,0,2.098,6.501,22.175,120.893,9.788,27.149,0,0,0,2.716e4,1.266e4,19.639,0.105,NaN,2001.77,NaN,0.04,2.662e6,1280.14,1.769,0.623,0.733,0.288,0.215,0.12,NaN,NaN,NaN,NaN,NaN,NaN,NaN,NaN,0.002,165,213.825,80,0,6.195,14.987,1013.019,340.381,0.01,0.035
1.44,2.093,12.266,36.923,12.455,37.492,0.369,0,0.369,0,2.163,6.51,22.175,120.893,9.788,26.779,0,0,0,2.713e4,1.263e4,19.629,0.105,NaN,2001.252,NaN,0.041,2.736e6,1280.681,1.88,0.623,0.738,0.288,0.215,0.12,NaN,NaN,NaN,NaN,NaN,NaN,NaN,NaN,0.002,165,213.825,80,0,6.286,14.986,1013.004,340.381,0.01,0.035
1.45,2.218,12.636,37.03,12.831,37.601,0.391,0,0.391,0,2.228,6.529,22.175,120.893,9.788,26.427,0,0,0,2.711e4,1.261e4,19.62,0.105,NaN,2000.731,NaN,0.042,2.809e6,1282.653,1.996,0.623,0.743,0.288,0.215,0.12,NaN,NaN,NaN,NaN,NaN,NaN,NaN,NaN,0.002,165,213.825,80,0,6.377,14.986,1012.99,340.38,0.01,0.036
1.46,2.346,13.007,37.146,13.208,37.719,0.414,0,0.414,0,2.293,6.55,22.175,120.893,9.788,25.869,0,0,0,2.709e4,1.259e4,19.611,0.104,NaN,2000.209,NaN,0.043,2.878e6,1284.861,2.115,0.623,0.75,0.288,0.215,0.12,NaN,NaN,NaN,NaN,NaN,NaN,NaN,NaN,0.002,165,213.825,80,0,6.404,14.985,1012.975,340.38,0.01,0.036
1.47,2.478,13.379,37.198,13.585,37.771,0.437,0,0.437,0,2.359,6.559,22.175,120.893,9.788,25.336,0,0,0,2.706e4,1.256e4,19.602,0.104,NaN,1999.686,NaN,0.044,2.947e6,1285.292,2.237,0.623,0.756,0.288,0.215,0.12,NaN,NaN,NaN,NaN,NaN,NaN,NaN,NaN,0.002,165,213.825,80,0,6.432,14.984,1012.959,340.379,0.01,0.036
1.48,2.614,13.752,37.317,13.964,37.893,0.461,0,0.461,0,2.425,6.58,22.175,120.893,9.788,24.826,0,0,0,2.704e4,1.254e4,19.592,0.104,NaN,1999.161,NaN,0.045,3.017e6,1287.587,2.362,0.623,0.762,0.288,0.215,0.12,NaN,NaN,NaN,NaN,NaN,NaN,NaN,NaN,0.002,165,213.825,80,0,6.46,14.983,1012.943,340.379,0.01,0.036
1.49,2.753,14.125,37.362,14.343,37.938,0.485,0,0.485,0,2.491,6.588,22.175,120.893,9.788,24.338,0,0,0,2.702e4,1.252e4,19.583,0.104,NaN,1998.635,NaN,0.046,3.087e6,1287.832,2.491,0.623,0.768,0.288,0.215,0.12,NaN,NaN,NaN,NaN,NaN,NaN,NaN,NaN,0.002,165,213.825,80,0,6.488,14.982,1012.927,340.378,0.01,0.036
1.5,2.896,14.499,37.431,14.723,38.008,0.511,0,0.511,0,2.557,6.6,22.175,120.893,9.788,23.871,0,0,0,2.699e4,1.249e4,19.574,0.104,NaN,1998.108,NaN,0.047,3.157e6,1288.735,2.622,0.623,0.773,0.288,0.215,0.12,NaN,NaN,NaN,NaN,NaN,NaN,NaN,NaN,0.002,165,213.825,80,0,6.516,14.981,1012.91,340.377,0.01,0.037
1.51,3.043,14.874,37.511,15.104,38.09,0.537,0,0.537,0,2.623,6.614,22.175,120.893,9.788,23.325,0,0,0,2.697e4,1.247e4,19.564,0.104,NaN,1997.579,NaN,0.048,3.225e6,1289.948,2.756,0.623,0.778,0.288,0.215,0.12,NaN,NaN,NaN,NaN,NaN,NaN,NaN,NaN,0.002,165,213.825,80,0,6.513,14.98,1012.893,340.377,0.01,0.037
1.52,3.194,15.249,37.526,15.485,38.105,0.563,0,0.563,0,2.689,6.617,22.175,120.893,9.788,22.801,0,0,0,2.695e4,1.244e4,19.555,0.104,NaN,1997.049,NaN,0.049,3.293e6,1289.376,2.892,0.623,0.783,0.288,0.215,0.12,NaN,NaN,NaN,NaN,NaN,NaN,NaN,NaN,0.002,165,213.825,80,0,6.509,14.979,1012.875,340.376,0.01,0.037
1.53,3.348,15.626,37.664,15.867,38.245,0.59,0,0.59,0,2.755,6.641,22.175,120.893,9.788,22.297,0,0,0,2.692e4,1.242e4,19.546,0.104,NaN,1996.518,NaN,0.05,3.362e6,1292.164,3.031,0.623,0.787,0.288,0.215,0.12,NaN,NaN,NaN,NaN,NaN,NaN,NaN,NaN,0.002,165,213.825,80,0,6.506,14.978,1012.857,340.376,0.01,0.037
1.54,3.506,16.003,37.732,16.25,38.314,0.618,0,0.618,0,2.822,6.653,22.175,120.893,9.788,21.812,0,0,0,2.69e4,1.24e4,19.536,0.104,NaN,1995.985,NaN,0.051,3.432e6,1293.051,3.173,0.623,0.791,0.288,0.215,0.12,NaN,NaN,NaN,NaN,NaN,NaN,NaN,NaN,0.002,165,213.825,80,0,6.503,14.977,1012.839,340.375,0.01,0.037
1.55,3.668,16.381,37.836,16.634,38.419,0.647,0,0.647,0,2.888,6.671,22.175,120.893,9.788,21.345,0,0,0,2.687e4,1.237e4,19.527,0.104,NaN,1995.451,NaN,0.052,3.501e6,1294.89,3.318,0.623,0.795,0.288,0.215,0.12,NaN,NaN,NaN,NaN,NaN,NaN,NaN,NaN,0.002,165,213.825,80,0,6.5,14.976,1012.82,340.374,0.01,0.037
1.56,3.834,16.761,37.958,17.019,38.544,0.676,0,0.676,0,2.955,6.693,22.175,120.893,9.788,20.914,0,0,0,2.685e4,1.235e4,19.517,0.104,NaN,1994.914,NaN,0.054,3.572e6,1297.251,3.466,0.624,0.798,0.288,0.215,0.12,NaN,NaN,NaN,NaN,NaN,NaN,NaN,NaN,0.002,165,213.825,80,0,6.504,14.975,1012.8,340.374,0.01,0.038
1.57,4.003,17.14,37.977,17.405,38.563,0.706,0,0.706,0,3.022,6.696,22.175,120.893,9.788,20.499,0,0,0,2.683e4,1.233e4,19.508,0.104,NaN,1994.377,NaN,0.055,3.643e6,1296.778,3.617,0.624,0.8,0.288,0.215,0.12,NaN,NaN,NaN,NaN,NaN,NaN,NaN,NaN,0.002,165,213.825,80,0,6.507,14.974,1012.78,340.373,0.01,0.038
1.585,4.265,17.707,37.807,17.985,38.742,0.752,1.242e-4,0.752,0.009,3.148,8.46,22.175,120.893,9.788,19.858,0,-0.034,-7.545e-5,2.679e4,1.229e4,19.493,0.104,1974.017,1993.568,-0.118,0.056,3.749e6,1298.654,3.846,0.624,0.804,0.288,0.215,0.12,6.281,-0.744,2.832e-4,0,0,0,0,-3.539e-6,0.002,165,213.825,80,0.002,6.512,14.972,1012.75,340.372,0.015,0.038
1.608,4.673,18.561,38.005,18.859,38.943,0.825,7.849e-4,0.825,0.055,3.337,8.492,22.175,120.893,9.788,18.998,0,-0.065,-3.727e-4,2.674e4,1.224e4,19.472,0.104,1981.054,1992.348,-0.068,0.059,3.91e6,1301.804,4.204,0.624,0.807,0.288,0.215,0.12,5.909,-0.404,1.829e-4,0,0,0,0,-1.207e-5,0.003,165,213.825,80,0.008,6.534,14.97,1012.702,340.37,0.023,0.038
1.641,5.321,19.853,38.337,20.18,39.278,0.943,0.003,0.943,0.175,3.623,8.547,22.175,120.893,9.788,17.938,0,-0.083,-0.001,2.666e4,1.216e4,19.439,0.104,1990.202,1990.501,-0.002,0.062,4.158e6,1307.398,4.77,0.624,0.81,0.288,0.215,0.121,5.461,-0.01,1.424e-4,0,0,0,0,-1.747e-5,0.003,165,213.825,80,0.023,6.612,14.965,1012.626,340.368,0.034,0.038
1.691,6.362,21.785,38.751,22.158,39.696,1.134,0.009,1.134,0.431,4.05,8.612,22.175,120.893,9.788,16.502,0,-0.044,-0.002,2.654e4,1.204e4,19.39,0.104,2003.478,1987.731,0.095,0.068,4.53e6,1313.533,5.665,0.624,0.811,0.288,0.216,0.121,4.875,0.466,4.139e-5,0,0,0,0,-4.252e-6,0.003,165,213.825,80,0.043,6.703,14.959,1012.504,340.364,0.05,0.039
1.741,7.5,23.746,39.323,24.166,40.273,1.347,0.017,1.348,0.739,4.482,8.698,22.175,120.893,9.788,14.884,0,0.084,-0.002,2.642e4,1.192e4,19.34,0.104,2019.783,1984.915,0.211,0.073,4.9e6,1323.765,6.571,0.624,0.803,0.288,0.216,0.121,4.243,0.897,1.568e-4,0,0,0,0,1.281e-5,0.003,165,213.825,80,0.04,6.623,14.951,1012.37,340.359,0.05,0.039
1.791,8.737,25.739,39.948,26.204,40.902,1.582,0.03,1.582,1.069,4.919,8.782,22.175,120.893,9.788,13.052,0,0.319,0.002,2.63e4,1.18e4,19.29,0.103,2040.16,1982.048,0.352,0.079,5.271e6,1335.184,7.438,0.624,0.786,0.288,0.216,0.121,3.564,1.255,1.254e-4,0,0,0,0,1.619e-4,0.004,165,213.825,79.999,-0.015,6.339,14.943,1012.225,340.354,0.05,0.039
1.841,10.075,27.764,40.616,28.277,41.576,1.839,0.045,1.839,1.398,5.361,8.884,22.175,120.893,9.788,12.096,0,0.657,0.008,2.617e4,1.167e4,19.238,0.103,2051.708,1979.127,0.44,0.085,5.667e6,1347.677,8.467,0.624,0.774,0.288,0.216,0.121,3.227,1.419,-3.675e-4,0,0,0,0,5.933e-4,0.004,165,213.825,79.998,-0.153,6.396,14.935,1012.068,340.349,0.05,0.039
1.891,11.514,29.83,41.421,30.391,42.386,2.117,0.064,2.118,1.718,5.809,8.995,22.175,120.893,9.788,10.694,0,1.088,0.023,2.605e4,1.155e4,19.185,0.103,2069.868,1976.143,0.568,0.091,6.06e6,1363.475,9.431,0.625,0.754,0.288,0.216,0.121,2.753,1.563,8.119e-5,0,0,0,0,0.001,0.004,165,213.825,79.995,-0.401,6.157,14.925,1011.9,340.344,0.05,0.039
1.941,13.058,31.929,42.08,32.537,43.05,2.418,0.085,2.42,2.02,6.262,9.09,22.175,120.893,9.788,9.948,4.696e-7,1.615,0.041,2.593e4,1.143e4,19.132,0.103,2080.204,1973.105,0.649,0.097,6.473e6,1375.364,10.596,0.625,0.742,0.288,0.216,0.121,2.511,1.628,-2.555e-4,0,0,0,0,0.003,0.004,165,213.825,79.989,-0.787,6.22,14.915,1011.718,340.337,0.05,0.039
1.991,14.708,34.065,42.828,34.722,43.804,2.742,0.11,2.744,2.302,6.721,9.197,22.175,120.893,9.788,9.243,5.882e-7,2.236,0.068,2.58e4,1.13e4,19.077,0.103,2090.425,1970.006,0.73,0.103,6.894e6,1389.417,11.839,0.625,0.731,0.288,0.216,0.121,2.29,1.667,1.563e-4,0,0,0,0,0.005,0.005,165,213.825,79.979,-1.336,6.282,14.904,1011.525,340.331,0.05,0.04
2.041,16.466,36.251,43.822,36.956,44.808,3.089,0.138,3.092,2.561,7.188,9.349,22.175,120.893,9.788,8.719,6.914e-7,2.953,0.098,2.567e4,1.117e4,19.021,0.102,2098.329,1966.831,0.797,0.11,7.328e6,1409.711,13.226,0.625,0.723,0.288,0.216,0.122,2.129,1.689,-2.561e-4,0,0,0,0,0.007,0.005,165,213.825,79.963,-2.073,6.444,14.893,1011.319,340.324,0.05,0.04
2.091,18.334,38.48,44.71,39.235,45.701,3.458,0.169,3.463,2.796,7.661,9.467,22.175,120.893,9.788,7.35,1.974e-6,3.757,0.195,2.554e4,1.104e4,18.964,0.102,2120.156,1963.584,0.949,0.116,7.755e6,1426.753,14.356,0.625,0.7,0.287,0.216,0.122,1.727,1.628,-4.444e-5,0,0,0,0,0.01,0.005,165,213.825,79.939,-3.023,6.003,14.881,1011.1,340.317,0.05,0.04
2.141,20.315,40.74,45.312,41.545,46.309,3.852,0.202,3.857,3,8.138,9.557,22.175,120.893,9.788,6.96,2.11e-6,4.625,0.238,2.541e4,1.091e4,18.906,0.102,2126.806,1960.282,1.009,0.123,8.206e6,1436.554,15.941,0.626,0.694,0.287,0.216,0.122,1.616,1.617,3.886e-4,0,0,0,0,0.014,0.006,165,213.825,79.902,-4.202,6.216,14.868,1010.867,340.309,0.05,0.04
2.191,22.409,43.034,45.998,43.889,47.004,4.27,0.237,4.276,3.172,8.62,9.67,22.175,120.893,9.788,6.541,0,5.603,0.296,2.528e4,1.078e4,18.847,0.102,2134.129,1956.918,1.074,0.13,8.664e6,1448.404,17.612,0.626,0.688,0.287,0.216,0.122,1.501,1.593,-3.299e-4,0,0,0,0,0.018,0.006,165,213.825,79.849,-5.625,6.427,14.854,1010.622,340.301,0.05,0.04
2.241,24.619,45.365,46.728,46.27,47.746,4.711,0.273,4.719,3.311,9.109,9.807,22.175,120.893,9.788,5.715,3.627e-6,6.644,0.447,2.515e4,1.065e4,18.787,0.102,2149.075,1953.489,1.185,0.137,9.122e6,1461.178,19.178,0.626,0.676,0.287,0.217,0.122,1.279,1.493,9.566e-5,0,0,0,0,0.023,0.006,165,213.825,79.775,-7.306,6.314,14.84,1010.363,340.292,0.05,0.041
2.291,26.946,47.721,47.234,48.677,48.268,5.178,0.309,5.187,3.413,9.601,9.938,22.175,120.893,9.788,4.923,2.534e-6,7.702,0.652,2.501e4,1.051e4,18.726,0.101,2164.221,1950.006,1.298,0.144,9.586e6,1468.288,20.84,0.627,0.665,0.287,0.217,0.123,1.075,1.367,2.791e-4,0,0,0,0,0.028,0.007,165,213.825,79.674,-9.24,6.211,14.825,1010.09,340.283,0.05,0.041
2.341,29.391,50.081,47.312,51.089,48.366,5.669,0.344,5.679,3.474,10.095,10.043,22.175,120.893,9.788,4.025,5.733e-6,8.732,1.016,2.488e4,1.038e4,18.664,0.101,2182.377,1946.495,1.43,0.151,1.005e7,1464.702,22.523,0.627,0.654,0.287,0.217,0.123,0.854,1.187,3.173e-4,0,0,0,0,0.033,0.007,165,213.825,79.538,-11.404,5.991,14.809,1009.803,340.273,0.05,0.041
2.391,31.954,52.444,47.352,53.503,48.44,6.185,0.377,6.196,3.489,10.591,10.21,22.175,120.893,9.788,3.121,8.092e-6,9.632,1.631,2.475e4,1.025e4,18.602,0.101,2201.838,1942.956,1.569,0.158,1.051e7,1460.577,24.296,0.628,0.644,0.287,0.217,0.123,0.643,0.972,2.243e-4,0,0,0,0,0.037,0.007,165,213.825,79.363,-13.753,5.729,14.792,1009.502,340.263,0.05,0.041
2.441,34.635,54.811,47.426,55.922,48.558,6.726,0.406,6.738,3.455,11.092,10.427,22.175,120.893,9.788,2.647,5.356e-6,10.462,2.011,2.461e4,1.011e4,18.539,0.101,2212.607,1939.385,1.656,0.165,1.099e7,1457.734,26.373,0.628,0.64,0.287,0.217,0.124,0.536,0.849,-3.613e-4,0,0,0,0,0.04,0.008,165,213.825,79.144,-16.229,5.883,14.775,1009.188,340.252,0.05,0.041
2.491,37.435,57.16,47.069,58.324,48.264,7.293,0.429,7.305,3.37,11.594,10.673,22.175,120.893,9.788,1.864,1.447e-5,10.941,3.395,2.448e4,9982.7,18.477,0.101,2231.121,1935.809,1.79,0.172,1.145e7,1444.705,28.407,0.628,0.635,0.287,0.217,0.124,0.368,0.618,5.692e-5,0,0,0,0,0.04,0.008,165,213.825,78.878,-18.774,5.69,14.757,1008.86,340.241,0.05,0.042
2.541,40.351,59.504,46.954,60.723,48.235,7.885,0.445,7.898,3.232,12.103,11.046,22.175,120.893,9.788,1.22,1.623e-5,10.504,5.825,2.435e4,9851.919,18.414,0.1,2247.199,1932.21,1.909,0.179,1.192e7,1438.362,30.62,0.629,0.632,0.287,0.218,0.124,0.235,0.415,9.89e-5,0,0,0,0,0.034,0.008,165,213.825,78.564,-21.313,5.578,14.738,1008.517,340.23,0.05,0.042
2.591,43.385,61.836,46.694,63.111,48.085,8.503,0.452,8.515,3.04,12.621,11.482,22.175,120.893,9.788,0.736,1.675e-5,5.859,10.852,2.422e4,9721.977,18.351,0.1,2259.845,1928.595,2.008,0.186,1.238e7,1429.136,32.986,0.629,0.63,0.287,0.218,0.125,0.139,0.27,-4.43e-4,0,0,0,0,0.01,0.009,165,213.825,78.206,-23.764,5.426,14.718,1008.162,340.218,0.05,0.042
2.641,46.535,64.177,46.862,65.511,48.401,9.147,0.446,9.158,2.792,13.153,12.106,22.175,120.893,9.788,0.843,3.308e-5,-5.927,10.794,2.409e4,9591.843,18.287,0.1,2257.176,1924.936,2.014,0.193,1.285e7,1431.244,35.559,0.63,0.631,0.287,0.218,0.125,0.16,0.333,2.346e-4,0,0,0,0,-0.009,0.009,165,213.825,77.811,-26.048,5.17,14.698,1007.792,340.206,0.05,0.042
2.691,49.803,66.522,46.919,67.918,48.608,9.818,0.427,9.828,2.489,13.703,12.705,22.175,120.893,9.788,1.077,3.233e-5,-8.579,8.288,2.396e4,9461.748,18.222,0.1,2251.265,1921.238,2,0.2,1.332e7,1430.823,38.31,0.63,0.632,0.287,0.218,0.125,0.207,0.432,-1.737e-4,0,0,0,0,-0.018,0.009,165,213.825,77.39,-28.088,5.311,14.676,1007.409,340.193,0.05,0.042
2.741,53.187,68.875,47.1,70.339,48.968,10.517,0.391,10.524,2.13,14.276,13.396,22.175,120.893,9.788,1.408,3.32e-5,-9.344,6.369,2.383e4,9331.363,18.157,0.1,2243.06,1917.492,1.973,0.208,1.379e7,1433.995,41.224,0.631,0.634,0.287,0.219,0.126,0.274,0.559,3.457e-4,0,0,0,0,-0.02,0.01,165,213.825,76.958,-29.843,5.362,14.654,1007.012,340.179,0.05,0.043
2.791,56.691,71.246,47.438,72.783,49.508,11.243,0.337,11.248,1.718,14.875,14.165,22.175,120.893,9.788,1.757,4.338e-5,-8.989,5.169,2.37e4,9200.305,18.091,0.099,2234.59,1913.685,1.945,0.215,1.427e7,1441.415,44.309,0.631,0.637,0.287,0.219,0.126,0.346,0.69,-1.473e-4,0,0,0,0,-0.017,0.01,165,213.825,76.529,-31.293,5.35,14.632,1006.601,340.166,0.05,0.043
2.841,60.312,73.63,47.668,75.245,49.996,11.999,0.263,12.002,1.256,15.505,15.076,22.175,120.893,9.788,2.472,4.616e-5,-7.892,4.417,2.357e4,9068.707,18.023,0.099,2217.807,1909.819,1.867,0.222,1.474e7,1447.346,47.718,0.632,0.643,0.286,0.219,0.126,0.499,0.944,4.849e-4,0,0,0,0,-0.013,0.01,165,213.825,76.12,-32.413,4.762,14.608,1006.176,340.151,0.05,0.043
2.891,64.053,76.006,47.534,77.705,50.042,12.785,0.166,12.786,0.744,16.162,15.643,22.175,120.893,9.788,2.571,5.595e-5,-6.119,4.036,2.344e4,8937.495,17.955,0.099,2215.69,1905.922,1.877,0.229,1.522e7,1443.113,51.011,0.632,0.644,0.286,0.219,0.127,0.521,0.985,4.82e-5,0,0,0,0,-0.007,0.011,165,213.825,75.754,-33.161,4.84,14.584,1005.738,340.137,0.05,0.043
2.941,67.913,78.367,47.246,80.157,49.926,13.601,0.045,13.601,0.188,16.846,16.139,22.175,120.893,9.787,2.722,5.473e-5,-4.132,3.802,2.331e4,8806.998,17.887,0.099,2212.437,1902.002,1.881,0.237,1.57e7,1435.232,54.426,0.633,0.646,0.286,0.22,0.127,0.555,1.046,-3.317e-4,0,0,0,0,-0.003,0.011,165,213.825,75.444,-33.535,4.708,14.559,1005.285,340.121,0.05,0.044
2.991,71.89,80.736,47.428,82.624,50.244,14.448,-0.102,14.448,-0.406,17.56,16.585,22.175,120.893,9.787,2.69,6.417e-5,-1.86,3.676,2.318e4,8676.274,17.818,0.099,2213.355,1898.031,1.911,0.244,1.618e7,1437.734,57.848,0.634,0.646,0.286,0.22,0.128,0.548,1.047,2.591e-4,0,0,0,0,-5.78e-4,0.011,165,213.825,75.205,-33.538,4.668,14.533,1004.818,340.106,0.05,0.044
