# Time (s),Altitude (m),Vertical velocity (m/s),Vertical acceleration (m/s²),Total velocity (m/s),Total acceleration (m/s²),Position East of launch (m),Position North of launch (m),Lateral distance (m),Lateral direction (°),Lateral velocity (m/s),Lateral acceleration (m/s²),Latitude (°),Longitude (°),Gravitational acceleration (m/s²),Angle of attack (°),Roll rate (°/s),Pitch rate (°/s),Yaw rate (°/s),Mass (g),Motor mass (g),Longitudinal moment of inertia (kg·m²),Rotational moment of inertia (kg·m²),CP location (mm),CG location (mm),Stability margin calibers (​),Mach number (​),Reynolds number (​),Thrust (N),Drag force (N),Drag coefficient (​),Axial drag coefficient (​),Friction drag coefficient (​),Pressure drag coefficient (​),Base drag coefficient (​),Normal force coefficient (​),Pitch moment coefficient (​),Yaw moment coefficient (​),Side force coefficient (​),Roll moment coefficient (​),Roll forcing coefficient (​),Roll damping coefficient (​),Pitch damping coefficient (​),Coriolis acceleration (m/s²),Reference length (mm),Reference area (cm²),Vertical orientation (zenith) (°),Lateral orientation (azimuth) (°),Wind velocity (m/s),Air temperature (°C),Air pressure (mbar),Speed of sound (m/s),Simulation time step (s),Computation time (s)
0.01,-4.757e-4,-0.095,-9.511,0.096,9.563,-5e-5,0,5e-5,180,0.01,1,22.175,120.893,9.788,88.538,0,0,0,2.8e4,1.35e4,19.963,0.106,NaN,2019.994,NaN,0.006,3.861e5,4.784,1.566e-6,0.75,3.085e-5,0.415,0.215,0.12,NaN,NaN,NaN,NaN,NaN,NaN,NaN,NaN,1.293e-5,165,213.825,84,0,1.973,15,1013.25,340.389,0.01,0.002
0.02,-4.761e-4,-0.095,-9.522,0.096,9.575,-5.004e-5,0,5.004e-5,180,0.01,1.001,22.175,120.893,9.788,88.594,0,0,0,2.8e4,1.35e4,19.963,0.106,NaN,2019.992,NaN,0.006,3.789e5,4.461,1.346e-6,0.752,2.752e-5,0.416,0.215,0.12,NaN,NaN,NaN,NaN,NaN,NaN,NaN,NaN,1.294e-5,165,213.825,84,0,1.937,15,1013.25,340.389,0.01,0.002
0.03,-4.763e-4,-0.095,-9.526,0.096,9.579,-5.006e-5,0,5.006e-5,180,0.01,1.001,22.175,120.893,9.788,88.65,0,0,0,2.8e4,1.35e4,19.963,0.106,NaN,2019.991,NaN,0.006,3.718e5,4.343,1.15e-6,0.753,2.444e-5,0.418,0.215,0.12,NaN,NaN,NaN,NaN,NaN,NaN,NaN,NaN,1.295e-5,165,213.825,84,0,1.9,15,1013.25,340.389,0.01,0.002
0.04,-4.765e-4,-0.095,-9.53,0.096,9.582,-5.008e-5,0,5.008e-5,180,0.01,1.002,22.175,120.893,9.788,88.708,0,0,0,2.8e4,1.35e4,19.963,0.106,NaN,2019.989,NaN,0.005,3.646e5,4.249,9.732e-7,0.755,2.15e-5,0.42,0.215,0.12,NaN,NaN,NaN,NaN,NaN,NaN,NaN,NaN,1.295e-5,165,213.825,84,0,1.864,15,1013.25,340.389,0.01,0.002
0.05,-4.761e-4,-0.095,-9.523,0.096,9.575,-5.005e-5,0,5.005e-5,180,0.01,1.001,22.175,120.893,9.788,88.764,0,0,0,2.8e4,1.35e4,19.963,0.106,NaN,2019.988,NaN,0.005,3.575e5,4.443,8.197e-7,0.757,1.884e-5,0.422,0.215,0.12,NaN,NaN,NaN,NaN,NaN,NaN,NaN,NaN,1.294e-5,165,213.825,84,0,1.827,15,1013.25,340.389,0.01,0.002
0.06,-4.757e-4,-0.095,-9.514,0.096,9.567,-5e-5,0,5e-5,180,0.01,1,22.175,120.893,9.788,88.753,0,0,0,2.8e4,1.35e4,19.963,0.106,NaN,2019.986,NaN,0.005,3.585e5,4.681,8.482e-7,0.757,1.938e-5,0.422,0.215,0.12,NaN,NaN,NaN,NaN,NaN,NaN,NaN,NaN,1.293e-5,165,213.825,84,0,1.833,15,1013.25,340.389,0.01,0.003
0.07,-4.762e-4,-0.095,-9.523,0.096,9.576,-5.005e-5,0,5.005e-5,180,0.01,1.001,22.175,120.893,9.788,88.746,0,0,0,2.8e4,1.35e4,19.963,0.106,NaN,2019.984,NaN,0.005,3.596e5,4.438,8.66e-7,0.756,1.966e-5,0.421,0.215,0.12,NaN,NaN,NaN,NaN,NaN,NaN,NaN,NaN,1.294e-5,165,213.825,84,0,1.838,15,1013.25,340.389,0.01,0.003
0.08,-4.761e-4,-0.095,-9.522,0.096,9.574,-5.004e-5,0,5.004e-5,180,0.01,1.001,22.175,120.893,9.788,88.737,0,0,0,2.8e4,1.35e4,19.963,0.106,NaN,2019.982,NaN,0.005,3.607e5,4.479,8.908e-7,0.756,2.01e-5,0.421,0.215,0.12,NaN,NaN,NaN,NaN,NaN,NaN,NaN,NaN,1.294e-5,165,213.825,84,0,1.844,15,1013.25,340.389,0.01,0.003
0.09,-4.759e-4,-0.095,-9.517,0.096,9.57,-5.002e-5,0,5.002e-5,180,0.01,1,22.175,120.893,9.788,88.726,0,0,0,2.8e4,1.35e4,19.963,0.106,NaN,2019.981,NaN,0.005,3.618e5,4.603,9.179e-7,0.756,2.059e-5,0.421,0.215,0.12,NaN,NaN,NaN,NaN,NaN,NaN,NaN,NaN,1.294e-5,165,213.825,84,0,1.849,15,1013.25,340.389,0.01,0.003
0.1,-4.764e-4,-0.095,-9.527,0.096,9.58,-5.007e-5,0,5.007e-5,180,0.01,1.001,22.175,120.893,9.788,88.721,0,0,0,2.8e4,1.35e4,19.963,0.106,NaN,2019.979,NaN,0.005,3.629e5,4.315,9.356e-7,0.755,2.086e-5,0.42,0.215,0.12,NaN,NaN,NaN,NaN,NaN,NaN,NaN,NaN,1.295e-5,165,213.825,84,0,1.855,15,1013.25,340.389,0.01,0.003
0.11,-4.762e-4,-0.095,-9.523,0.096,9.576,-5.005e-5,0,5.005e-5,180,0.01,1.001,22.175,120.893,9.788,88.715,0,0,0,2.8e4,1.35e4,19.963,0.106,NaN,2019.977,NaN,0.005,3.635e5,4.431,9.523e-7,0.755,2.116e-5,0.42,0.215,0.12,NaN,NaN,NaN,NaN,NaN,NaN,NaN,NaN,1.294e-5,165,213.825,84,0,1.858,15,1013.25,340.389,0.01,0.004
0.12,-4.762e-4,-0.095,-9.523,0.096,9.576,-5.005e-5,0,5.005e-5,180,0.01,1.001,22.175,120.893,9.788,88.71,0,0,0,2.8e4,1.35e4,19.962,0.106,NaN,2019.976,NaN,0.005,3.641e5,4.436,9.664e-7,0.755,2.141e-5,0.42,0.215,0.12,NaN,NaN,NaN,NaN,NaN,NaN,NaN,NaN,1.294e-5,165,213.825,84,0,1.861,15,1013.25,340.389,0.01,0.004
0.13,-4.758e-4,-0.095,-9.517,0.096,9.569,-5.001e-5,0,5.001e-5,180,0.01,1,22.175,120.893,9.788,88.703,0,0,0,2.8e4,1.35e4,19.962,0.106,NaN,2019.974,NaN,0.005,3.647e5,4.62,9.851e-7,0.755,2.175e-5,0.42,0.215,0.12,NaN,NaN,NaN,NaN,NaN,NaN,NaN,NaN,1.294e-5,165,213.825,84,0,1.864,15,1013.25,340.389,0.01,0.004
0.14,-4.762e-4,-0.095,-9.524,0.096,9.577,-5.005e-5,0,5.005e-5,180,0.01,1.001,22.175,120.893,9.788,88.7,0,0,0,2.8e4,1.35e4,19.962,0.106,NaN,2019.972,NaN,0.005,3.653e5,4.404,9.94e-7,0.755,2.187e-5,0.42,0.215,0.12,NaN,NaN,NaN,NaN,NaN,NaN,NaN,NaN,1.295e-5,165,213.825,84,0,1.867,15,1013.25,340.389,0.01,0.004
0.15,-4.761e-4,-0.095,-9.523,0.096,9.575,-5.004e-5,0,5.004e-5,180,0.01,1.001,22.175,120.893,9.788,88.695,0,0,0,2.8e4,1.35e4,19.962,0.106,NaN,2019.97,NaN,0.005,3.659e5,4.444,1.009e-6,0.755,2.214e-5,0.42,0.215,0.12,NaN,NaN,NaN,NaN,NaN,NaN,NaN,NaN,1.294e-5,165,213.825,84,0,1.871,15,1013.25,340.389,0.01,0.004
0.16,-4.758e-4,-0.095,-9.516,0.096,9.568,-5.001e-5,0,5.001e-5,180,0.01,1,22.175,120.893,9.788,88.67,0,0,0,2.8e4,1.35e4,19.962,0.106,NaN,2019.969,NaN,0.006,3.688e5,4.651,1.084e-6,0.754,2.341e-5,0.419,0.215,0.12,NaN,NaN,NaN,NaN,NaN,NaN,NaN,NaN,1.293e-5,165,213.825,84,0,1.885,15,1013.25,340.389,0.01,0.005
0.17,-4.765e-4,-0.095,-9.531,0.096,9.583,-5.009e-5,0,5.009e-5,180,0.01,1.002,22.175,120.893,9.788,88.652,0,0,0,2.8e4,1.35e4,19.962,0.106,NaN,2019.967,NaN,0.006,3.717e5,4.218,1.144e-6,0.753,2.433e-5,0.418,0.215,0.12,NaN,NaN,NaN,NaN,NaN,NaN,NaN,NaN,1.295e-5,165,213.825,84,0,1.9,15,1013.25,340.389,0.01,0.005
0.18,-4.765e-4,-0.095,-9.531,0.096,9.583,-5.009e-5,0,5.009e-5,180,0.01,1.002,22.175,120.893,9.788,88.63,0,0,0,2.8e4,1.35e4,19.962,0.106,NaN,2019.965,NaN,0.006,3.745e5,4.225,1.219e-6,0.753,2.552e-5,0.417,0.215,0.12,NaN,NaN,NaN,NaN,NaN,NaN,NaN,NaN,1.295e-5,165,213.825,84,0,1.914,15,1013.25,340.389,0.01,0.005
0.19,-4.764e-4,-0.095,-9.527,0.096,9.58,-5.007e-5,0,5.007e-5,180,0.01,1.001,22.175,120.893,9.788,88.607,0,0,0,2.8e4,1.35e4,19.962,0.106,NaN,2019.964,NaN,0.006,3.774e5,4.321,1.299e-6,0.752,2.678e-5,0.417,0.215,0.12,NaN,NaN,NaN,NaN,NaN,NaN,NaN,NaN,1.295e-5,165,213.825,84,0,1.929,15,1013.25,340.389,0.01,0.005
0.2,-4.766e-4,-0.095,-9.532,0.096,9.585,-5.01e-5,0,5.01e-5,180,0.01,1.002,22.175,120.893,9.788,88.587,0,0,0,2.8e4,1.35e4,19.962,0.106,NaN,2019.962,NaN,0.006,3.803e5,4.174,1.375e-6,0.751,2.792e-5,0.416,0.215,0.12,NaN,NaN,NaN,NaN,NaN,NaN,NaN,NaN,1.296e-5,165,213.825,84,0,1.944,15,1013.25,340.389,0.01,0.005
0.21,-4.763e-4,-0.095,-9.525,0.096,9.578,-5.006e-5,0,5.006e-5,180,0.01,1.001,22.175,120.893,9.788,88.588,0,0,0,2.8e4,1.35e4,19.962,0.106,NaN,2019.961,NaN,0.006,3.798e5,4.381,1.367e-6,0.751,2.783e-5,0.416,0.215,0.12,NaN,NaN,NaN,NaN,NaN,NaN,NaN,NaN,1.295e-5,165,213.825,84,0,1.941,15,1013.25,340.389,0.01,0.005
0.22,-4.758e-4,-0.095,-9.515,0.096,9.568,-5.001e-5,0,5.001e-5,180,0.01,1,22.175,120.893,9.788,88.589,0,0,0,2.8e4,1.35e4,19.962,0.106,NaN,2019.959,NaN,0.006,3.793e5,4.657,1.362e-6,0.751,2.78e-5,0.416,0.215,0.12,NaN,NaN,NaN,NaN,NaN,NaN,NaN,NaN,1.293e-5,165,213.825,84,0,1.939,15,1013.25,340.389,0.01,0.006
0.23,-4.762e-4,-0.095,-9.525,0.096,9.577,-5.005e-5,0,5.005e-5,180,0.01,1.001,22.175,120.893,9.788,88.596,0,0,0,2.8e4,1.35e4,19.962,0.106,NaN,2019.957,NaN,0.006,3.788e5,4.392,1.34e-6,0.752,2.742e-5,0.416,0.215,0.12,NaN,NaN,NaN,NaN,NaN,NaN,NaN,NaN,1.295e-5,165,213.825,84,0,1.936,15,1013.25,340.389,0.01,0.006
0.24,-4.76e-4,-0.095,-9.52,0.096,9.573,-5.003e-5,0,5.003e-5,180,0.01,1.001,22.175,120.893,9.788,88.598,0,0,0,2.8e4,1.35e4,19.962,0.106,NaN,2019.955,NaN,0.006,3.783e5,4.513,1.33e-6,0.752,2.728e-5,0.417,0.215,0.12,NaN,NaN,NaN,NaN,NaN,NaN,NaN,NaN,1.294e-5,165,213.825,84,0,1.934,15,1013.25,340.389,0.01,0.006
0.25,-4.759e-4,-0.095,-9.518,0.096,9.57,-5.002e-5,0,5.002e-5,180,0.01,1,22.175,120.893,9.788,88.601,0,0,0,2.8e4,1.35e4,19.962,0.106,NaN,2019.954,NaN,0.006,3.778e5,4.587,1.318e-6,0.752,2.712e-5,0.417,0.215,0.12,NaN,NaN,NaN,NaN,NaN,NaN,NaN,NaN,1.294e-5,165,213.825,84,0,1.931,15,1013.25,340.389,0.01,0.006
0.26,-4.762e-4,-0.095,-9.523,0.096,9.576,-5.005e-5,0,5.005e-5,180,0.01,1.001,22.175,120.893,9.788,88.625,0,0,0,2.8e4,1.35e4,19.962,0.106,NaN,2019.952,NaN,0.006,3.749e5,4.429,1.234e-6,0.752,2.579e-5,0.417,0.215,0.12,NaN,NaN,NaN,NaN,NaN,NaN,NaN,NaN,1.294e-5,165,213.825,84,0,1.916,15,1013.25,340.389,0.01,0.006
0.27,-4.76e-4,-0.095,-9.52,0.096,9.572,-5.003e-5,0,5.003e-5,180,0.01,1.001,22.175,120.893,9.788,88.646,0,0,0,2.8e4,1.35e4,19.962,0.106,NaN,2019.95,NaN,0.006,3.72e5,4.527,1.161e-6,0.753,2.464e-5,0.418,0.215,0.12,NaN,NaN,NaN,NaN,NaN,NaN,NaN,NaN,1.294e-5,165,213.825,84,0,1.901,15,1013.25,340.389,0.01,0.007
0.28,-4.761e-4,-0.095,-9.521,0.096,9.574,-5.004e-5,0,5.004e-5,180,0.01,1.001,22.175,120.893,9.788,88.669,0,0,0,2.8e4,1.35e4,19.962,0.106,NaN,2019.949,NaN,0.006,3.691e5,4.488,1.086e-6,0.754,2.342e-5,0.419,0.215,0.12,NaN,NaN,NaN,NaN,NaN,NaN,NaN,NaN,1.294e-5,165,213.825,84,0,1.887,15,1013.25,340.389,0.01,0.007
0.29,-4.758e-4,-0.095,-9.517,0.096,9.569,-5.001e-5,0,5.001e-5,180,0.01,1,22.175,120.893,9.788,88.691,0,0,0,2.8e4,1.35e4,19.962,0.106,NaN,2019.947,NaN,0.005,3.662e5,4.616,1.019e-6,0.755,2.232e-5,0.42,0.215,0.12,NaN,NaN,NaN,NaN,NaN,NaN,NaN,NaN,1.294e-5,165,213.825,84,0,1.872,15,1013.25,340.389,0.01,0.007
0.3,-4.76e-4,-0.095,-9.519,0.096,9.572,-5.003e-5,0,5.003e-5,180,0.01,1.001,22.175,120.893,9.788,88.715,0,0,0,2.8e4,1.35e4,19.962,0.106,NaN,2019.945,NaN,0.005,3.632e5,4.548,9.491e-7,0.755,2.112e-5,0.42,0.215,0.12,NaN,NaN,NaN,NaN,NaN,NaN,NaN,NaN,1.294e-5,165,213.825,84,0,1.857,15,1013.25,340.389,0.01,0.007
0.31,-4.757e-4,-0.095,-9.514,0.096,9.566,-5e-5,0,5e-5,180,0.01,1,22.175,120.893,9.788,88.69,0,0,0,2.8e4,1.35e4,19.962,0.106,NaN,2019.943,NaN,0.005,3.662e5,4.706,1.022e-6,0.755,2.238e-5,0.42,0.215,0.12,NaN,NaN,NaN,NaN,NaN,NaN,NaN,NaN,1.293e-5,165,213.825,84,0,1.872,15,1013.25,340.389,0.01,0.007
0.32,-4.763e-4,-0.095,-9.527,0.096,9.579,-5.007e-5,0,5.007e-5,180,0.01,1.001,22.175,120.893,9.788,88.671,0,0,0,2.8e4,1.35e4,19.962,0.106,NaN,2019.942,NaN,0.006,3.691e5,4.332,1.083e-6,0.754,2.335e-5,0.419,0.215,0.12,NaN,NaN,NaN,NaN,NaN,NaN,NaN,NaN,1.295e-5,165,213.825,84,0,1.887,15,1013.25,340.389,0.01,0.007
0.33,-4.761e-4,-0.095,-9.521,0.096,9.574,-5.004e-5,0,5.004e-5,180,0.01,1.001,22.175,120.893,9.788,88.646,0,0,0,2.8e4,1.35e4,19.962,0.106,NaN,2019.94,NaN,0.006,3.721e5,4.483,1.162e-6,0.753,2.464e-5,0.418,0.215,0.12,NaN,NaN,NaN,NaN,NaN,NaN,NaN,NaN,1.294e-5,165,213.825,84,0,1.902,15,1013.25,340.389,0.01,0.008
0.34,-4.759e-4,-0.095,-9.518,0.096,9.571,-5.002e-5,0,5.002e-5,180,0.01,1,22.175,120.893,9.788,88.622,0,0,0,2.8e4,1.35e4,19.962,0.106,NaN,2019.938,NaN,0.006,3.75e5,4.57,1.241e-6,0.752,2.592e-5,0.417,0.215,0.12,NaN,NaN,NaN,NaN,NaN,NaN,NaN,NaN,1.294e-5,165,213.825,84,0,1.917,15,1013.25,340.389,0.01,0.008
0.35,-4.762e-4,-0.095,-9.524,0.096,9.576,-5.005e-5,0,5.005e-5,180,0.01,1.001,22.175,120.893,9.788,88.602,0,0,0,2.8e4,1.35e4,19.962,0.106,NaN,2019.936,NaN,0.006,3.779e5,4.419,1.317e-6,0.752,2.707e-5,0.417,0.215,0.12,NaN,NaN,NaN,NaN,NaN,NaN,NaN,NaN,1.294e-5,165,213.825,84,0,1.932,15,1013.25,340.389,0.01,0.008
0.36,-4.764e-4,-0.095,-9.527,0.096,9.58,-5.007e-5,0,5.007e-5,180,0.01,1.001,22.175,120.893,9.788,88.638,0,0,0,2.8e4,1.35e4,19.962,0.106,NaN,2019.935,NaN,0.006,3.733e5,4.317,1.189e-6,0.753,2.505e-5,0.418,0.215,0.12,NaN,NaN,NaN,NaN,NaN,NaN,NaN,NaN,1.295e-5,165,213.825,84,0,1.908,15,1013.25,340.389,0.01,0.008
0.37,-4.76e-4,-0.095,-9.52,0.096,9.573,-5.003e-5,0,5.003e-5,180,0.01,1.001,22.175,120.893,9.788,88.672,0,0,0,2.8e4,1.35e4,19.962,0.106,NaN,2019.933,NaN,0.006,3.686e5,4.522,1.076e-6,0.754,2.326e-5,0.419,0.215,0.12,NaN,NaN,NaN,NaN,NaN,NaN,NaN,NaN,1.294e-5,165,213.825,84,0,1.884,15,1013.25,340.389,0.01,0.008
0.38,-4.762e-4,-0.095,-9.523,0.096,9.576,-5.005e-5,0,5.005e-5,180,0.01,1.001,22.175,120.893,9.788,88.711,0,0,0,2.8e4,1.35e4,19.962,0.106,NaN,2019.931,NaN,0.005,3.64e5,4.433,9.63e-7,0.755,2.135e-5,0.42,0.215,0.12,NaN,NaN,NaN,NaN,NaN,NaN,NaN,NaN,1.294e-5,165,213.825,84,0,1.861,15,1013.25,340.389,0.01,0.009
0.39,-4.757e-4,-0.095,-9.515,0.096,9.567,-5e-5,0,5e-5,180,0.01,1,22.175,120.893,9.788,88.746,0,0,0,2.8e4,1.35e4,19.962,0.106,NaN,2019.93,NaN,0.005,3.593e5,4.673,8.647e-7,0.756,1.967e-5,0.421,0.215,0.12,NaN,NaN,NaN,NaN,NaN,NaN,NaN,NaN,1.293e-5,165,213.825,84,0,1.837,15,1013.25,340.389,0.01,0.009
0.4,-4.755e-4,-0.095,-9.51,0.096,9.562,-4.998e-5,0,4.998e-5,180,0.01,1,22.175,120.893,9.788,88.784,0,0,0,2.8e4,1.35e4,19.962,0.106,NaN,2019.928,NaN,0.005,3.547e5,4.812,7.704e-7,0.758,1.799e-5,0.423,0.215,0.12,NaN,NaN,NaN,NaN,NaN,NaN,NaN,NaN,1.293e-5,165,213.825,84,0,1.813,15,1013.25,340.389,0.01,0.009
0.41,-4.759e-4,-0.095,-9.518,0.096,9.57,-5.002e-5,0,5.002e-5,180,0.01,1,22.175,120.893,9.788,88.742,0,0,0,2.8e4,1.35e4,19.962,0.106,NaN,2019.926,NaN,0.005,3.599e5,4.595,8.76e-7,0.756,1.986e-5,0.421,0.215,0.12,NaN,NaN,NaN,NaN,NaN,NaN,NaN,NaN,1.294e-5,165,213.825,84,0,1.84,15,1013.25,340.389,0.01,0.009
0.42,-4.758e-4,-0.095,-9.516,0.096,9.568,-5.001e-5,0,5.001e-5,180,0.01,1,22.175,120.893,9.788,88.699,0,0,0,2.8e4,1.35e4,19.962,0.106,NaN,2019.924,NaN,0.005,3.652e5,4.638,9.962e-7,0.755,2.194e-5,0.42,0.215,0.12,NaN,NaN,NaN,NaN,NaN,NaN,NaN,NaN,1.293e-5,165,213.825,84,0,1.867,15,1013.25,340.389,0.01,0.009
0.43,-4.755e-4,-0.095,-9.51,0.096,9.562,-4.998e-5,0,4.998e-5,180,0.01,1,22.175,120.893,9.788,88.655,0,0,0,2.8e4,1.35e4,19.962,0.106,NaN,2019.922,NaN,0.006,3.704e5,4.811,1.129e-6,0.754,2.417e-5,0.418,0.215,0.12,NaN,NaN,NaN,NaN,NaN,NaN,NaN,NaN,1.293e-5,165,213.825,84,0,1.894,15,1013.25,340.389,0.01,0.009
0.44,-4.753e-4,-0.095,-9.506,0.096,9.558,-4.996e-5,0,4.996e-5,180,0.01,0.999,22.175,120.893,9.788,88.613,0,0,0,2.8e4,1.35e4,19.962,0.106,NaN,2019.921,NaN,0.006,3.757e5,4.919,1.27e-6,0.752,2.643e-5,0.417,0.215,0.12,NaN,NaN,NaN,NaN,NaN,NaN,NaN,NaN,1.292e-5,165,213.825,84,0,1.92,15,1013.25,340.389,0.01,0.01
0.45,-4.759e-4,-0.095,-9.518,0.096,9.57,-5.002e-5,0,5.002e-5,180,0.01,1,22.175,120.893,9.788,88.578,0,0,0,2.8e4,1.35e4,19.961,0.106,NaN,2019.919,NaN,0.006,3.81e5,4.583,1.407e-6,0.751,2.847e-5,0.416,0.215,0.12,NaN,NaN,NaN,NaN,NaN,NaN,NaN,NaN,1.294e-5,165,213.825,84,0,1.947,15,1013.25,340.389,0.01,0.01
0.46,-4.762e-4,-0.095,-9.523,0.096,9.576,-5.005e-5,0,5.005e-5,180,0.01,1.001,22.175,120.893,9.788,88.577,0,0,0,2.8e4,1.35e4,19.961,0.106,NaN,2019.917,NaN,0.006,3.812e5,4.429,1.41e-6,0.751,2.849e-5,0.416,0.215,0.12,NaN,NaN,NaN,NaN,NaN,NaN,NaN,NaN,1.294e-5,165,213.825,84,0,1.949,15,1013.25,340.389,0.01,0.01
0.47,-4.761e-4,-0.095,-9.523,0.096,9.575,-5.004e-5,0,5.004e-5,180,0.01,1.001,22.175,120.893,9.788,88.575,0,0,0,2.8e4,1.35e4,19.961,0.106,NaN,2019.915,NaN,0.006,3.815e5,4.45,1.419e-6,0.751,2.863e-5,0.416,0.215,0.12,NaN,NaN,NaN,NaN,NaN,NaN,NaN,NaN,1.294e-5,165,213.825,84,0,1.95,15,1013.25,340.389,0.01,0.01
0.48,-4.753e-4,-0.095,-9.507,0.096,9.559,-4.996e-5,0,4.996e-5,180,0.01,0.999,22.175,120.893,9.788,88.568,0,0,0,2.8e4,1.35e4,19.961,0.106,NaN,2019.914,NaN,0.006,3.818e5,4.905,1.441e-6,0.751,2.904e-5,0.416,0.215,0.12,NaN,NaN,NaN,NaN,NaN,NaN,NaN,NaN,1.292e-5,165,213.825,84,0,1.951,15,1013.25,340.389,0.01,0.01
0.49,-4.756e-4,-0.095,-9.512,0.096,9.565,-4.999e-5,0,4.999e-5,180,0.01,1,22.175,120.893,9.788,88.568,0,0,0,2.8e4,1.35e4,19.961,0.106,NaN,2019.912,NaN,0.006,3.821e5,4.746,1.444e-6,0.751,2.906e-5,0.416,0.215,0.12,NaN,NaN,NaN,NaN,NaN,NaN,NaN,NaN,1.293e-5,165,213.825,84,0,1.953,15,1013.25,340.389,0.01,0.01
0.5,-4.761e-4,-0.095,-9.522,0.096,9.574,-5.004e-5,0,5.004e-5,180,0.01,1.001,22.175,120.893,9.788,88.568,0,0,0,2.8e4,1.35e4,19.961,0.106,NaN,2019.91,NaN,0.006,3.823e5,4.47,1.444e-6,0.751,2.9e-5,0.416,0.215,0.12,NaN,NaN,NaN,NaN,NaN,NaN,NaN,NaN,1.294e-5,165,213.825,84,0,1.954,15,1013.25,340.389,0.01,0.011
0.51,-4.758e-4,-0.095,-9.515,0.096,9.568,-5.001e-5,0,5.001e-5,180,0.01,1,22.175,120.893,9.788,88.552,0,0,0,2.8e4,1.35e4,19.961,0.106,NaN,2019.908,NaN,0.006,3.844e5,4.657,1.51e-6,0.75,3.001e-5,0.415,0.215,0.12,NaN,NaN,NaN,NaN,NaN,NaN,NaN,NaN,1.293e-5,165,213.825,84,0,1.965,15,1013.25,340.389,0.01,0.011
0.52,-4.75e-4,-0.095,-9.499,0.096,9.551,-4.992e-5,0,4.992e-5,180,0.01,0.998,22.175,120.893,9.788,88.532,0,0,0,2.8e4,1.35e4,19.961,0.106,NaN,2019.906,NaN,0.006,3.864e5,5.115,1.586e-6,0.75,3.121e-5,0.415,0.215,0.12,NaN,NaN,NaN,NaN,NaN,NaN,NaN,NaN,1.291e-5,165,213.825,84,0,1.975,15,1013.25,340.389,0.01,0.011
0.53,-4.746e-4,-0.095,-9.491,0.095,9.543,-4.988e-5,0,4.988e-5,180,0.01,0.998,22.175,120.893,9.788,88.516,0,0,0,2.8e4,1.35e4,19.961,0.106,NaN,2019.904,NaN,0.006,3.884e5,5.339,1.657e-6,0.749,3.226e-5,0.414,0.215,0.12,NaN,NaN,NaN,NaN,NaN,NaN,NaN,NaN,1.29e-5,165,213.825,84,0,1.985,15,1013.25,340.389,0.01,0.011
0.54,-4.758e-4,-0.095,-9.516,0.096,9.568,-5.001e-5,0,5.001e-5,180,0.01,1,22.175,120.893,9.788,88.508,0,0,0,2.8e4,1.35e4,19.961,0.106,NaN,2019.903,NaN,0.006,3.904e5,4.638,1.698e-6,0.749,3.27e-5,0.414,0.215,0.12,NaN,NaN,NaN,NaN,NaN,NaN,NaN,NaN,1.293e-5,165,213.825,84,0,1.996,15,1013.25,340.389,0.01,0.011
0.55,-4.755e-4,-0.095,-9.509,0.096,9.562,-4.997e-5,0,4.997e-5,180,0.01,0.999,22.175,120.893,9.788,88.492,0,0,0,2.8e4,1.35e4,19.961,0.106,NaN,2019.901,NaN,0.006,3.925e5,4.82,1.77e-6,0.748,3.375e-5,0.413,0.215,0.12,NaN,NaN,NaN,NaN,NaN,NaN,NaN,NaN,1.293e-5,165,213.825,84,0,2.006,15,1013.25,340.389,0.01,0.012
0.56,-4.749e-4,-0.095,-9.498,0.096,9.55,-4.991e-5,0,4.991e-5,180,0.01,0.998,22.175,120.893,9.788,88.517,0,0,0,2.8e4,1.35e4,19.961,0.106,NaN,2019.899,NaN,0.006,3.886e5,5.14,1.655e-6,0.749,3.219e-5,0.414,0.215,0.12,NaN,NaN,NaN,NaN,NaN,NaN,NaN,NaN,1.291e-5,165,213.825,84,0,1.986,15,1013.25,340.389,0.01,0.012
0.57,-4.749e-4,-0.095,-9.497,0.095,9.55,-4.991e-5,0,4.991e-5,180,0.01,0.998,22.175,120.893,9.788,88.544,0,0,0,2.8e4,1.35e4,19.961,0.106,NaN,2019.897,NaN,0.006,3.846e5,5.164,1.535e-6,0.75,3.046e-5,0.415,0.215,0.12,NaN,NaN,NaN,NaN,NaN,NaN,NaN,NaN,1.291e-5,165,213.825,84,0,1.966,15,1013.25,340.389,0.01,0.012
0.58,-4.749e-4,-0.095,-9.499,0.096,9.551,-4.992e-5,0,4.992e-5,180,0.01,0.998,22.175,120.893,9.788,88.573,0,0,0,2.8e4,1.35e4,19.961,0.106,NaN,2019.895,NaN,0.006,3.807e5,5.125,1.418e-6,0.751,2.872e-5,0.416,0.215,0.12,NaN,NaN,NaN,NaN,NaN,NaN,NaN,NaN,1.291e-5,165,213.825,84,0,1.946,15,1013.25,340.389,0.01,0.012
0.59,-4.746e-4,-0.095,-9.493,0.095,9.545,-4.989e-5,0,4.989e-5,180,0.01,0.998,22.175,120.893,9.788,88.601,0,0,0,2.8e4,1.35e4,19.961,0.106,NaN,2019.893,NaN,0.006,3.768e5,5.296,1.312e-6,0.752,2.714e-5,0.417,0.215,0.12,NaN,NaN,NaN,NaN,NaN,NaN,NaN,NaN,1.29e-5,165,213.825,84,0,1.926,15,1013.25,340.389,0.01,0.012
0.6,-4.741e-4,-0.095,-9.483,0.095,9.535,-4.984e-5,0,4.984e-5,180,0.01,0.997,22.175,120.893,9.788,88.628,0,0,0,2.8e4,1.349e4,19.961,0.106,NaN,2019.891,NaN,0.006,3.729e5,5.567,1.214e-6,0.753,2.564e-5,0.418,0.215,0.12,NaN,NaN,NaN,NaN,NaN,NaN,NaN,NaN,1.289e-5,165,213.825,84,0,1.906,15,1013.25,340.389,0.01,0.012
0.61,-4.739e-4,-0.095,-9.478,0.095,9.53,-4.981e-5,0,4.981e-5,180,0.01,0.996,22.175,120.893,9.788,88.638,0,0,0,2.8e4,1.349e4,19.961,0.106,NaN,2019.889,NaN,0.006,3.713e5,5.717,1.177e-6,0.753,2.506e-5,0.418,0.215,0.12,NaN,NaN,NaN,NaN,NaN,NaN,NaN,NaN,1.288e-5,165,213.825,84,0,1.898,15,1013.25,340.389,0.01,0.013
0.62,-4.745e-4,-0.095,-9.49,0.095,9.542,-4.987e-5,0,4.987e-5,180,0.01,0.997,22.175,120.893,9.788,88.655,0,0,0,2.8e4,1.349e4,19.961,0.106,NaN,2019.887,NaN,0.006,3.697e5,5.366,1.126e-6,0.754,2.42e-5,0.419,0.215,0.12,NaN,NaN,NaN,NaN,NaN,NaN,NaN,NaN,1.29e-5,165,213.825,84,0,1.89,15,1013.25,340.389,0.01,0.013
0.63,-4.737e-4,-0.095,-9.473,0.095,9.525,-4.978e-5,0,4.978e-5,180,0.01,0.996,22.175,120.893,9.788,88.662,0,0,0,2.799e4,1.349e4,19.961,0.106,NaN,2019.884,NaN,0.006,3.681e5,5.844,1.099e-6,0.754,2.382e-5,0.419,0.215,0.12,NaN,NaN,NaN,NaN,NaN,NaN,NaN,NaN,1.288e-5,165,213.825,84,0,1.882,15,1013.25,340.389,0.01,0.013
0.64,-4.738e-4,-0.095,-9.475,0.095,9.527,-4.979e-5,0,4.979e-5,180,0.01,0.996,22.175,120.893,9.788,88.675,0,0,0,2.799e4,1.349e4,19.961,0.106,NaN,2019.882,NaN,0.005,3.666e5,5.786,1.059e-6,0.755,2.314e-5,0.419,0.215,0.12,NaN,NaN,NaN,NaN,NaN,NaN,NaN,NaN,1.288e-5,165,213.825,84,0,1.874,15,1013.25,340.389,0.01,0.013
0.65,-4.734e-4,-0.095,-9.469,0.095,9.521,-4.976e-5,0,4.976e-5,180,0.01,0.995,22.175,120.893,9.788,88.686,0,0,0,2.799e4,1.349e4,19.961,0.106,NaN,2019.88,NaN,0.005,3.65e5,5.968,1.025e-6,0.755,2.26e-5,0.42,0.215,0.12,NaN,NaN,NaN,NaN,NaN,NaN,NaN,NaN,1.287e-5,165,213.825,84,0,1.866,15,1013.25,340.389,0.01,0.013
0.66,-4.724e-4,-0.094,-9.448,0.095,9.5,-4.965e-5,0,4.965e-5,180,0.01,0.993,22.175,120.893,9.788,88.681,0,0,0,2.799e4,1.349e4,19.961,0.106,NaN,2019.877,NaN,0.005,3.647e5,6.551,1.034e-6,0.755,2.283e-5,0.42,0.215,0.12,NaN,NaN,NaN,NaN,NaN,NaN,NaN,NaN,1.284e-5,165,213.825,84,0,1.864,15,1013.25,340.389,0.01,0.013
0.67,-4.721e-4,-0.094,-9.442,0.095,9.494,-4.962e-5,0,4.962e-5,180,0.01,0.992,22.175,120.893,9.788,88.681,0,0,0,2.799e4,1.349e4,19.961,0.106,NaN,2019.875,NaN,0.005,3.645e5,6.72,1.033e-6,0.755,2.283e-5,0.42,0.215,0.12,NaN,NaN,NaN,NaN,NaN,NaN,NaN,NaN,1.283e-5,165,213.825,84,0,1.863,15,1013.25,340.389,0.01,0.014
0.68,-4.711e-4,-0.094,-9.421,0.095,9.473,-4.951e-5,0,4.951e-5,180,0.01,0.99,22.175,120.893,9.788,88.677,0,0,0,2.799e4,1.349e4,19.961,0.106,NaN,2019.872,NaN,0.005,3.643e5,7.299,1.042e-6,0.755,2.306e-5,0.42,0.215,0.12,NaN,NaN,NaN,NaN,NaN,NaN,NaN,NaN,1.281e-5,165,213.825,84,0,1.862,15,1013.25,340.389,0.01,0.014
0.69,-4.708e-4,-0.094,-9.415,0.095,9.467,-4.948e-5,0,4.948e-5,180,0.01,0.99,22.175,120.893,9.788,88.677,0,0,0,2.799e4,1.349e4,19.961,0.106,NaN,2019.869,NaN,0.005,3.64e5,7.467,1.041e-6,0.755,2.306e-5,0.42,0.215,0.12,NaN,NaN,NaN,NaN,NaN,NaN,NaN,NaN,1.28e-5,165,213.825,84,0,1.861,15,1013.25,340.389,0.01,0.014
0.7,-4.699e-4,-0.094,-9.398,0.095,9.45,-4.939e-5,0,4.939e-5,180,0.01,0.988,22.175,120.893,9.788,88.673,0,0,0,2.799e4,1.349e4,19.961,0.106,NaN,2019.866,NaN,0.005,3.638e5,7.951,1.047e-6,0.755,2.324e-5,0.42,0.215,0.12,NaN,NaN,NaN,NaN,NaN,NaN,NaN,NaN,1.277e-5,165,213.825,84,0,1.86,15,1013.25,340.389,0.01,0.014
0.71,-4.682e-4,-0.094,-9.363,0.094,9.415,-4.921e-5,0,4.921e-5,180,0.01,0.984,22.175,120.893,9.788,88.662,0,0,0,2.799e4,1.349e4,19.96,0.106,NaN,2019.863,NaN,0.005,3.639e5,8.938,1.076e-6,0.755,2.386e-5,0.42,0.215,0.12,NaN,NaN,NaN,NaN,NaN,NaN,NaN,NaN,1.273e-5,165,213.825,84,0,1.86,15,1013.25,340.389,0.01,0.014
0.72,-4.676e-4,-0.094,-9.352,0.094,9.403,-4.915e-5,0,4.915e-5,180,0.01,0.983,22.175,120.893,9.788,88.658,0,0,0,2.799e4,1.349e4,19.96,0.106,NaN,2019.859,NaN,0.005,3.64e5,9.255,1.086e-6,0.755,2.408e-5,0.42,0.215,0.12,NaN,NaN,NaN,NaN,NaN,NaN,NaN,NaN,1.271e-5,165,213.825,84,0,1.86,15,1013.25,340.389,0.01,0.014
0.73,-4.659e-4,-0.093,-9.319,0.094,9.37,-4.897e-5,0,4.897e-5,180,0.01,0.979,22.175,120.893,9.788,88.647,0,0,0,2.799e4,1.349e4,19.96,0.106,NaN,2019.855,NaN,0.005,3.641e5,10.185,1.114e-6,0.755,2.468e-5,0.42,0.215,0.12,NaN,NaN,NaN,NaN,NaN,NaN,NaN,NaN,1.267e-5,165,213.825,84,0,1.861,15,1013.25,340.389,0.01,0.015
0.74,-4.64e-4,-0.093,-9.28,0.093,9.331,-4.877e-5,0,4.877e-5,180,0.01,0.975,22.175,120.893,9.788,88.634,0,0,0,2.799e4,1.349e4,19.96,0.106,NaN,2019.851,NaN,0.005,3.642e5,11.275,1.146e-6,0.755,2.538e-5,0.42,0.215,0.12,NaN,NaN,NaN,NaN,NaN,NaN,NaN,NaN,1.261e-5,165,213.825,84,0,1.861,15,1013.25,340.389,0.01,0.015
0.75,-4.621e-4,-0.092,-9.243,0.093,9.294,-4.857e-5,0,4.857e-5,180,0.01,0.971,22.175,120.893,9.788,88.622,0,0,0,2.799e4,1.349e4,19.96,0.106,NaN,2019.846,NaN,0.005,3.643e5,12.322,1.178e-6,0.755,2.606e-5,0.42,0.215,0.12,NaN,NaN,NaN,NaN,NaN,NaN,NaN,NaN,1.256e-5,165,213.825,84,0,1.862,15,1013.25,340.389,0.01,0.015
0.76,-4.598e-4,-0.092,-9.195,0.092,9.246,-4.832e-5,0,4.832e-5,180,0.01,0.966,22.175,120.893,9.788,88.642,0,0,0,2.799e4,1.349e4,19.96,0.106,NaN,2019.841,NaN,0.005,3.599e5,13.663,1.102e-6,0.756,2.499e-5,0.421,0.215,0.12,NaN,NaN,NaN,NaN,NaN,NaN,NaN,NaN,1.25e-5,165,213.825,84,0,1.84,15,1013.25,340.389,0.01,0.015
0.77,-4.586e-4,-0.092,-9.173,0.092,9.223,-4.82e-5,0,4.82e-5,180,0.01,0.964,22.175,120.893,9.788,88.67,0,0,0,2.799e4,1.349e4,19.96,0.106,NaN,2019.836,NaN,0.005,3.555e5,14.302,1.011e-6,0.757,2.35e-5,0.422,0.215,0.12,NaN,NaN,NaN,NaN,NaN,NaN,NaN,NaN,1.247e-5,165,213.825,84,0,1.817,15,1013.25,340.389,0.01,0.015
0.78,-4.56e-4,-0.091,-9.12,0.092,9.171,-4.793e-5,0,4.793e-5,180,0.01,0.959,22.175,120.893,9.788,88.689,0,0,0,2.799e4,1.349e4,19.96,0.106,NaN,2019.83,NaN,0.005,3.511e5,15.77,9.451e-7,0.759,2.251e-5,0.423,0.215,0.12,NaN,NaN,NaN,NaN,NaN,NaN,NaN,NaN,1.24e-5,165,213.825,84,0,1.795,15,1013.25,340.389,0.01,0.016
0.79,-4.54e-4,-0.091,-9.079,0.091,9.129,-4.771e-5,0,4.771e-5,180,0.01,0.954,22.175,120.893,9.788,88.713,0,0,0,2.799e4,1.349e4,19.96,0.106,NaN,2019.823,NaN,0.005,3.467e5,16.927,8.741e-7,0.76,2.135e-5,0.425,0.215,0.12,NaN,NaN,NaN,NaN,NaN,NaN,NaN,NaN,1.234e-5,165,213.825,84,0,1.772,15,1013.25,340.389,0.01,0.016
0.8,-4.518e-4,-0.09,-9.037,0.091,9.087,-4.749e-5,0,4.749e-5,180,0.009,0.95,22.175,120.893,9.788,88.737,0,0,0,2.799e4,1.349e4,19.96,0.106,NaN,2019.816,NaN,0.005,3.423e5,18.121,8.071e-7,0.761,2.022e-5,0.426,0.215,0.12,NaN,NaN,NaN,NaN,NaN,NaN,NaN,NaN,1.228e-5,165,213.825,84,0,1.75,15,1013.25,340.389,0.01,0.016
0.81,-4.495e-4,-0.09,-8.99,0.09,9.04,-4.725e-5,0,4.725e-5,180,0.009,0.945,22.175,120.893,9.788,88.679,0,0,0,2.799e4,1.349e4,19.96,0.106,NaN,2019.809,NaN,0.005,3.474e5,19.438,9.493e-7,0.76,2.31e-5,0.424,0.215,0.12,NaN,NaN,NaN,NaN,NaN,NaN,NaN,NaN,1.222e-5,165,213.825,84,0,1.776,15,1013.25,340.389,0.01,0.016
0.82,-4.482e-4,-0.09,-8.965,0.09,9.014,-4.711e-5,0,4.711e-5,180,0.009,0.942,22.175,120.893,9.788,88.629,0,0,0,2.799e4,1.349e4,19.959,0.106,NaN,2019.801,NaN,0.005,3.524e5,20.155,1.089e-6,0.758,2.576e-5,0.423,0.215,0.12,NaN,NaN,NaN,NaN,NaN,NaN,NaN,NaN,1.218e-5,165,213.825,84,0,1.801,15,1013.25,340.389,0.01,0.016
0.83,-4.434e-4,-0.089,-8.867,0.089,8.916,-4.66e-5,0,4.66e-5,180,0.009,0.932,22.175,120.893,9.788,88.558,0,0,0,2.799e4,1.349e4,19.959,0.106,NaN,2019.793,NaN,0.005,3.574e5,22.899,1.301e-6,0.757,2.991e-5,0.422,0.215,0.12,NaN,NaN,NaN,NaN,NaN,NaN,NaN,NaN,1.205e-5,165,213.825,84,0,1.827,15,1013.25,340.389,0.01,0.016
0.84,-4.345e-4,-0.087,-8.69,0.087,8.738,-4.567e-5,0,4.567e-5,180,0.009,0.913,22.175,120.893,9.788,88.463,0,0,0,2.799e4,1.349e4,19.959,0.106,NaN,2019.782,NaN,0.005,3.625e5,27.886,1.613e-6,0.756,3.606e-5,0.421,0.215,0.12,NaN,NaN,NaN,NaN,NaN,NaN,NaN,NaN,1.181e-5,165,213.825,84,0,1.853,15,1013.25,340.389,0.01,0.017
0.85,-4.271e-4,-0.085,-8.542,0.086,8.589,-4.489e-5,0,4.489e-5,180,0.009,0.898,22.175,120.893,9.788,88.381,0,0,0,2.799e4,1.349e4,19.959,0.106,NaN,2019.77,NaN,0.006,3.675e5,32.036,1.935e-6,0.754,4.207e-5,0.419,0.215,0.12,NaN,NaN,NaN,NaN,NaN,NaN,NaN,NaN,1.161e-5,165,213.825,84,0,1.878,15,1013.25,340.389,0.01,0.017
0.86,-4.194e-4,-0.084,-8.388,0.084,8.434,-4.408e-5,0,4.408e-5,180,0.009,0.882,22.175,120.893,9.788,88.32,0,0,0,2.799e4,1.349e4,19.959,0.106,NaN,2019.756,NaN,0.006,3.694e5,36.392,2.181e-6,0.754,4.692e-5,0.419,0.215,0.12,NaN,NaN,NaN,NaN,NaN,NaN,NaN,NaN,1.14e-5,165,213.825,84,0,1.888,15,1013.25,340.389,0.01,0.017
0.87,-4.119e-4,-0.082,-8.239,0.083,8.284,-4.33e-5,0,4.33e-5,180,0.009,0.866,22.175,120.893,9.788,88.262,0,0,0,2.799e4,1.349e4,19.958,0.106,NaN,2019.74,NaN,0.006,3.713e5,40.581,2.438e-6,0.753,5.192e-5,0.418,0.215,0.12,NaN,NaN,NaN,NaN,NaN,NaN,NaN,NaN,1.12e-5,165,213.825,84,0,1.898,15,1013.25,340.389,0.01,0.017
0.88,-4.047e-4,-0.081,-8.093,0.081,8.138,-4.253e-5,0,4.253e-5,180,0.009,0.851,22.175,120.893,9.788,88.205,0,0,0,2.799e4,1.349e4,19.958,0.106,NaN,2019.723,NaN,0.006,3.732e5,44.682,2.709e-6,0.753,5.711e-5,0.418,0.215,0.12,NaN,NaN,NaN,NaN,NaN,NaN,NaN,NaN,1.1e-5,165,213.825,84,0,1.907,15,1013.25,340.389,0.01,0.017
0.89,-3.982e-4,-0.08,-7.965,0.08,8.008,-4.186e-5,0,4.186e-5,180,0.008,0.837,22.175,120.893,9.788,88.154,0,0,0,2.799e4,1.349e4,19.958,0.106,NaN,2019.705,NaN,0.006,3.751e5,48.294,2.973e-6,0.752,6.204e-5,0.417,0.215,0.12,NaN,NaN,NaN,NaN,NaN,NaN,NaN,NaN,1.083e-5,165,213.825,84,0,1.917,15,1013.25,340.389,0.01,0.017
0.9,-3.921e-4,-0.078,-7.842,0.079,7.885,-4.121e-5,0,4.121e-5,180,0.008,0.824,22.175,120.893,9.788,88.105,0,0,0,2.799e4,1.349e4,19.957,0.106,NaN,2019.685,NaN,0.006,3.77e5,51.752,3.244e-6,0.752,6.702e-5,0.417,0.215,0.12,NaN,NaN,NaN,NaN,NaN,NaN,NaN,NaN,1.066e-5,165,213.825,84,0,1.927,15,1013.25,340.389,0.01,0.018
0.91,-3.84e-4,-0.077,-7.679,0.077,7.722,-4.036e-5,0,4.036e-5,180,0.008,0.807,22.175,120.893,9.788,88.084,0,0,0,2.798e4,1.348e4,19.957,0.106,NaN,2019.664,NaN,0.006,3.726e5,56.319,3.283e-6,0.753,6.942e-5,0.418,0.215,0.12,NaN,NaN,NaN,NaN,NaN,NaN,NaN,NaN,1.044e-5,165,213.825,84,0,1.904,15,1013.25,340.389,0.01,0.018
0.92,-3.761e-4,-0.075,-7.522,0.076,7.563,-3.953e-5,0,3.953e-5,180,0.008,0.791,22.175,120.893,9.788,88.063,0,0,0,2.798e4,1.348e4,19.957,0.106,NaN,2019.641,NaN,0.006,3.683e5,60.748,3.315e-6,0.754,7.178e-5,0.419,0.215,0.12,NaN,NaN,NaN,NaN,NaN,NaN,NaN,NaN,1.022e-5,165,213.825,84,0,1.882,15,1013.25,340.389,0.01,0.018
0.93,-3.643e-4,-0.073,-7.286,0.073,7.326,-3.829e-5,0,3.829e-5,180,0.008,0.766,22.175,120.893,9.788,88.018,0,0,0,2.798e4,1.348e4,19.956,0.106,NaN,2019.615,NaN,0.005,3.639e5,67.387,3.474e-6,0.755,7.703e-5,0.42,0.215,0.12,NaN,NaN,NaN,NaN,NaN,NaN,NaN,NaN,9.903e-6,165,213.825,84,0,1.86,15,1013.25,340.389,0.01,0.018
0.94,-3.499e-4,-0.07,-6.999,0.07,7.037,-3.678e-5,0,3.678e-5,180,0.007,0.736,22.175,120.893,9.788,87.955,0,0,0,2.798e4,1.348e4,19.956,0.106,NaN,2019.586,NaN,0.005,3.595e5,75.455,3.725e-6,0.756,8.463e-5,0.421,0.215,0.12,NaN,NaN,NaN,NaN,NaN,NaN,NaN,NaN,9.513e-6,165,213.825,84,0,1.837,15,1013.25,340.389,0.01,0.018
0.95,-3.337e-4,-0.067,-6.674,0.067,6.71,-3.507e-5,0,3.507e-5,180,0.007,0.701,22.175,120.893,9.788,87.879,0,0,0,2.798e4,1.348e4,19.955,0.106,NaN,2019.554,NaN,0.005,3.552e5,84.603,4.061e-6,0.757,9.453e-5,0.422,0.215,0.12,NaN,NaN,NaN,NaN,NaN,NaN,NaN,NaN,9.071e-6,165,213.825,84,0,1.815,15,1013.25,340.389,0.01,0.019
0.96,-3.135e-4,-0.063,-6.271,0.063,6.305,-3.295e-5,0,3.295e-5,180,0.007,0.659,22.175,120.893,9.788,87.721,0,0,0,2.798e4,1.348e4,19.954,0.106,NaN,2019.517,NaN,0.005,3.606e5,95.934,5.175e-6,0.756,1.169e-4,0.421,0.215,0.12,NaN,NaN,NaN,NaN,NaN,NaN,NaN,NaN,8.523e-6,165,213.825,84,0,1.842,15,1013.25,340.389,0.01,0.019
0.97,-2.933e-4,-0.059,-5.865,0.059,5.898,-3.082e-5,0,3.082e-5,180,0.006,0.616,22.175,120.893,9.788,87.567,0,0,0,2.798e4,1.348e4,19.954,0.106,NaN,2019.476,NaN,0.005,3.661e5,107.326,6.465e-6,0.755,1.417e-4,0.42,0.215,0.12,NaN,NaN,NaN,NaN,NaN,NaN,NaN,NaN,7.972e-6,165,213.825,84,0,1.87,15,1013.25,340.389,0.01,0.019
0.98,-2.671e-4,-0.053,-5.342,0.054,5.372,-2.808e-5,0,2.808e-5,180,0.006,0.561,22.175,120.893,9.788,87.382,0,0,0,2.797e4,1.347e4,19.953,0.106,NaN,2019.43,NaN,0.006,3.715e5,122.033,8.269e-6,0.753,1.759e-4,0.418,0.215,0.12,NaN,NaN,NaN,NaN,NaN,NaN,NaN,NaN,7.261e-6,165,213.825,84,0,1.898,15,1013.25,340.389,0.01,0.019
0.99,-2.333e-4,-0.047,-4.667,0.047,4.692,-2.453e-5,0,2.453e-5,180,0.005,0.49,22.175,120.893,9.788,87.156,0,0,0,2.797e4,1.347e4,19.952,0.106,NaN,2019.376,NaN,0.006,3.77e5,141.022,1.086e-5,0.752,2.244e-4,0.417,0.215,0.12,NaN,NaN,NaN,NaN,NaN,NaN,NaN,NaN,6.343e-6,165,213.825,84,0,1.925,15,1013.25,340.389,0.01,0.019
1,-1.839e-4,-0.037,-3.678,0.037,3.699,-1.933e-5,0,1.933e-5,180,0.004,0.387,22.175,120.893,9.788,86.845,0,0,0,2.797e4,1.347e4,19.951,0.106,NaN,2019.312,NaN,0.006,3.825e5,168.795,1.52e-5,0.751,3.049e-4,0.416,0.215,0.12,NaN,NaN,NaN,NaN,NaN,NaN,NaN,NaN,5e-6,165,213.825,84,0,1.953,15,1013.25,340.389,0.01,0.019
1.01,-1.138e-4,-0.023,-2.275,0.023,2.288,-1.196e-5,0,1.196e-5,180,0.002,0.239,22.175,120.893,9.788,86.425,0,0,0,2.796e4,1.346e4,19.949,0.106,NaN,2019.232,NaN,0.006,3.862e5,208.221,2.24e-5,0.75,4.41e-4,0.415,0.215,0.12,NaN,NaN,NaN,NaN,NaN,NaN,NaN,NaN,3.094e-6,165,213.825,84,0,1.971,15,1013.25,340.389,0.01,0.02
1.02,-4.855e-5,-0.01,-0.97,0.01,0.975,-5.103e-6,0,5.103e-6,180,0.001,0.102,22.175,120.893,9.788,86.042,0,0,0,2.796e4,1.346e4,19.948,0.106,NaN,2019.139,NaN,0.006,3.899e5,244.886,3.082e-5,0.749,5.956e-4,0.414,0.215,0.12,NaN,NaN,NaN,NaN,NaN,NaN,NaN,NaN,1.32e-6,165,213.825,84,0,1.989,15,1013.25,340.389,0.01,0.02
1.03,2.205e-5,0.004,0.442,0.004,0.445,2.317e-6,0,2.317e-6,0,4.638e-4,0.046,22.175,120.893,9.788,85.635,0,0,0,2.795e4,1.345e4,19.946,0.106,NaN,2019.03,NaN,0.006,3.935e5,284.538,4.189e-5,0.748,7.944e-4,0.413,0.215,0.12,NaN,NaN,NaN,NaN,NaN,NaN,NaN,NaN,5.997e-7,165,213.825,84,0,2.006,15,1013.25,340.389,0.01,0.02
1.04,1.641e-4,0.024,1.96,0.024,1.971,1.725e-5,0,1.725e-5,0,0.003,0.206,22.175,120.893,9.788,85.081,0,0,0,2.795e4,1.345e4,19.943,0.106,NaN,2018.905,NaN,0.006,3.973e5,327.142,6.07e-5,0.747,0.001,0.412,0.215,0.12,NaN,NaN,NaN,NaN,NaN,NaN,NaN,NaN,3.263e-6,165,213.825,84,0,2.024,15,1013.25,340.389,0.01,0.02
1.05,5.833e-4,0.06,3.585,0.06,3.604,6.13e-5,0,6.13e-5,0,0.006,0.377,22.175,120.893,9.788,84.082,0,0,0,2.794e4,1.344e4,19.941,0.106,NaN,2018.763,NaN,0.006,4.015e5,372.693,1.066e-4,0.746,0.002,0.411,0.215,0.12,NaN,NaN,NaN,NaN,NaN,NaN,NaN,NaN,8.133e-6,165,213.825,84,0,2.042,15,1013.25,340.389,0.01,0.02
1.06,0.001,0.115,5.563,0.116,5.594,1.534e-4,0,1.534e-4,0,0.012,0.585,22.175,120.893,9.788,82.573,0,0,0,2.793e4,1.343e4,19.938,0.106,NaN,2018.599,NaN,0.006,4.082e5,428.171,2.138e-4,0.745,0.004,0.41,0.215,0.12,NaN,NaN,NaN,NaN,NaN,NaN,NaN,NaN,1.569e-5,165,213.825,84,0,2.07,15,1013.25,340.389,0.01,0.02
1.07,0.003,0.191,7.517,0.192,7.558,3.142e-4,0,3.142e-4,0,0.02,0.79,22.175,120.893,9.788,80.589,0,0,0,2.792e4,1.342e4,19.935,0.106,NaN,2018.415,NaN,0.006,4.157e5,482.882,4.402e-4,0.743,0.007,0.408,0.215,0.12,NaN,NaN,NaN,NaN,NaN,NaN,NaN,NaN,2.59e-5,165,213.825,84,0,2.097,15,1013.25,340.389,0.01,0.021
1.08,0.005,0.288,9.758,0.29,9.812,5.658e-4,0,5.658e-4,0,0.03,1.026,22.175,120.893,9.788,78.094,0,0,0,2.791e4,1.341e4,19.931,0.106,NaN,2018.206,NaN,0.006,4.247e5,545.617,9.014e-4,0.741,0.015,0.406,0.215,0.12,NaN,NaN,NaN,NaN,NaN,NaN,NaN,NaN,3.916e-5,165,213.825,84,0,2.125,15,1013.249,340.389,0.01,0.021
1.09,0.009,0.411,12.305,0.413,12.373,9.333e-4,0,9.333e-4,0,0.043,1.293,22.175,120.893,9.788,75.066,0,0,0,2.79e4,1.34e4,19.927,0.106,NaN,2017.969,NaN,0.007,4.357e5,616.859,0.002,0.739,0.028,0.404,0.215,0.12,NaN,NaN,NaN,NaN,NaN,NaN,NaN,NaN,5.588e-5,165,213.825,84,0,2.152,15,1013.249,340.389,0.01,0.021
1.1,0.014,0.563,15.219,0.566,15.303,0.001,0,0.001,0,0.059,1.6,22.175,120.893,9.788,71.498,0,0,0,2.789e4,1.339e4,19.922,0.106,NaN,2017.702,NaN,0.007,4.496e5,698.307,0.003,0.736,0.05,0.401,0.215,0.12,NaN,NaN,NaN,NaN,NaN,NaN,NaN,NaN,7.656e-5,165,213.825,84,0,2.18,15,1013.248,340.389,0.01,0.021
1.11,0.02,0.746,18.289,0.75,18.39,0.002,0,0.002,0,0.078,1.922,22.175,120.893,9.788,67.208,0,0,0,2.788e4,1.338e4,19.917,0.106,NaN,2017.401,NaN,0.007,4.611e5,784.022,0.006,0.734,0.089,0.399,0.215,0.12,NaN,NaN,NaN,NaN,NaN,NaN,NaN,NaN,1.014e-4,165,213.825,84,0,2.174,15,1013.248,340.389,0.01,0.021
1.12,0.029,0.96,21.44,0.966,21.558,0.003,0,0.003,0,0.101,2.253,22.175,120.893,9.788,62.484,0,0,0,2.786e4,1.336e4,19.911,0.106,NaN,2017.066,NaN,0.007,4.779e5,871.849,0.011,0.731,0.146,0.396,0.215,0.12,NaN,NaN,NaN,NaN,NaN,NaN,NaN,NaN,1.305e-4,165,213.825,84,0,2.167,15,1013.247,340.389,0.01,0.022
1.13,0.04,1.207,24.646,1.213,24.781,0.004,0,0.004,0,0.127,2.59,22.175,120.893,9.788,57.497,0,0,0,2.784e4,1.334e4,19.904,0.106,NaN,2016.696,NaN,0.008,5.011e5,961.049,0.019,0.727,0.222,0.392,0.215,0.12,NaN,NaN,NaN,NaN,NaN,NaN,NaN,NaN,1.64e-4,165,213.825,84,0,2.161,15,1013.245,340.389,0.01,0.022
1.14,0.053,1.482,27.565,1.49,27.716,0.006,0,0.006,0,0.156,2.897,22.175,120.893,9.788,52.486,0,0,0,2.782e4,1.332e4,19.897,0.106,NaN,2016.295,NaN,0.008,5.313e5,1042.073,0.03,0.722,0.313,0.387,0.215,0.12,NaN,NaN,NaN,NaN,NaN,NaN,NaN,NaN,2.015e-4,165,213.825,84,0,2.155,15,1013.244,340.389,0.01,0.022
1.15,0.069,1.783,30.093,1.793,30.259,0.007,0,0.007,0,0.187,3.163,22.175,120.893,9.788,47.669,0,0,0,2.78e4,1.33e4,19.889,0.106,NaN,2015.866,NaN,0.009,5.684e5,1112.029,0.045,0.717,0.411,0.382,0.215,0.12,NaN,NaN,NaN,NaN,NaN,NaN,NaN,NaN,2.424e-4,165,213.825,84,0,2.148,15,1013.242,340.389,0.01,0.022
1.16,0.089,2.106,32.29,2.117,32.468,0.009,0,0.009,0,0.221,3.394,22.175,120.893,9.788,43.478,0,0,0,2.778e4,1.328e4,19.881,0.106,NaN,2015.413,NaN,0.009,6.155e5,1172.553,0.064,0.71,0.499,0.375,0.215,0.12,NaN,NaN,NaN,NaN,NaN,NaN,NaN,NaN,2.862e-4,165,213.825,84,0,2.165,14.999,1013.24,340.389,0.01,0.022
1.17,0.112,2.446,34.029,2.459,34.216,0.012,0,0.012,0,0.257,3.577,22.175,120.893,9.788,39.711,0,0,0,2.776e4,1.326e4,19.873,0.105,NaN,2014.941,NaN,0.01,6.681e5,1220.187,0.088,0.704,0.579,0.369,0.215,0.12,NaN,NaN,NaN,NaN,NaN,NaN,NaN,NaN,3.325e-4,165,213.825,84,0,2.183,14.999,1013.237,340.388,0.01,0.022
1.18,0.138,2.799,35.305,2.814,35.5,0.014,0,0.014,0,0.294,3.711,22.175,120.893,9.788,36.387,0,0,0,2.774e4,1.324e4,19.864,0.105,NaN,2014.455,NaN,0.011,7.252e5,1254.818,0.116,0.698,0.646,0.363,0.215,0.12,NaN,NaN,NaN,NaN,NaN,NaN,NaN,NaN,3.804e-4,165,213.825,84,0,2.2,14.999,1013.234,340.388,0.01,0.023
1.19,0.168,3.16,36.107,3.177,36.306,0.018,0,0.018,0,0.332,3.795,22.175,120.893,9.788,33.492,0,0,0,2.771e4,1.321e4,19.855,0.105,NaN,2013.959,NaN,0.012,7.857e5,1276.135,0.147,0.692,0.7,0.357,0.215,0.12,NaN,NaN,NaN,NaN,NaN,NaN,NaN,NaN,4.295e-4,165,213.825,84,0,2.217,14.999,1013.23,340.388,0.01,0.023
1.2,0.201,3.526,36.66,3.545,36.862,0.021,0,0.021,0,0.371,3.853,22.175,120.893,9.788,30.979,0,0,0,2.769e4,1.319e4,19.846,0.105,NaN,2013.458,NaN,0.013,8.488e5,1290.479,0.182,0.687,0.743,0.351,0.215,0.12,NaN,NaN,NaN,NaN,NaN,NaN,NaN,NaN,4.793e-4,165,213.825,84,0,2.234,14.999,1013.226,340.388,0.01,0.023
1.21,0.238,3.896,36.966,3.917,37.169,0.025,0,0.025,0,0.409,3.885,22.175,120.893,9.788,28.409,0,0,0,2.767e4,1.317e4,19.837,0.105,NaN,2012.952,NaN,0.014,9.098e5,1297.933,0.22,0.682,0.782,0.347,0.215,0.12,NaN,NaN,NaN,NaN,NaN,NaN,NaN,NaN,5.295e-4,165,213.825,84,0,2.213,14.998,1013.222,340.388,0.01,0.023
1.22,0.279,4.266,37.025,4.289,37.229,0.029,0,0.029,0,0.448,3.891,22.175,120.893,9.788,26.163,0,0,0,2.764e4,1.314e4,19.828,0.105,NaN,2012.446,NaN,0.015,9.726e5,1298.512,0.261,0.677,0.81,0.342,0.215,0.12,NaN,NaN,NaN,NaN,NaN,NaN,NaN,NaN,5.798e-4,165,213.825,84,0,2.193,14.998,1013.217,340.388,0.01,0.023
1.23,0.324,4.636,37.068,4.662,37.272,0.034,0,0.034,0,0.487,3.896,22.175,120.893,9.788,24.19,0,0,0,2.762e4,1.312e4,19.819,0.105,NaN,2011.938,NaN,0.016,1.037e6,1298.633,0.304,0.673,0.83,0.338,0.215,0.12,NaN,NaN,NaN,NaN,NaN,NaN,NaN,NaN,6.301e-4,165,213.825,84,0,2.172,14.998,1013.212,340.388,0.01,0.024
1.24,0.372,5.006,36.974,5.033,37.177,0.039,0,0.039,0,0.526,3.886,22.175,120.893,9.788,22.453,0,0,0,2.76e4,1.31e4,19.81,0.105,NaN,2011.431,NaN,0.017,1.102e6,1294.965,0.349,0.669,0.843,0.334,0.215,0.12,NaN,NaN,NaN,NaN,NaN,NaN,NaN,NaN,6.804e-4,165,213.825,84,0,2.152,14.998,1013.206,340.387,0.01,0.024
1.25,0.424,5.374,36.888,5.404,37.091,0.045,0,0.045,0,0.565,3.877,22.175,120.893,9.788,20.913,0,0,0,2.757e4,1.307e4,19.801,0.105,NaN,2010.925,NaN,0.017,1.168e6,1291.53,0.395,0.665,0.851,0.33,0.215,0.12,NaN,NaN,NaN,NaN,NaN,NaN,NaN,NaN,7.305e-4,165,213.825,84,0,2.131,14.997,1013.2,340.387,0.01,0.024
1.26,0.479,5.742,36.8,5.774,37.003,0.05,0,0.05,0,0.604,3.868,22.175,120.893,9.788,19.618,0,0,0,2.755e4,1.305e4,19.792,0.105,NaN,2010.419,NaN,0.018,1.235e6,1288.052,0.443,0.661,0.854,0.326,0.215,0.12,NaN,NaN,NaN,NaN,NaN,NaN,NaN,NaN,7.805e-4,165,213.825,84,0,2.12,14.997,1013.194,340.387,0.01,0.024
1.27,0.538,6.109,36.688,6.142,36.89,0.057,0,0.057,0,0.642,3.856,22.175,120.893,9.788,18.461,0,0,0,2.753e4,1.303e4,19.783,0.105,NaN,2009.914,NaN,0.02,1.302e6,1283.912,0.493,0.658,0.854,0.323,0.215,0.12,NaN,NaN,NaN,NaN,NaN,NaN,NaN,NaN,8.303e-4,165,213.825,84,0,2.108,14.997,1013.187,340.387,0.01,0.024
1.28,0.601,6.475,36.655,6.511,36.857,0.063,0,0.063,0,0.681,3.853,22.175,120.893,9.788,17.418,0,0,0,2.75e4,1.3e4,19.774,0.105,NaN,2009.409,NaN,0.021,1.37e6,1281.967,0.544,0.655,0.851,0.32,0.215,0.12,NaN,NaN,NaN,NaN,NaN,NaN,NaN,NaN,8.801e-4,165,213.825,84,0,2.097,14.996,1013.179,340.387,0.01,0.024
1.29,0.668,6.841,36.573,6.878,36.774,0.07,0,0.07,0,0.719,3.844,22.175,120.893,9.788,16.477,0,0,0,2.748e4,1.298e4,19.765,0.105,NaN,2008.904,NaN,0.022,1.438e6,1278.651,0.597,0.652,0.847,0.317,0.215,0.12,NaN,NaN,NaN,NaN,NaN,NaN,NaN,NaN,9.298e-4,165,213.825,84,0,2.086,14.996,1013.172,340.386,0.01,0.025
1.3,0.738,7.206,36.531,7.246,36.733,0.078,0,0.078,0,0.757,3.84,22.175,120.893,9.788,15.621,0,0,0,2.746e4,1.296e4,19.756,0.105,NaN,2008.399,NaN,0.023,1.507e6,1276.485,0.65,0.649,0.84,0.314,0.215,0.12,NaN,NaN,NaN,NaN,NaN,NaN,NaN,NaN,9.794e-4,165,213.825,84,0,2.074,14.995,1013.163,340.386,0.01,0.025
1.31,0.812,7.571,36.526,7.613,36.727,0.085,0,0.085,0,0.796,3.839,22.175,120.893,9.788,14.89,0,0,0,2.743e4,1.293e4,19.747,0.105,NaN,2007.894,NaN,0.024,1.576e6,1275.318,0.704,0.647,0.832,0.311,0.215,0.12,NaN,NaN,NaN,NaN,NaN,NaN,NaN,NaN,0.001,165,213.825,84,0,2.07,14.995,1013.155,340.386,0.01,0.025
1.32,0.89,7.936,36.498,7.979,36.699,0.094,0,0.094,0,0.834,3.836,22.175,120.893,9.788,14.22,0,0,0,2.741e4,1.291e4,19.738,0.105,NaN,2007.388,NaN,0.025,1.645e6,1273.528,0.759,0.644,0.823,0.309,0.215,0.12,NaN,NaN,NaN,NaN,NaN,NaN,NaN,NaN,0.001,165,213.825,84,0,2.066,14.994,1013.146,340.385,0.01,0.025
1.33,0.971,8.301,36.548,8.347,36.75,0.102,0,0.102,0,0.872,3.841,22.175,120.893,9.788,13.604,0,0,0,2.739e4,1.289e4,19.729,0.105,NaN,2006.882,NaN,0.026,1.715e6,1273.891,0.815,0.642,0.814,0.306,0.215,0.12,NaN,NaN,NaN,NaN,NaN,NaN,NaN,NaN,0.001,165,213.825,84,0,2.062,14.994,1013.136,340.385,0.01,0.025
1.34,1.056,8.666,36.526,8.714,36.727,0.111,0,0.111,0,0.911,3.839,22.175,120.893,9.788,13.036,0,0,0,2.736e4,1.286e4,19.72,0.105,NaN,2006.376,NaN,0.027,1.785e6,1272.247,0.873,0.639,0.805,0.304,0.215,0.12,NaN,NaN,NaN,NaN,NaN,NaN,NaN,NaN,0.001,165,213.825,84,0,2.058,14.993,1013.126,340.385,0.01,0.025
1.35,1.144,9.031,36.536,9.081,36.737,0.12,0,0.12,0,0.949,3.84,22.175,120.893,9.788,12.512,0,0,0,2.734e4,1.284e4,19.711,0.105,NaN,2005.868,NaN,0.028,1.855e6,1271.517,0.932,0.637,0.795,0.302,0.215,0.12,NaN,NaN,NaN,NaN,NaN,NaN,NaN,NaN,0.001,165,213.825,84,0,2.054,14.993,1013.116,340.384,0.01,0.026
1.36,1.236,9.397,36.574,9.449,36.775,0.13,0,0.13,0,0.988,3.844,22.175,120.893,9.788,12.006,0,0,0,2.732e4,1.282e4,19.702,0.105,NaN,2005.361,NaN,0.029,1.925e6,1271.539,0.992,0.635,0.786,0.3,0.215,0.12,NaN,NaN,NaN,NaN,NaN,NaN,NaN,NaN,0.001,165,213.825,84,0,2.047,14.992,1013.105,340.384,0.01,0.026
1.37,1.332,9.763,36.59,9.816,36.792,0.14,0,0.14,0,1.026,3.846,22.175,120.893,9.788,11.536,0,0,0,2.729e4,1.279e4,19.693,0.105,NaN,2004.852,NaN,0.03,1.995e6,1270.983,1.053,0.633,0.777,0.298,0.215,0.12,NaN,NaN,NaN,NaN,NaN,NaN,NaN,NaN,0.001,165,213.825,84,0,2.04,14.991,1013.094,340.384,0.01,0.026
1.38,1.431,10.129,36.707,10.185,36.909,0.15,0,0.15,0,1.065,3.858,22.175,120.893,9.788,11.097,0,0,0,2.727e4,1.277e4,19.684,0.105,NaN,2004.342,NaN,0.031,2.065e6,1273.167,1.116,0.631,0.768,0.296,0.215,0.12,NaN,NaN,NaN,NaN,NaN,NaN,NaN,NaN,0.001,165,213.825,84,0,2.033,14.991,1013.082,340.383,0.01,0.026
1.39,1.535,10.497,36.748,10.555,36.951,0.161,0,0.161,0,1.103,3.862,22.175,120.893,9.788,10.687,0,0,0,2.725e4,1.275e4,19.675,0.105,NaN,2003.83,NaN,0.032,2.136e6,1273.278,1.18,0.629,0.76,0.294,0.215,0.12,NaN,NaN,NaN,NaN,NaN,NaN,NaN,NaN,0.001,165,213.825,84,0,2.026,14.99,1013.07,340.383,0.01,0.026
1.4,1.641,10.865,36.836,10.925,37.039,0.173,0,0.173,0,1.142,3.872,22.175,120.893,9.788,10.302,0,0,0,2.723e4,1.273e4,19.666,0.105,NaN,2003.318,NaN,0.033,2.207e6,1274.663,1.246,0.628,0.751,0.292,0.215,0.12,NaN,NaN,NaN,NaN,NaN,NaN,NaN,NaN,0.001,165,213.825,84,0,2.018,14.989,1013.057,340.382,0.01,0.027
1.41,1.752,11.234,36.943,11.296,37.147,0.184,0,0.184,0,1.181,3.883,22.175,120.893,9.788,9.945,0,0,0,2.72e4,1.27e4,19.657,0.105,NaN,2002.803,NaN,0.034,2.278e6,1276.588,1.315,0.626,0.744,0.291,0.215,0.12,NaN,NaN,NaN,NaN,NaN,NaN,NaN,NaN,0.002,165,213.825,84,0,2.012,14.989,1013.045,340.382,0.01,0.027
1.42,1.866,11.604,37.012,11.668,37.216,0.196,0,0.196,0,1.22,3.89,22.175,120.893,9.788,9.61,0,0,0,2.718e4,1.268e4,19.648,0.105,NaN,2002.288,NaN,0.035,2.35e6,1277.444,1.385,0.624,0.736,0.289,0.215,0.12,NaN,NaN,NaN,NaN,NaN,NaN,NaN,NaN,0.002,165,213.825,84,0,2.006,14.988,1013.031,340.382,0.01,0.027
1.43,1.984,11.975,37.148,12.041,37.353,0.209,0,0.209,0,1.259,3.904,22.175,120.893,9.788,9.294,0,0,0,2.716e4,1.266e4,19.639,0.105,NaN,2001.77,NaN,0.036,2.422e6,1280.14,1.458,0.623,0.73,0.288,0.215,0.12,NaN,NaN,NaN,NaN,NaN,NaN,NaN,NaN,0.002,165,213.825,84,0,2,14.987,1013.017,340.381,0.01,0.027
1.44,2.106,12.347,37.205,12.415,37.41,0.221,0,0.221,0,1.298,3.91,22.175,120.893,9.788,8.995,0,0,0,2.713e4,1.263e4,19.629,0.105,NaN,2001.252,NaN,0.037,2.494e6,1280.681,1.536,0.623,0.725,0.288,0.215,0.12,NaN,NaN,NaN,NaN,NaN,NaN,NaN,NaN,0.002,165,213.825,84,0,1.994,14.986,1013.003,340.381,0.01,0.027
1.45,2.231,12.72,37.315,12.79,37.521,0.234,0,0.234,0,1.337,3.922,22.175,120.893,9.788,8.713,0,0,0,2.711e4,1.261e4,19.62,0.105,NaN,2000.731,NaN,0.038,2.566e6,1282.653,1.616,0.623,0.72,0.288,0.215,0.12,NaN,NaN,NaN,NaN,NaN,NaN,NaN,NaN,0.002,165,213.825,84,0,1.988,14.985,1012.988,340.38,0.01,0.027
1.46,2.36,13.094,37.434,13.166,37.64,0.248,0,0.248,0,1.376,3.934,22.175,120.893,9.788,8.359,0,0,0,2.709e4,1.259e4,19.611,0.104,NaN,2000.209,NaN,0.04,2.638e6,1284.861,1.693,0.623,0.714,0.288,0.215,0.12,NaN,NaN,NaN,NaN,NaN,NaN,NaN,NaN,0.002,165,213.825,84,0,1.961,14.985,1012.973,340.38,0.01,0.028
1.47,2.493,13.469,37.487,13.543,37.694,0.262,0,0.262,0,1.416,3.94,22.175,120.893,9.788,8.023,0,0,0,2.706e4,1.256e4,19.602,0.104,NaN,1999.686,NaN,0.041,2.71e6,1285.292,1.773,0.623,0.709,0.288,0.215,0.12,NaN,NaN,NaN,NaN,NaN,NaN,NaN,NaN,0.002,165,213.825,84,0,1.934,14.984,1012.958,340.379,0.01,0.028
1.48,2.629,13.845,37.61,13.921,37.817,0.276,0,0.276,0,1.455,3.953,22.175,120.893,9.788,7.704,0,0,0,2.704e4,1.254e4,19.592,0.104,NaN,1999.161,NaN,0.042,2.782e6,1287.587,1.855,0.623,0.704,0.288,0.215,0.12,NaN,NaN,NaN,NaN,NaN,NaN,NaN,NaN,0.002,165,213.825,84,0,1.908,14.983,1012.942,340.379,0.01,0.028
1.49,2.77,14.221,37.656,14.3,37.864,0.291,0,0.291,0,1.495,3.958,22.175,120.893,9.788,7.402,0,0,0,2.702e4,1.252e4,19.583,0.104,NaN,1998.635,NaN,0.043,2.855e6,1287.832,1.94,0.623,0.699,0.288,0.215,0.12,NaN,NaN,NaN,NaN,NaN,NaN,NaN,NaN,0.002,165,213.825,84,0,1.881,14.982,1012.925,340.378,0.01,0.028
1.5,2.914,14.598,37.728,14.679,37.935,0.306,0,0.306,0,1.534,3.965,22.175,120.893,9.788,7.113,0,0,0,2.699e4,1.249e4,19.574,0.104,NaN,1998.108,NaN,0.044,2.928e6,1288.735,2.026,0.623,0.694,0.288,0.215,0.12,NaN,NaN,NaN,NaN,NaN,NaN,NaN,NaN,0.002,165,213.825,84,0,1.854,14.981,1012.908,340.377,0.01,0.028
1.51,3.062,14.976,37.81,15.059,38.018,0.322,0,0.322,0,1.574,3.974,22.175,120.893,9.788,7.062,0,0,0,2.697e4,1.247e4,19.564,0.104,NaN,1997.579,NaN,0.045,3.003e6,1289.948,2.129,0.623,0.693,0.288,0.215,0.12,NaN,NaN,NaN,NaN,NaN,NaN,NaN,NaN,0.002,165,213.825,84,0,1.888,14.98,1012.891,340.377,0.01,0.029
1.52,3.213,15.354,37.826,15.439,38.034,0.338,0,0.338,0,1.614,3.976,22.175,120.893,9.788,7.012,0,0,0,2.695e4,1.244e4,19.555,0.104,NaN,1997.049,NaN,0.046,3.078e6,1289.376,2.235,0.623,0.693,0.288,0.215,0.12,NaN,NaN,NaN,NaN,NaN,NaN,NaN,NaN,0.002,165,213.825,84,0,1.922,14.979,1012.873,340.376,0.01,0.029
1.53,3.369,15.734,37.967,15.821,38.176,0.354,0,0.354,0,1.654,3.99,22.175,120.893,9.788,6.965,0,0,0,2.692e4,1.242e4,19.546,0.104,NaN,1996.518,NaN,0.047,3.153e6,1292.164,2.343,0.623,0.692,0.288,0.215,0.12,NaN,NaN,NaN,NaN,NaN,NaN,NaN,NaN,0.002,165,213.825,84,0,1.956,14.978,1012.855,340.376,0.01,0.029
1.54,3.528,16.114,38.037,16.203,38.246,0.371,0,0.371,0,1.694,3.998,22.175,120.893,9.788,6.919,0,0,0,2.69e4,1.24e4,19.536,0.104,NaN,1995.985,NaN,0.048,3.229e6,1293.051,2.455,0.623,0.691,0.288,0.215,0.12,NaN,NaN,NaN,NaN,NaN,NaN,NaN,NaN,0.002,165,213.825,84,0,1.99,14.977,1012.836,340.375,0.01,0.029
1.55,3.691,16.495,38.142,16.586,38.353,0.388,0,0.388,0,1.734,4.009,22.175,120.893,9.788,6.875,0,0,0,2.687e4,1.237e4,19.527,0.104,NaN,1995.451,NaN,0.05,3.305e6,1294.89,2.569,0.623,0.69,0.288,0.215,0.12,NaN,NaN,NaN,NaN,NaN,NaN,NaN,NaN,0.002,165,213.825,84,0,2.023,14.976,1012.817,340.374,0.01,0.029
1.56,3.858,16.878,38.268,16.971,38.479,0.405,0,0.405,0,1.774,4.022,22.175,120.893,9.788,6.711,0,0,0,2.685e4,1.235e4,19.517,0.104,NaN,1994.914,NaN,0.051,3.38e6,1297.251,2.676,0.623,0.688,0.288,0.215,0.12,NaN,NaN,NaN,NaN,NaN,NaN,NaN,NaN,0.002,165,213.825,84,0,2.02,14.975,1012.798,340.374,0.01,0.029
1.57,4.029,17.26,38.288,17.356,38.499,0.423,0,0.423,0,1.814,4.024,22.175,120.893,9.788,6.553,0,0,0,2.683e4,1.233e4,19.508,0.104,NaN,1994.377,NaN,0.052,3.454e6,1296.778,2.786,0.623,0.685,0.288,0.215,0.12,NaN,NaN,NaN,NaN,NaN,NaN,NaN,NaN,0.002,165,213.825,84,0,2.016,14.974,1012.778,340.373,0.01,0.03
1.585,4.292,17.835,38.326,17.935,38.637,0.451,1.83e-5,0.451,0.002,1.887,4.891,22.175,120.893,9.788,6.351,0,0.038,9.429e-5,2.679e4,1.229e4,19.493,0.104,2136.718,1993.568,0.868,0.053,3.567e6,1298.654,2.957,0.624,0.682,0.288,0.215,0.12,1.447,1.256,-4.675e-4,0,0,0,0,5.13e-6,0.002,165,213.825,84,-0.002,2.011,14.972,1012.747,340.372,0.015,0.03
1.608,4.703,18.701,38.53,18.807,38.841,0.495,1.156e-4,0.495,0.013,1.998,4.906,22.175,120.893,9.788,6.036,0,0.1,6.497e-4,2.674e4,1.224e4,19.472,0.104,2142.371,1992.348,0.909,0.056,3.737e6,1301.804,3.222,0.624,0.678,0.288,0.215,0.12,1.362,1.239,-4.023e-4,0,0,0,0,3.186e-5,0.003,165,213.825,83.999,-0.012,1.992,14.969,1012.698,340.37,0.023,0.03
1.641,5.356,20.01,38.869,20.127,39.181,0.565,4.212e-4,0.565,0.043,2.164,4.937,22.175,120.893,9.788,5.517,0,0.202,0.003,2.666e4,1.216e4,19.439,0.104,2151.939,1990.501,0.978,0.06,3.992e6,1307.398,3.637,0.624,0.67,0.288,0.215,0.12,1.225,1.199,-4.595e-4,0,0,0,0,1.131e-4,0.003,165,213.825,83.995,-0.046,1.931,14.965,1012.622,340.368,0.034,0.03
1.691,6.406,21.969,39.292,22.102,39.606,0.68,0.001,0.68,0.103,2.412,4.977,22.175,120.893,9.788,4.9,0,0.372,0.008,2.654e4,1.204e4,19.39,0.104,2163.779,1987.731,1.067,0.066,4.376e6,1313.533,4.314,0.624,0.661,0.288,0.215,0.121,1.067,1.139,-9.393e-5,0,0,0,0,3.182e-4,0.003,165,213.825,83.985,-0.141,1.86,14.958,1012.499,340.364,0.05,0.031
1.741,7.554,23.958,39.873,24.106,40.189,0.806,0.002,0.806,0.174,2.664,5.029,22.175,120.893,9.788,4.588,0,0.566,0.016,2.642e4,1.192e4,19.34,0.104,2169.973,1984.915,1.122,0.071,4.768e6,1323.765,5.091,0.624,0.657,0.288,0.216,0.121,0.99,1.11,3.636e-4,0,0,0,0,6.219e-4,0.003,165,213.825,83.968,-0.293,1.884,14.951,1012.364,340.359,0.05,0.031
1.791,8.802,25.978,40.502,26.142,40.82,0.946,0.004,0.946,0.247,2.918,5.089,22.175,120.893,9.788,4.365,0,0.792,0.026,2.63e4,1.18e4,19.29,0.103,2174.502,1982.048,1.166,0.077,5.167e6,1335.184,5.955,0.624,0.655,0.288,0.216,0.121,0.935,1.089,2.19e-4,0,0,0,0,0.001,0.004,165,213.825,83.943,-0.51,1.937,14.943,1012.218,340.354,0.05,0.031
1.841,10.152,28.032,41.176,28.211,41.498,1.098,0.006,1.098,0.319,3.175,5.163,22.175,120.893,9.788,4.123,0,1.051,0.04,2.617e4,1.167e4,19.238,0.103,2179.508,1979.127,1.214,0.084,5.572e6,1347.677,6.897,0.624,0.652,0.288,0.216,0.121,0.876,1.063,-3.906e-4,0,0,0,0,0.002,0.004,165,213.825,83.909,-0.799,1.974,14.934,1012.059,340.349,0.05,0.031
1.891,11.606,30.126,41.981,30.321,42.309,1.264,0.009,1.264,0.387,3.437,5.257,22.175,120.893,9.788,3.952,0,1.345,0.056,2.605e4,1.155e4,19.185,0.103,2183.1,1976.143,1.254,0.09,5.986e6,1363.475,7.939,0.624,0.65,0.288,0.216,0.121,0.835,1.046,3.992e-5,0,0,0,0,0.002,0.004,165,213.825,83.863,-1.165,2.044,14.925,1011.889,340.343,0.05,0.031
1.941,13.166,32.253,42.641,32.465,42.977,1.442,0.011,1.442,0.448,3.704,5.367,22.175,120.893,9.788,3.561,0,1.673,0.085,2.593e4,1.143e4,19.132,0.103,2191.425,1973.105,1.323,0.096,6.403e6,1375.364,9.025,0.625,0.646,0.288,0.216,0.121,0.743,0.98,1.719e-4,0,0,0,0,0.003,0.004,165,213.825,83.805,-1.615,1.988,14.914,1011.706,340.337,0.05,0.032
1.991,14.832,34.417,43.388,34.646,43.734,1.634,0.014,1.634,0.499,3.977,5.491,22.175,120.893,9.788,3.321,0,2.023,0.113,2.58e4,1.13e4,19.077,0.103,2196.669,1970.006,1.374,0.102,6.83e6,1389.417,10.231,0.625,0.644,0.288,0.216,0.121,0.688,0.94,2.354e-5,0,0,0,0,0.004,0.005,165,213.825,83.733,-2.147,2.01,14.904,1011.51,340.33,0.05,0.032
2.041,16.609,36.631,44.383,36.877,44.741,1.84,0.017,1.84,0.538,4.257,5.649,22.175,120.893,9.788,3.183,3.116e-7,2.413,0.136,2.567e4,1.117e4,19.021,0.102,2199.77,1966.831,1.412,0.109,7.268e6,1409.711,11.566,0.625,0.642,0.288,0.216,0.122,0.656,0.921,-6.882e-6,0,0,0,0,0.005,0.005,165,213.825,83.645,-2.762,2.099,14.892,1011.302,340.323,0.05,0.032
2.091,18.496,38.888,45.258,39.153,45.63,2.06,0.02,2.06,0.563,4.546,5.82,22.175,120.893,9.788,2.998,4.872e-7,2.843,0.167,2.554e4,1.104e4,18.964,0.102,2203.953,1963.584,1.457,0.116,7.714e6,1426.753,12.999,0.625,0.641,0.287,0.216,0.122,0.614,0.889,3.642e-4,0,0,0,0,0.006,0.005,165,213.825,83.539,-3.461,2.165,14.88,1011.081,340.316,0.05,0.032
2.141,20.498,41.176,45.853,41.459,46.244,2.294,0.023,2.295,0.574,4.842,6.005,22.175,120.893,9.788,2.667,8.709e-7,3.297,0.231,2.541e4,1.091e4,18.906,0.102,2211.481,1960.282,1.522,0.122,8.163e6,1436.554,14.496,0.626,0.638,0.287,0.216,0.122,0.54,0.815,2.037e-4,0,0,0,0,0.007,0.006,165,213.825,83.413,-4.239,2.131,14.867,1010.846,340.308,0.05,0.032
2.191,22.615,43.497,46.53,43.8,46.943,2.544,0.025,2.544,0.569,5.148,6.212,22.175,120.893,9.788,2.454,7.88e-7,3.767,0.281,2.528e4,1.078e4,18.847,0.102,2216.476,1956.918,1.573,0.129,8.621e6,1448.404,16.134,0.626,0.637,0.287,0.216,0.122,0.494,0.768,-1.869e-4,0,0,0,0,0.008,0.006,165,213.825,83.266,-5.086,2.185,14.853,1010.598,340.3,0.05,0.033
2.241,24.849,45.854,47.245,46.178,47.684,2.809,0.027,2.81,0.545,5.466,6.456,22.175,120.893,9.788,2.229,1.394e-6,4.261,0.343,2.515e4,1.065e4,18.787,0.102,2221.826,1953.489,1.626,0.136,9.086e6,1461.178,17.884,0.626,0.635,0.287,0.217,0.122,0.445,0.714,1.419e-4,0,0,0,0,0.01,0.006,165,213.825,83.096,-5.991,2.238,14.838,1010.336,340.291,0.05,0.033
2.291,27.201,48.235,47.733,48.582,48.206,3.091,0.027,3.091,0.501,5.795,6.733,22.175,120.893,9.788,1.888,1.296e-6,4.749,0.481,2.501e4,1.051e4,18.726,0.101,2230.081,1950.006,1.697,0.143,9.554e6,1468.288,19.711,0.627,0.633,0.287,0.217,0.123,0.372,0.621,-1.751e-4,0,0,0,0,0.011,0.007,165,213.825,82.902,-6.943,2.197,14.823,1010.06,340.282,0.05,0.033
2.341,29.672,50.62,47.792,50.99,48.298,3.389,0.026,3.389,0.436,6.135,6.973,22.175,120.893,9.788,1.65,8.264e-7,5.219,0.589,2.488e4,1.038e4,18.664,0.101,2235.968,1946.495,1.754,0.151,1.003e7,1464.702,21.668,0.627,0.632,0.287,0.217,0.123,0.323,0.555,-2.479e-4,0,0,0,0,0.012,0.007,165,213.825,82.683,-7.92,2.251,14.807,1009.77,340.272,0.05,0.033
2.391,32.263,53.006,47.819,53.402,48.367,3.705,0.023,3.705,0.349,6.488,7.265,22.175,120.893,9.788,1.333,1.647e-6,5.654,0.828,2.475e4,1.025e4,18.602,0.101,2243.969,1942.956,1.824,0.158,1.049e7,1460.577,23.7,0.627,0.631,0.287,0.217,0.123,0.258,0.457,3.327e-4,0,0,0,0,0.013,0.007,165,213.825,82.44,-8.906,2.233,14.79,1009.466,340.262,0.05,0.033
2.441,34.973,55.396,47.887,55.819,48.485,4.038,0.017,4.038,0.239,6.856,7.587,22.175,120.893,9.788,1.065,0,6.019,1.105,2.461e4,1.011e4,18.539,0.101,2250.885,1939.385,1.888,0.165,1.097e7,1457.734,25.852,0.628,0.63,0.287,0.217,0.124,0.204,0.372,-1.382e-4,0,0,0,0,0.013,0.008,165,213.825,82.175,-9.88,2.265,14.773,1009.148,340.251,0.05,0.034
2.491,37.802,57.768,47.525,58.22,48.186,4.39,0.008,4.39,0.105,7.237,7.948,22.175,120.893,9.788,0.612,2.755e-6,5.959,2.438,2.448e4,9982.7,18.477,0.101,2262.844,1935.809,1.982,0.172,1.143e7,1444.705,28.041,0.628,0.629,0.287,0.217,0.124,0.115,0.217,-3.48e-4,0,0,0,0,0.012,0.008,165,213.825,81.888,-10.821,2.077,14.754,1008.816,340.24,0.05,0.034
2.541,40.749,60.136,47.425,60.619,48.15,4.762,-0.004,4.762,-0.053,7.638,8.326,22.175,120.893,9.788,0.36,4.611e-6,4.919,4.403,2.435e4,9851.919,18.414,0.1,2269.715,1932.21,2.045,0.179,1.19e7,1438.362,30.382,0.629,0.629,0.287,0.218,0.124,0.067,0.13,-1.624e-4,0,0,0,0,0.008,0.008,165,213.825,81.588,-11.701,2.062,14.735,1008.471,340.228,0.05,0.034
2.591,43.815,62.492,47.194,63.009,47.991,5.154,-0.021,5.154,-0.236,8.056,8.709,22.175,120.893,9.788,0.255,5.832e-6,-0.711,6.626,2.422e4,9721.977,18.351,0.1,2272.712,1928.595,2.086,0.186,1.236e7,1429.136,32.824,0.629,0.629,0.287,0.218,0.124,0.047,0.099,1.396e-5,0,0,0,0,-1.454e-4,0.009,165,213.825,81.277,-12.5,2.036,14.715,1008.111,340.216,0.05,0.034
2.641,46.999,64.859,47.415,65.413,48.297,5.567,-0.043,5.567,-0.443,8.496,9.19,22.175,120.893,9.788,0.432,8.885e-6,-5.035,4.207,2.409e4,9591.843,18.287,0.1,2268.053,1924.936,2.079,0.193,1.283e7,1431.244,35.393,0.63,0.63,0.287,0.218,0.125,0.081,0.176,1.203e-4,0,0,0,0,-0.007,0.009,165,213.825,80.964,-13.203,1.975,14.695,1007.738,340.204,0.05,0.034
2.691,50.301,67.232,47.533,67.826,48.494,6.002,-0.07,6.003,-0.672,8.957,9.607,22.175,120.893,9.788,0.545,5.89e-6,-5.48,3.115,2.396e4,9461.748,18.222,0.1,2265.176,1921.238,2.084,0.2,1.33e7,1430.823,38.094,0.63,0.631,0.287,0.218,0.125,0.103,0.221,2.272e-4,0,0,0,0,-0.007,0.009,165,213.825,80.657,-13.795,2.08,14.673,1007.351,340.191,0.05,0.035
2.741,53.722,69.619,47.795,70.256,48.84,6.461,-0.104,6.462,-0.922,9.44,10.052,22.175,120.893,9.788,0.673,5.866e-6,-5.451,2.378,2.383e4,9331.363,18.157,0.1,2261.92,1917.492,2.087,0.207,1.377e7,1433.995,40.919,0.631,0.632,0.287,0.219,0.126,0.127,0.273,1.386e-4,0,0,0,0,-0.007,0.01,165,213.825,80.36,-14.275,2.158,14.651,1006.949,340.177,0.05,0.035
2.791,57.263,72.027,48.232,72.711,49.365,6.944,-0.144,6.945,-1.191,9.946,10.518,22.175,120.893,9.788,0.793,4.441e-6,-5.12,1.902,2.37e4,9200.305,18.091,0.099,2258.928,1913.685,2.092,0.215,1.425e7,1441.415,43.881,0.631,0.633,0.287,0.219,0.126,0.151,0.321,-3.16e-5,0,0,0,0,-0.006,0.01,165,213.825,80.082,-14.647,2.221,14.628,1006.534,340.163,0.05,0.035
2.841,60.925,74.454,48.6,75.188,49.83,7.452,-0.192,7.454,-1.475,10.476,11.005,22.175,120.893,9.788,0.995,4.882e-6,-4.552,1.609,2.357e4,9068.707,18.023,0.099,2253.86,1909.819,2.085,0.222,1.473e7,1447.346,46.978,0.632,0.634,0.286,0.219,0.126,0.191,0.401,1.019e-4,0,0,0,0,-0.004,0.01,165,213.825,79.828,-14.911,2.135,14.604,1006.104,340.149,0.05,0.035
2.891,64.709,76.879,48.561,77.665,49.857,7.987,-0.247,7.99,-1.772,11.024,11.295,22.175,120.893,9.787,1.01,7.836e-6,-3.792,1.398,2.344e4,8937.495,17.955,0.099,2253.634,1905.922,2.107,0.229,1.521e7,1443.113,50.173,0.632,0.634,0.286,0.219,0.127,0.194,0.411,2.024e-4,0,0,0,0,-0.003,0.011,165,213.825,79.608,-15.063,2.242,14.579,1005.661,340.134,0.05,0.035
2.941,68.613,79.294,48.362,80.135,49.723,8.548,-0.31,8.554,-2.08,11.585,11.554,22.175,120.893,9.787,1.088,7.654e-6,-2.931,1.275,2.331e4,8806.998,17.887,0.099,2251.828,1902.002,2.12,0.236,1.569e7,1435.232,53.461,0.633,0.635,0.286,0.22,0.127,0.209,0.445,1.722e-4,0,0,0,0,-0.002,0.011,165,213.825,79.427,-15.108,2.206,14.554,1005.203,340.119,0.05,0.036
2.991,72.638,81.72,48.613,82.62,50.027,9.137,-0.382,9.145,-2.393,12.161,11.808,22.175,120.893,9.787,1.095,1.001e-5,-1.93,1.194,2.318e4,8676.274,17.818,0.099,2251.817,1898.031,2.144,0.244,1.617e7,1437.734,56.86,0.634,0.636,0.286,0.22,0.128,0.211,0.453,2.303e-4,0,0,0,0,-6.227e-4,0.011,165,213.825,79.291,-15.049,2.197,14.528,1004.731,340.103,0.05,0.036
3.041,76.786,84.172,49.112,85.132,50.561,9.755,-0.462,9.766,-2.71,12.752,12.017,22.175,120.893,9.787,1.046,1.271e-5,-0.879,1.144,2.305e4,8544.831,17.748,0.098,2253.265,1893.993,2.177,0.251,1.666e7,1445.651,60.387,0.634,0.636,0.286,0.22,0.128,0.201,0.438,-4.859e-4,0,0,0,0,-1.215e-4,0.012,165,213.825,79.205,-14.887,2.199,14.501,1004.244,340.086,0.05,0.036
