# Time (s),Altitude (m),Vertical velocity (m/s),Vertical acceleration (m/s²),Total velocity (m/s),Total acceleration (m/s²),Position East of launch (m),Position North of launch (m),Lateral distance (m),Lateral direction (°),Lateral velocity (m/s),Lateral acceleration (m/s²),Latitude (°),Longitude (°),Gravitational acceleration (m/s²),Angle of attack (°),Roll rate (°/s),Pitch rate (°/s),Yaw rate (°/s),Mass (g),Motor mass (g),Longitudinal moment of inertia (kg·m²),Rotational moment of inertia (kg·m²),CP location (mm),CG location (mm),Stability margin calibers (​),Mach number (​),Reynolds number (​),Thrust (N),Drag force (N),Drag coefficient (​),Axial drag coefficient (​),Friction drag coefficient (​),Pressure drag coefficient (​),Base drag coefficient (​),Normal force coefficient (​),Pitch moment coefficient (​),Yaw moment coefficient (​),Side force coefficient (​),Roll moment coefficient (​),Roll forcing coefficient (​),Roll damping coefficient (​),Pitch damping coefficient (​),Coriolis acceleration (m/s²),Reference length (mm),Reference area (cm²),Vertical orientation (zenith) (°),Lateral orientation (azimuth) (°),Wind velocity (m/s),Air temperature (°C),Air pressure (mbar),Speed of sound (m/s),Simulation time step (s),Computation time (s)
0.01,-4.757e-4,-0.095,-9.511,0.096,9.563,-5e-5,0,5e-5,180,0.01,1,22.175,120.893,9.788,87.32,0,0,0,2.8e4,1.35e4,19.963,0.106,NaN,2019.994,NaN,0.01,6.878e5,4.784,2.831e-5,0.702,1.757e-4,0.367,0.215,0.12,NaN,NaN,NaN,NaN,NaN,NaN,NaN,NaN,1.293e-5,165,213.825,84,0,3.513,15,1013.25,340.389,0.01,0.001
0.02,-4.761e-4,-0.095,-9.522,0.096,9.575,-5.004e-5,0,5.004e-5,180,0.01,1.001,22.175,120.893,9.788,87.304,0,0,0,2.8e4,1.35e4,19.963,0.106,NaN,2019.992,NaN,0.01,6.956e5,4.461,2.943e-5,0.701,1.786e-4,0.366,0.215,0.12,NaN,NaN,NaN,NaN,NaN,NaN,NaN,NaN,1.294e-5,165,213.825,84,0,3.553,15,1013.25,340.389,0.01,0.002
0.03,-4.763e-4,-0.095,-9.526,0.096,9.579,-5.006e-5,0,5.006e-5,180,0.01,1.001,22.175,120.893,9.788,87.287,0,0,0,2.8e4,1.35e4,19.963,0.106,NaN,2019.991,NaN,0.011,7.035e5,4.343,3.062e-5,0.7,1.817e-4,0.365,0.215,0.12,NaN,NaN,NaN,NaN,NaN,NaN,NaN,NaN,1.295e-5,165,213.825,84,0,3.593,15,1013.25,340.389,0.01,0.002
0.04,-4.765e-4,-0.095,-9.53,0.096,9.582,-5.008e-5,0,5.008e-5,180,0.01,1.002,22.175,120.893,9.788,87.271,0,0,0,2.8e4,1.35e4,19.963,0.106,NaN,2019.989,NaN,0.011,7.114e5,4.249,3.183e-5,0.699,1.847e-4,0.364,0.215,0.12,NaN,NaN,NaN,NaN,NaN,NaN,NaN,NaN,1.295e-5,165,213.825,84,0,3.633,15,1013.25,340.389,0.01,0.002
0.05,-4.761e-4,-0.095,-9.523,0.096,9.575,-5.005e-5,0,5.005e-5,180,0.01,1.001,22.175,120.893,9.788,87.253,0,0,0,2.8e4,1.35e4,19.963,0.106,NaN,2019.988,NaN,0.011,7.192e5,4.443,3.313e-5,0.699,1.881e-4,0.363,0.215,0.12,NaN,NaN,NaN,NaN,NaN,NaN,NaN,NaN,1.294e-5,165,213.825,84,0,3.673,15,1013.25,340.389,0.01,0.002
0.06,-4.757e-4,-0.095,-9.514,0.096,9.567,-5e-5,0,5e-5,180,0.01,1,22.175,120.893,9.788,87.251,0,0,0,2.8e4,1.35e4,19.963,0.106,NaN,2019.986,NaN,0.011,7.198e5,4.681,3.327e-5,0.699,1.885e-4,0.363,0.215,0.12,NaN,NaN,NaN,NaN,NaN,NaN,NaN,NaN,1.293e-5,165,213.825,84,0,3.676,15,1013.25,340.389,0.01,0.002
0.07,-4.762e-4,-0.095,-9.523,0.096,9.576,-5.005e-5,0,5.005e-5,180,0.01,1.001,22.175,120.893,9.788,87.251,0,0,0,2.8e4,1.35e4,19.963,0.106,NaN,2019.984,NaN,0.011,7.204e5,4.438,3.331e-5,0.698,1.885e-4,0.363,0.215,0.12,NaN,NaN,NaN,NaN,NaN,NaN,NaN,NaN,1.294e-5,165,213.825,84,0,3.679,15,1013.25,340.389,0.01,0.003
0.08,-4.761e-4,-0.095,-9.522,0.096,9.574,-5.004e-5,0,5.004e-5,180,0.01,1.001,22.175,120.893,9.788,87.25,0,0,0,2.8e4,1.35e4,19.963,0.106,NaN,2019.982,NaN,0.011,7.21e5,4.479,3.341e-5,0.698,1.888e-4,0.363,0.215,0.12,NaN,NaN,NaN,NaN,NaN,NaN,NaN,NaN,1.294e-5,165,213.825,84,0,3.682,15,1013.25,340.389,0.01,0.003
0.09,-4.759e-4,-0.095,-9.517,0.096,9.57,-5.002e-5,0,5.002e-5,180,0.01,1,22.175,120.893,9.788,87.248,0,0,0,2.8e4,1.35e4,19.963,0.106,NaN,2019.981,NaN,0.011,7.215e5,4.603,3.353e-5,0.698,1.891e-4,0.363,0.215,0.12,NaN,NaN,NaN,NaN,NaN,NaN,NaN,NaN,1.294e-5,165,213.825,84,0,3.685,15,1013.25,340.389,0.01,0.003
0.1,-4.764e-4,-0.095,-9.527,0.096,9.58,-5.007e-5,0,5.007e-5,180,0.01,1.001,22.175,120.893,9.788,87.248,0,0,0,2.8e4,1.35e4,19.963,0.106,NaN,2019.979,NaN,0.011,7.221e5,4.315,3.357e-5,0.698,1.89e-4,0.363,0.215,0.12,NaN,NaN,NaN,NaN,NaN,NaN,NaN,NaN,1.295e-5,165,213.825,84,0,3.688,15,1013.25,340.389,0.01,0.003
0.11,-4.762e-4,-0.095,-9.523,0.096,9.576,-5.005e-5,0,5.005e-5,180,0.01,1.001,22.175,120.893,9.788,87.276,0,0,0,2.8e4,1.35e4,19.963,0.106,NaN,2019.977,NaN,0.011,7.086e5,4.431,3.143e-5,0.7,1.838e-4,0.365,0.215,0.12,NaN,NaN,NaN,NaN,NaN,NaN,NaN,NaN,1.294e-5,165,213.825,84,0,3.619,15,1013.25,340.389,0.01,0.003
0.12,-4.762e-4,-0.095,-9.523,0.096,9.576,-5.005e-5,0,5.005e-5,180,0.01,1.001,22.175,120.893,9.788,87.305,0,0,0,2.8e4,1.35e4,19.962,0.106,NaN,2019.976,NaN,0.01,6.951e5,4.436,2.935e-5,0.701,1.784e-4,0.366,0.215,0.12,NaN,NaN,NaN,NaN,NaN,NaN,NaN,NaN,1.294e-5,165,213.825,84,0,3.55,15,1013.25,340.389,0.01,0.004
0.13,-4.758e-4,-0.095,-9.517,0.096,9.569,-5.001e-5,0,5.001e-5,180,0.01,1,22.175,120.893,9.788,87.335,0,0,0,2.8e4,1.35e4,19.962,0.106,NaN,2019.974,NaN,0.01,6.817e5,4.62,2.737e-5,0.703,1.73e-4,0.368,0.215,0.12,NaN,NaN,NaN,NaN,NaN,NaN,NaN,NaN,1.294e-5,165,213.825,84,0,3.482,15,1013.25,340.389,0.01,0.004
0.14,-4.762e-4,-0.095,-9.524,0.096,9.577,-5.005e-5,0,5.005e-5,180,0.01,1.001,22.175,120.893,9.788,87.368,0,0,0,2.8e4,1.35e4,19.962,0.106,NaN,2019.972,NaN,0.01,6.682e5,4.404,2.539e-5,0.704,1.671e-4,0.369,0.215,0.12,NaN,NaN,NaN,NaN,NaN,NaN,NaN,NaN,1.295e-5,165,213.825,84,0,3.413,15,1013.25,340.389,0.01,0.004
0.15,-4.761e-4,-0.095,-9.523,0.096,9.575,-5.004e-5,0,5.004e-5,180,0.01,1.001,22.175,120.893,9.788,87.4,0,0,0,2.8e4,1.35e4,19.962,0.106,NaN,2019.97,NaN,0.01,6.547e5,4.444,2.354e-5,0.706,1.613e-4,0.371,0.215,0.12,NaN,NaN,NaN,NaN,NaN,NaN,NaN,NaN,1.294e-5,165,213.825,84,0,3.344,15,1013.25,340.389,0.01,0.004
0.16,-4.758e-4,-0.095,-9.516,0.096,9.568,-5.001e-5,0,5.001e-5,180,0.01,1,22.175,120.893,9.788,87.402,0,0,0,2.8e4,1.35e4,19.962,0.106,NaN,2019.969,NaN,0.01,6.536e5,4.651,2.343e-5,0.706,1.611e-4,0.371,0.215,0.12,NaN,NaN,NaN,NaN,NaN,NaN,NaN,NaN,1.293e-5,165,213.825,84,0,3.339,15,1013.25,340.389,0.01,0.004
0.17,-4.765e-4,-0.095,-9.531,0.096,9.583,-5.009e-5,0,5.009e-5,180,0.01,1.002,22.175,120.893,9.788,87.407,0,0,0,2.8e4,1.35e4,19.962,0.106,NaN,2019.967,NaN,0.01,6.526e5,4.218,2.322e-5,0.706,1.601e-4,0.371,0.215,0.12,NaN,NaN,NaN,NaN,NaN,NaN,NaN,NaN,1.295e-5,165,213.825,84,0,3.333,15,1013.25,340.389,0.01,0.005
0.18,-4.765e-4,-0.095,-9.531,0.096,9.583,-5.009e-5,0,5.009e-5,180,0.01,1.002,22.175,120.893,9.788,87.41,0,0,0,2.8e4,1.35e4,19.962,0.106,NaN,2019.965,NaN,0.01,6.516e5,4.225,2.308e-5,0.706,1.597e-4,0.371,0.215,0.12,NaN,NaN,NaN,NaN,NaN,NaN,NaN,NaN,1.295e-5,165,213.825,84,0,3.328,15,1013.25,340.389,0.01,0.005
0.19,-4.764e-4,-0.095,-9.527,0.096,9.58,-5.007e-5,0,5.007e-5,180,0.01,1.001,22.175,120.893,9.788,87.412,0,0,0,2.8e4,1.35e4,19.962,0.106,NaN,2019.964,NaN,0.01,6.505e5,4.321,2.296e-5,0.706,1.593e-4,0.371,0.215,0.12,NaN,NaN,NaN,NaN,NaN,NaN,NaN,NaN,1.295e-5,165,213.825,84,0,3.323,15,1013.25,340.389,0.01,0.005
0.2,-4.766e-4,-0.095,-9.532,0.096,9.585,-5.01e-5,0,5.01e-5,180,0.01,1.002,22.175,120.893,9.788,87.415,0,0,0,2.8e4,1.35e4,19.962,0.106,NaN,2019.962,NaN,0.01,6.495e5,4.174,2.28e-5,0.706,1.587e-4,0.371,0.215,0.12,NaN,NaN,NaN,NaN,NaN,NaN,NaN,NaN,1.296e-5,165,213.825,84,0,3.317,15,1013.25,340.389,0.01,0.005
0.21,-4.763e-4,-0.095,-9.525,0.096,9.578,-5.006e-5,0,5.006e-5,180,0.01,1.001,22.175,120.893,9.788,87.422,0,0,0,2.8e4,1.35e4,19.962,0.106,NaN,2019.961,NaN,0.01,6.464e5,4.381,2.242e-5,0.707,1.576e-4,0.372,0.215,0.12,NaN,NaN,NaN,NaN,NaN,NaN,NaN,NaN,1.295e-5,165,213.825,84,0,3.302,15,1013.25,340.389,0.01,0.005
0.22,-4.758e-4,-0.095,-9.515,0.096,9.568,-5.001e-5,0,5.001e-5,180,0.01,1,22.175,120.893,9.788,87.428,0,0,0,2.8e4,1.35e4,19.962,0.106,NaN,2019.959,NaN,0.01,6.433e5,4.657,2.206e-5,0.707,1.565e-4,0.372,0.215,0.12,NaN,NaN,NaN,NaN,NaN,NaN,NaN,NaN,1.293e-5,165,213.825,84,0,3.286,15,1013.25,340.389,0.01,0.006
0.23,-4.762e-4,-0.095,-9.525,0.096,9.577,-5.005e-5,0,5.005e-5,180,0.01,1.001,22.175,120.893,9.788,87.438,0,0,0,2.8e4,1.35e4,19.962,0.106,NaN,2019.957,NaN,0.01,6.402e5,4.392,2.161e-5,0.707,1.549e-4,0.372,0.215,0.12,NaN,NaN,NaN,NaN,NaN,NaN,NaN,NaN,1.295e-5,165,213.825,84,0,3.27,15,1013.25,340.389,0.01,0.006
0.24,-4.76e-4,-0.095,-9.52,0.096,9.573,-5.003e-5,0,5.003e-5,180,0.01,1.001,22.175,120.893,9.788,87.445,0,0,0,2.8e4,1.35e4,19.962,0.106,NaN,2019.955,NaN,0.01,6.371e5,4.513,2.123e-5,0.708,1.536e-4,0.373,0.215,0.12,NaN,NaN,NaN,NaN,NaN,NaN,NaN,NaN,1.294e-5,165,213.825,84,0,3.254,15,1013.25,340.389,0.01,0.006
0.25,-4.759e-4,-0.095,-9.518,0.096,9.57,-5.002e-5,0,5.002e-5,180,0.01,1,22.175,120.893,9.788,87.453,0,0,0,2.8e4,1.35e4,19.962,0.106,NaN,2019.954,NaN,0.009,6.34e5,4.587,2.085e-5,0.708,1.523e-4,0.373,0.215,0.12,NaN,NaN,NaN,NaN,NaN,NaN,NaN,NaN,1.294e-5,165,213.825,84,0,3.238,15,1013.25,340.389,0.01,0.006
0.26,-4.762e-4,-0.095,-9.523,0.096,9.576,-5.005e-5,0,5.005e-5,180,0.01,1.001,22.175,120.893,9.788,87.454,0,0,0,2.8e4,1.35e4,19.962,0.106,NaN,2019.952,NaN,0.009,6.34e5,4.429,2.082e-5,0.708,1.521e-4,0.373,0.215,0.12,NaN,NaN,NaN,NaN,NaN,NaN,NaN,NaN,1.294e-5,165,213.825,84,0,3.238,15,1013.25,340.389,0.01,0.006
0.27,-4.76e-4,-0.095,-9.52,0.096,9.572,-5.003e-5,0,5.003e-5,180,0.01,1.001,22.175,120.893,9.788,87.453,0,0,0,2.8e4,1.35e4,19.962,0.106,NaN,2019.95,NaN,0.009,6.34e5,4.527,2.084e-5,0.708,1.522e-4,0.373,0.215,0.12,NaN,NaN,NaN,NaN,NaN,NaN,NaN,NaN,1.294e-5,165,213.825,84,0,3.238,15,1013.25,340.389,0.01,0.006
0.28,-4.761e-4,-0.095,-9.521,0.096,9.574,-5.004e-5,0,5.004e-5,180,0.01,1.001,22.175,120.893,9.788,87.454,0,0,0,2.8e4,1.35e4,19.962,0.106,NaN,2019.949,NaN,0.009,6.34e5,4.488,2.083e-5,0.708,1.522e-4,0.373,0.215,0.12,NaN,NaN,NaN,NaN,NaN,NaN,NaN,NaN,1.294e-5,165,213.825,84,0,3.238,15,1013.25,340.389,0.01,0.007
0.29,-4.758e-4,-0.095,-9.517,0.096,9.569,-5.001e-5,0,5.001e-5,180,0.01,1,22.175,120.893,9.788,87.453,0,0,0,2.8e4,1.35e4,19.962,0.106,NaN,2019.947,NaN,0.009,6.34e5,4.616,2.085e-5,0.708,1.523e-4,0.373,0.215,0.12,NaN,NaN,NaN,NaN,NaN,NaN,NaN,NaN,1.294e-5,165,213.825,84,0,3.238,15,1013.25,340.389,0.01,0.007
0.3,-4.76e-4,-0.095,-9.519,0.096,9.572,-5.003e-5,0,5.003e-5,180,0.01,1.001,22.175,120.893,9.788,87.453,0,0,0,2.8e4,1.35e4,19.962,0.106,NaN,2019.945,NaN,0.009,6.34e5,4.548,2.084e-5,0.708,1.523e-4,0.373,0.215,0.12,NaN,NaN,NaN,NaN,NaN,NaN,NaN,NaN,1.294e-5,165,213.825,84,0,3.238,15,1013.25,340.389,0.01,0.007
0.31,-4.757e-4,-0.095,-9.514,0.096,9.566,-5e-5,0,5e-5,180,0.01,1,22.175,120.893,9.788,87.462,0,0,0,2.8e4,1.35e4,19.962,0.106,NaN,2019.943,NaN,0.009,6.303e5,4.706,2.04e-5,0.709,1.508e-4,0.374,0.215,0.12,NaN,NaN,NaN,NaN,NaN,NaN,NaN,NaN,1.293e-5,165,213.825,84,0,3.22,15,1013.25,340.389,0.01,0.007
0.32,-4.763e-4,-0.095,-9.527,0.096,9.579,-5.007e-5,0,5.007e-5,180,0.01,1.001,22.175,120.893,9.788,87.475,0,0,0,2.8e4,1.35e4,19.962,0.106,NaN,2019.942,NaN,0.009,6.266e5,4.332,1.988e-5,0.709,1.487e-4,0.374,0.215,0.12,NaN,NaN,NaN,NaN,NaN,NaN,NaN,NaN,1.295e-5,165,213.825,84,0,3.201,15,1013.25,340.389,0.01,0.007
0.33,-4.761e-4,-0.095,-9.521,0.096,9.574,-5.004e-5,0,5.004e-5,180,0.01,1.001,22.175,120.893,9.788,87.484,0,0,0,2.8e4,1.35e4,19.962,0.106,NaN,2019.94,NaN,0.009,6.23e5,4.483,1.945e-5,0.71,1.472e-4,0.374,0.215,0.12,NaN,NaN,NaN,NaN,NaN,NaN,NaN,NaN,1.294e-5,165,213.825,84,0,3.182,15,1013.25,340.389,0.01,0.008
0.34,-4.759e-4,-0.095,-9.518,0.096,9.571,-5.002e-5,0,5.002e-5,180,0.01,1,22.175,120.893,9.788,87.493,0,0,0,2.8e4,1.35e4,19.962,0.106,NaN,2019.938,NaN,0.009,6.193e5,4.57,1.902e-5,0.71,1.456e-4,0.375,0.215,0.12,NaN,NaN,NaN,NaN,NaN,NaN,NaN,NaN,1.294e-5,165,213.825,84,0,3.163,15,1013.25,340.389,0.01,0.008
0.35,-4.762e-4,-0.095,-9.524,0.096,9.576,-5.005e-5,0,5.005e-5,180,0.01,1.001,22.175,120.893,9.788,87.505,0,0,0,2.8e4,1.35e4,19.962,0.106,NaN,2019.936,NaN,0.009,6.156e5,4.419,1.855e-5,0.71,1.438e-4,0.375,0.215,0.12,NaN,NaN,NaN,NaN,NaN,NaN,NaN,NaN,1.294e-5,165,213.825,84,0,3.145,15,1013.25,340.389,0.01,0.008
0.36,-4.764e-4,-0.095,-9.527,0.096,9.58,-5.007e-5,0,5.007e-5,180,0.01,1.001,22.175,120.893,9.788,87.455,0,0,0,2.8e4,1.35e4,19.962,0.106,NaN,2019.935,NaN,0.009,6.339e5,4.317,2.079e-5,0.708,1.519e-4,0.373,0.215,0.12,NaN,NaN,NaN,NaN,NaN,NaN,NaN,NaN,1.295e-5,165,213.825,84,0,3.238,15,1013.25,340.389,0.01,0.008
0.37,-4.76e-4,-0.095,-9.52,0.096,9.573,-5.003e-5,0,5.003e-5,180,0.01,1.001,22.175,120.893,9.788,87.406,0,0,0,2.8e4,1.35e4,19.962,0.106,NaN,2019.933,NaN,0.01,6.521e5,4.522,2.321e-5,0.706,1.603e-4,0.371,0.215,0.12,NaN,NaN,NaN,NaN,NaN,NaN,NaN,NaN,1.294e-5,165,213.825,84,0,3.331,15,1013.25,340.389,0.01,0.008
0.38,-4.762e-4,-0.095,-9.523,0.096,9.576,-5.005e-5,0,5.005e-5,180,0.01,1.001,22.175,120.893,9.788,87.362,0,0,0,2.8e4,1.35e4,19.962,0.106,NaN,2019.931,NaN,0.01,6.704e5,4.433,2.571e-5,0.704,1.68e-4,0.369,0.215,0.12,NaN,NaN,NaN,NaN,NaN,NaN,NaN,NaN,1.294e-5,165,213.825,84,0,3.424,15,1013.25,340.389,0.01,0.008
0.39,-4.757e-4,-0.095,-9.515,0.096,9.567,-5e-5,0,5e-5,180,0.01,1,22.175,120.893,9.788,87.318,0,0,0,2.8e4,1.35e4,19.962,0.106,NaN,2019.93,NaN,0.01,6.886e5,4.673,2.841e-5,0.702,1.759e-4,0.367,0.215,0.12,NaN,NaN,NaN,NaN,NaN,NaN,NaN,NaN,1.293e-5,165,213.825,84,0,3.517,15,1013.25,340.389,0.01,0.009
0.4,-4.755e-4,-0.095,-9.51,0.096,9.562,-4.998e-5,0,4.998e-5,180,0.01,1,22.175,120.893,9.788,87.277,0,0,0,2.8e4,1.35e4,19.962,0.106,NaN,2019.928,NaN,0.011,7.069e5,4.812,3.123e-5,0.7,1.835e-4,0.365,0.215,0.12,NaN,NaN,NaN,NaN,NaN,NaN,NaN,NaN,1.293e-5,165,213.825,84,0,3.61,15,1013.25,340.389,0.01,0.009
0.41,-4.759e-4,-0.095,-9.518,0.096,9.57,-5.002e-5,0,5.002e-5,180,0.01,1,22.175,120.893,9.788,87.28,0,0,0,2.8e4,1.35e4,19.962,0.106,NaN,2019.926,NaN,0.011,7.061e5,4.595,3.107e-5,0.7,1.83e-4,0.365,0.215,0.12,NaN,NaN,NaN,NaN,NaN,NaN,NaN,NaN,1.294e-5,165,213.825,84,0,3.606,15,1013.25,340.389,0.01,0.009
0.42,-4.758e-4,-0.095,-9.516,0.096,9.568,-5.001e-5,0,5.001e-5,180,0.01,1,22.175,120.893,9.788,87.282,0,0,0,2.8e4,1.35e4,19.962,0.106,NaN,2019.924,NaN,0.011,7.053e5,4.638,3.096e-5,0.7,1.827e-4,0.365,0.215,0.12,NaN,NaN,NaN,NaN,NaN,NaN,NaN,NaN,1.293e-5,165,213.825,84,0,3.602,15,1013.25,340.389,0.01,0.009
0.43,-4.755e-4,-0.095,-9.51,0.096,9.562,-4.998e-5,0,4.998e-5,180,0.01,1,22.175,120.893,9.788,87.282,0,0,0,2.8e4,1.35e4,19.962,0.106,NaN,2019.922,NaN,0.011,7.046e5,4.811,3.087e-5,0.7,1.826e-4,0.365,0.215,0.12,NaN,NaN,NaN,NaN,NaN,NaN,NaN,NaN,1.293e-5,165,213.825,84,0,3.598,15,1013.25,340.389,0.01,0.009
0.44,-4.753e-4,-0.095,-9.506,0.096,9.558,-4.996e-5,0,4.996e-5,180,0.01,0.999,22.175,120.893,9.788,87.283,0,0,0,2.8e4,1.35e4,19.962,0.106,NaN,2019.921,NaN,0.011,7.038e5,4.919,3.077e-5,0.7,1.824e-4,0.365,0.215,0.12,NaN,NaN,NaN,NaN,NaN,NaN,NaN,NaN,1.292e-5,165,213.825,84,0,3.595,15,1013.25,340.389,0.01,0.01
0.45,-4.759e-4,-0.095,-9.518,0.096,9.57,-5.002e-5,0,5.002e-5,180,0.01,1,22.175,120.893,9.788,87.287,0,0,0,2.8e4,1.35e4,19.961,0.106,NaN,2019.919,NaN,0.011,7.03e5,4.583,3.059e-5,0.7,1.817e-4,0.365,0.215,0.12,NaN,NaN,NaN,NaN,NaN,NaN,NaN,NaN,1.294e-5,165,213.825,84,0,3.591,15,1013.25,340.389,0.01,0.01
0.46,-4.762e-4,-0.095,-9.523,0.096,9.576,-5.005e-5,0,5.005e-5,180,0.01,1.001,22.175,120.893,9.788,87.283,0,0,0,2.8e4,1.35e4,19.961,0.106,NaN,2019.917,NaN,0.011,7.053e5,4.429,3.091e-5,0.7,1.825e-4,0.365,0.215,0.12,NaN,NaN,NaN,NaN,NaN,NaN,NaN,NaN,1.294e-5,165,213.825,84,0,3.602,15,1013.25,340.389,0.01,0.01
0.47,-4.761e-4,-0.095,-9.523,0.096,9.575,-5.004e-5,0,5.004e-5,180,0.01,1.001,22.175,120.893,9.788,87.278,0,0,0,2.8e4,1.35e4,19.961,0.106,NaN,2019.915,NaN,0.011,7.075e5,4.45,3.126e-5,0.7,1.834e-4,0.365,0.215,0.12,NaN,NaN,NaN,NaN,NaN,NaN,NaN,NaN,1.294e-5,165,213.825,84,0,3.613,15,1013.25,340.389,0.01,0.01
0.48,-4.753e-4,-0.095,-9.507,0.096,9.559,-4.996e-5,0,4.996e-5,180,0.01,0.999,22.175,120.893,9.788,87.271,0,0,0,2.8e4,1.35e4,19.961,0.106,NaN,2019.914,NaN,0.011,7.097e5,4.905,3.169e-5,0.7,1.848e-4,0.364,0.215,0.12,NaN,NaN,NaN,NaN,NaN,NaN,NaN,NaN,1.292e-5,165,213.825,84,0,3.625,15,1013.25,340.389,0.01,0.01
0.49,-4.756e-4,-0.095,-9.512,0.096,9.565,-4.999e-5,0,4.999e-5,180,0.01,1,22.175,120.893,9.788,87.267,0,0,0,2.8e4,1.35e4,19.961,0.106,NaN,2019.912,NaN,0.011,7.119e5,4.746,3.201e-5,0.699,1.855e-4,0.364,0.215,0.12,NaN,NaN,NaN,NaN,NaN,NaN,NaN,NaN,1.293e-5,165,213.825,84,0,3.636,15,1013.25,340.389,0.01,0.01
0.5,-4.761e-4,-0.095,-9.522,0.096,9.574,-5.004e-5,0,5.004e-5,180,0.01,1.001,22.175,120.893,9.788,87.264,0,0,0,2.8e4,1.35e4,19.961,0.106,NaN,2019.91,NaN,0.011,7.142e5,4.47,3.231e-5,0.699,1.861e-4,0.364,0.215,0.12,NaN,NaN,NaN,NaN,NaN,NaN,NaN,NaN,1.294e-5,165,213.825,84,0,3.647,15,1013.25,340.389,0.01,0.011
0.51,-4.758e-4,-0.095,-9.515,0.096,9.568,-5.001e-5,0,5.001e-5,180,0.01,1,22.175,120.893,9.788,87.237,0,0,0,2.8e4,1.35e4,19.961,0.106,NaN,2019.908,NaN,0.011,7.264e5,4.657,3.433e-5,0.698,1.911e-4,0.363,0.215,0.12,NaN,NaN,NaN,NaN,NaN,NaN,NaN,NaN,1.293e-5,165,213.825,84,0,3.71,15,1013.25,340.389,0.01,0.011
0.52,-4.75e-4,-0.095,-9.499,0.096,9.551,-4.992e-5,0,4.992e-5,180,0.01,0.998,22.175,120.893,9.788,87.21,0,0,0,2.8e4,1.35e4,19.961,0.106,NaN,2019.906,NaN,0.011,7.386e5,5.115,3.648e-5,0.697,1.963e-4,0.362,0.215,0.12,NaN,NaN,NaN,NaN,NaN,NaN,NaN,NaN,1.291e-5,165,213.825,84,0,3.772,15,1013.25,340.389,0.01,0.011
0.53,-4.746e-4,-0.095,-9.491,0.095,9.543,-4.988e-5,0,4.988e-5,180,0.01,0.998,22.175,120.893,9.788,87.186,0,0,0,2.8e4,1.35e4,19.961,0.106,NaN,2019.904,NaN,0.011,7.509e5,5.339,3.863e-5,0.695,2.012e-4,0.36,0.215,0.12,NaN,NaN,NaN,NaN,NaN,NaN,NaN,NaN,1.29e-5,165,213.825,84,0,3.835,15,1013.25,340.389,0.01,0.011
0.54,-4.758e-4,-0.095,-9.516,0.096,9.568,-5.001e-5,0,5.001e-5,180,0.01,1,22.175,120.893,9.788,87.166,0,0,0,2.8e4,1.35e4,19.961,0.106,NaN,2019.903,NaN,0.011,7.631e5,4.638,4.065e-5,0.694,2.05e-4,0.359,0.215,0.12,NaN,NaN,NaN,NaN,NaN,NaN,NaN,NaN,1.293e-5,165,213.825,84,0,3.897,15,1013.25,340.389,0.01,0.011
0.55,-4.755e-4,-0.095,-9.51,0.096,9.562,-4.997e-5,0,4.997e-5,180,0.01,0.999,22.175,120.893,9.788,87.143,0,0,0,2.8e4,1.35e4,19.961,0.106,NaN,2019.901,NaN,0.012,7.754e5,4.82,4.291e-5,0.693,2.096e-4,0.358,0.215,0.12,NaN,NaN,NaN,NaN,NaN,NaN,NaN,NaN,1.293e-5,165,213.825,84,0,3.959,15,1013.25,340.389,0.01,0.011
0.56,-4.749e-4,-0.095,-9.498,0.096,9.55,-4.991e-5,0,4.991e-5,180,0.01,0.998,22.175,120.893,9.788,87.143,0,0,0,2.8e4,1.35e4,19.961,0.106,NaN,2019.899,NaN,0.012,7.748e5,5.14,4.289e-5,0.693,2.098e-4,0.358,0.215,0.12,NaN,NaN,NaN,NaN,NaN,NaN,NaN,NaN,1.291e-5,165,213.825,84,0,3.957,15,1013.25,340.389,0.01,0.012
0.57,-4.749e-4,-0.095,-9.497,0.095,9.55,-4.991e-5,0,4.991e-5,180,0.01,0.998,22.175,120.893,9.788,87.144,0,0,0,2.8e4,1.35e4,19.961,0.106,NaN,2019.897,NaN,0.012,7.743e5,5.164,4.279e-5,0.693,2.096e-4,0.358,0.215,0.12,NaN,NaN,NaN,NaN,NaN,NaN,NaN,NaN,1.291e-5,165,213.825,84,0,3.954,15,1013.25,340.389,0.01,0.012
0.58,-4.749e-4,-0.095,-9.499,0.096,9.551,-4.992e-5,0,4.992e-5,180,0.01,0.998,22.175,120.893,9.788,87.145,0,0,0,2.8e4,1.35e4,19.961,0.106,NaN,2019.895,NaN,0.012,7.737e5,5.125,4.268e-5,0.693,2.094e-4,0.358,0.215,0.12,NaN,NaN,NaN,NaN,NaN,NaN,NaN,NaN,1.291e-5,165,213.825,84,0,3.951,15,1013.25,340.389,0.01,0.012
0.59,-4.746e-4,-0.095,-9.493,0.095,9.545,-4.989e-5,0,4.989e-5,180,0.01,0.998,22.175,120.893,9.788,87.145,0,0,0,2.8e4,1.35e4,19.961,0.106,NaN,2019.893,NaN,0.012,7.732e5,5.296,4.262e-5,0.693,2.094e-4,0.358,0.215,0.12,NaN,NaN,NaN,NaN,NaN,NaN,NaN,NaN,1.29e-5,165,213.825,84,0,3.948,15,1013.25,340.389,0.01,0.012
0.6,-4.741e-4,-0.095,-9.483,0.095,9.535,-4.984e-5,0,4.984e-5,180,0.01,0.997,22.175,120.893,9.788,87.144,0,0,0,2.8e4,1.349e4,19.961,0.106,NaN,2019.891,NaN,0.012,7.726e5,5.567,4.258e-5,0.693,2.095e-4,0.358,0.215,0.12,NaN,NaN,NaN,NaN,NaN,NaN,NaN,NaN,1.289e-5,165,213.825,84,0,3.945,15,1013.25,340.389,0.01,0.012
0.61,-4.739e-4,-0.095,-9.478,0.095,9.53,-4.981e-5,0,4.981e-5,180,0.01,0.996,22.175,120.893,9.788,87.149,0,0,0,2.8e4,1.349e4,19.961,0.106,NaN,2019.889,NaN,0.012,7.694e5,5.717,4.203e-5,0.694,2.085e-4,0.359,0.215,0.12,NaN,NaN,NaN,NaN,NaN,NaN,NaN,NaN,1.288e-5,165,213.825,84,0,3.929,15,1013.25,340.389,0.01,0.013
0.62,-4.745e-4,-0.095,-9.49,0.095,9.542,-4.987e-5,0,4.987e-5,180,0.01,0.997,22.175,120.893,9.788,87.157,0,0,0,2.8e4,1.349e4,19.961,0.106,NaN,2019.887,NaN,0.011,7.662e5,5.366,4.137e-5,0.694,2.069e-4,0.359,0.215,0.12,NaN,NaN,NaN,NaN,NaN,NaN,NaN,NaN,1.29e-5,165,213.825,84,0,3.913,15,1013.25,340.389,0.01,0.013
0.63,-4.737e-4,-0.095,-9.473,0.095,9.525,-4.978e-5,0,4.978e-5,180,0.01,0.996,22.175,120.893,9.788,87.16,0,0,0,2.799e4,1.349e4,19.961,0.106,NaN,2019.884,NaN,0.011,7.63e5,5.844,4.09e-5,0.694,2.063e-4,0.359,0.215,0.12,NaN,NaN,NaN,NaN,NaN,NaN,NaN,NaN,1.288e-5,165,213.825,84,0,3.897,15,1013.25,340.389,0.01,0.013
0.64,-4.738e-4,-0.095,-9.475,0.095,9.527,-4.979e-5,0,4.979e-5,180,0.01,0.996,22.175,120.893,9.788,87.166,0,0,0,2.799e4,1.349e4,19.961,0.106,NaN,2019.882,NaN,0.011,7.598e5,5.786,4.031e-5,0.695,2.051e-4,0.359,0.215,0.12,NaN,NaN,NaN,NaN,NaN,NaN,NaN,NaN,1.288e-5,165,213.825,84,0,3.88,15,1013.25,340.389,0.01,0.013
0.65,-4.734e-4,-0.095,-9.469,0.095,9.521,-4.976e-5,0,4.976e-5,180,0.01,0.995,22.175,120.893,9.788,87.171,0,0,0,2.799e4,1.349e4,19.961,0.106,NaN,2019.88,NaN,0.011,7.566e5,5.968,3.978e-5,0.695,2.041e-4,0.36,0.215,0.12,NaN,NaN,NaN,NaN,NaN,NaN,NaN,NaN,1.287e-5,165,213.825,84,0,3.864,15,1013.25,340.389,0.01,0.013
0.66,-4.724e-4,-0.094,-9.448,0.095,9.5,-4.965e-5,0,4.965e-5,180,0.01,0.993,22.175,120.893,9.788,87.169,0,0,0,2.799e4,1.349e4,19.961,0.106,NaN,2019.877,NaN,0.011,7.564e5,6.551,3.988e-5,0.695,2.047e-4,0.36,0.215,0.12,NaN,NaN,NaN,NaN,NaN,NaN,NaN,NaN,1.284e-5,165,213.825,84,0,3.863,15,1013.25,340.389,0.01,0.013
0.67,-4.721e-4,-0.094,-9.442,0.095,9.494,-4.962e-5,0,4.962e-5,180,0.01,0.992,22.175,120.893,9.788,87.168,0,0,0,2.799e4,1.349e4,19.961,0.106,NaN,2019.875,NaN,0.011,7.563e5,6.72,3.989e-5,0.695,2.048e-4,0.36,0.215,0.12,NaN,NaN,NaN,NaN,NaN,NaN,NaN,NaN,1.283e-5,165,213.825,84,0,3.862,15,1013.25,340.389,0.01,0.014
0.68,-4.711e-4,-0.094,-9.421,0.095,9.473,-4.951e-5,0,4.951e-5,180,0.01,0.99,22.175,120.893,9.788,87.165,0,0,0,2.799e4,1.349e4,19.961,0.106,NaN,2019.872,NaN,0.011,7.561e5,7.299,3.998e-5,0.695,2.054e-4,0.36,0.215,0.12,NaN,NaN,NaN,NaN,NaN,NaN,NaN,NaN,1.281e-5,165,213.825,84,0,3.861,15,1013.25,340.389,0.01,0.014
0.69,-4.708e-4,-0.094,-9.415,0.095,9.467,-4.948e-5,0,4.948e-5,180,0.01,0.99,22.175,120.893,9.788,87.165,0,0,0,2.799e4,1.349e4,19.961,0.106,NaN,2019.869,NaN,0.011,7.559e5,7.467,3.999e-5,0.695,2.055e-4,0.36,0.215,0.12,NaN,NaN,NaN,NaN,NaN,NaN,NaN,NaN,1.28e-5,165,213.825,84,0,3.86,15,1013.25,340.389,0.01,0.014
0.7,-4.699e-4,-0.094,-9.398,0.095,9.45,-4.939e-5,0,4.939e-5,180,0.01,0.988,22.175,120.893,9.788,87.163,0,0,0,2.799e4,1.349e4,19.961,0.106,NaN,2019.866,NaN,0.011,7.557e5,7.951,4.006e-5,0.695,2.06e-4,0.36,0.215,0.12,NaN,NaN,NaN,NaN,NaN,NaN,NaN,NaN,1.277e-5,165,213.825,84,0,3.859,15,1013.25,340.389,0.01,0.014
0.71,-4.682e-4,-0.094,-9.363,0.094,9.415,-4.921e-5,0,4.921e-5,180,0.01,0.984,22.175,120.893,9.788,87.153,0,0,0,2.799e4,1.349e4,19.96,0.106,NaN,2019.863,NaN,0.011,7.579e5,8.938,4.068e-5,0.695,2.079e-4,0.36,0.215,0.12,NaN,NaN,NaN,NaN,NaN,NaN,NaN,NaN,1.273e-5,165,213.825,84,0,3.87,15,1013.25,340.389,0.01,0.014
0.72,-4.676e-4,-0.094,-9.352,0.094,9.403,-4.915e-5,0,4.915e-5,180,0.01,0.983,22.175,120.893,9.788,87.148,0,0,0,2.799e4,1.349e4,19.96,0.106,NaN,2019.859,NaN,0.011,7.601e5,9.255,4.114e-5,0.695,2.091e-4,0.359,0.215,0.12,NaN,NaN,NaN,NaN,NaN,NaN,NaN,NaN,1.271e-5,165,213.825,84,0,3.882,15,1013.25,340.389,0.01,0.014
0.73,-4.659e-4,-0.093,-9.319,0.094,9.37,-4.897e-5,0,4.897e-5,180,0.01,0.979,22.175,120.893,9.788,87.139,0,0,0,2.799e4,1.349e4,19.96,0.106,NaN,2019.855,NaN,0.011,7.623e5,10.185,4.174e-5,0.694,2.11e-4,0.359,0.215,0.12,NaN,NaN,NaN,NaN,NaN,NaN,NaN,NaN,1.267e-5,165,213.825,84,0,3.893,15,1013.25,340.389,0.01,0.015
0.74,-4.64e-4,-0.093,-9.28,0.093,9.331,-4.877e-5,0,4.877e-5,180,0.01,0.975,22.175,120.893,9.788,87.129,0,0,0,2.799e4,1.349e4,19.96,0.106,NaN,2019.851,NaN,0.011,7.645e5,11.275,4.239e-5,0.694,2.13e-4,0.359,0.215,0.12,NaN,NaN,NaN,NaN,NaN,NaN,NaN,NaN,1.261e-5,165,213.825,84,0,3.904,15,1013.25,340.389,0.01,0.015
0.75,-4.621e-4,-0.092,-9.243,0.093,9.294,-4.857e-5,0,4.857e-5,180,0.01,0.971,22.175,120.893,9.788,87.12,0,0,0,2.799e4,1.349e4,19.96,0.106,NaN,2019.846,NaN,0.011,7.666e5,12.322,4.304e-5,0.694,2.15e-4,0.359,0.215,0.12,NaN,NaN,NaN,NaN,NaN,NaN,NaN,NaN,1.256e-5,165,213.825,84,0,3.915,15,1013.25,340.389,0.01,0.015
0.76,-4.598e-4,-0.092,-9.195,0.092,9.246,-4.832e-5,0,4.832e-5,180,0.01,0.966,22.175,120.893,9.788,87.127,0,0,0,2.799e4,1.349e4,19.96,0.106,NaN,2019.841,NaN,0.011,7.588e5,13.663,4.19e-5,0.695,2.137e-4,0.36,0.215,0.12,NaN,NaN,NaN,NaN,NaN,NaN,NaN,NaN,1.25e-5,165,213.825,84,0,3.875,15,1013.25,340.389,0.01,0.015
0.77,-4.586e-4,-0.092,-9.173,0.092,9.223,-4.82e-5,0,4.82e-5,180,0.01,0.964,22.175,120.893,9.788,87.138,0,0,0,2.799e4,1.349e4,19.96,0.106,NaN,2019.836,NaN,0.011,7.509e5,14.302,4.061e-5,0.695,2.115e-4,0.36,0.215,0.12,NaN,NaN,NaN,NaN,NaN,NaN,NaN,NaN,1.247e-5,165,213.825,84,0,3.834,15,1013.25,340.389,0.01,0.015
0.78,-4.56e-4,-0.091,-9.12,0.092,9.171,-4.793e-5,0,4.793e-5,180,0.01,0.959,22.175,120.893,9.788,87.145,0,0,0,2.799e4,1.349e4,19.96,0.106,NaN,2019.83,NaN,0.011,7.43e5,15.77,3.954e-5,0.696,2.103e-4,0.361,0.215,0.12,NaN,NaN,NaN,NaN,NaN,NaN,NaN,NaN,1.24e-5,165,213.825,84,0,3.794,15,1013.25,340.389,0.01,0.016
0.79,-4.54e-4,-0.091,-9.079,0.091,9.129,-4.771e-5,0,4.771e-5,180,0.01,0.954,22.175,120.893,9.788,87.153,0,0,0,2.799e4,1.349e4,19.96,0.106,NaN,2019.823,NaN,0.011,7.351e5,16.927,3.84e-5,0.697,2.087e-4,0.362,0.215,0.12,NaN,NaN,NaN,NaN,NaN,NaN,NaN,NaN,1.234e-5,165,213.825,84,0,3.754,15,1013.25,340.389,0.01,0.016
0.8,-4.518e-4,-0.09,-9.037,0.091,9.087,-4.749e-5,0,4.749e-5,180,0.009,0.95,22.175,120.893,9.788,87.162,0,0,0,2.799e4,1.349e4,19.96,0.106,NaN,2019.816,NaN,0.011,7.272e5,18.121,3.729e-5,0.698,2.071e-4,0.363,0.215,0.12,NaN,NaN,NaN,NaN,NaN,NaN,NaN,NaN,1.228e-5,165,213.825,84,0,3.714,15,1013.25,340.389,0.01,0.016
0.81,-4.495e-4,-0.09,-8.99,0.09,9.04,-4.725e-5,0,4.725e-5,180,0.009,0.945,22.175,120.893,9.788,87.128,0,0,0,2.799e4,1.349e4,19.96,0.106,NaN,2019.809,NaN,0.011,7.412e5,19.438,4.003e-5,0.696,2.14e-4,0.361,0.215,0.12,NaN,NaN,NaN,NaN,NaN,NaN,NaN,NaN,1.222e-5,165,213.825,84,0,3.785,15,1013.25,340.389,0.01,0.016
0.82,-4.482e-4,-0.09,-8.965,0.09,9.014,-4.711e-5,0,4.711e-5,180,0.009,0.942,22.175,120.893,9.788,87.099,0,0,0,2.799e4,1.349e4,19.959,0.106,NaN,2019.801,NaN,0.011,7.551e5,20.155,4.272e-5,0.695,2.2e-4,0.36,0.215,0.12,NaN,NaN,NaN,NaN,NaN,NaN,NaN,NaN,1.218e-5,165,213.825,84,0,3.856,15,1013.25,340.389,0.01,0.016
0.83,-4.434e-4,-0.089,-8.867,0.089,8.916,-4.66e-5,0,4.66e-5,180,0.009,0.932,22.175,120.893,9.788,87.061,0,0,0,2.799e4,1.349e4,19.959,0.106,NaN,2019.793,NaN,0.012,7.69e5,22.899,4.6e-5,0.694,2.284e-4,0.359,0.215,0.12,NaN,NaN,NaN,NaN,NaN,NaN,NaN,NaN,1.205e-5,165,213.825,84,0,3.927,15,1013.25,340.389,0.01,0.016
0.84,-4.345e-4,-0.087,-8.69,0.087,8.738,-4.567e-5,0,4.567e-5,180,0.009,0.913,22.175,120.893,9.788,87.012,0,0,0,2.799e4,1.349e4,19.959,0.106,NaN,2019.782,NaN,0.012,7.83e5,27.886,4.997e-5,0.692,2.393e-4,0.357,0.215,0.12,NaN,NaN,NaN,NaN,NaN,NaN,NaN,NaN,1.181e-5,165,213.825,84,0,3.998,15,1013.25,340.389,0.01,0.017
0.85,-4.271e-4,-0.085,-8.542,0.086,8.589,-4.489e-5,0,4.489e-5,180,0.009,0.898,22.175,120.893,9.788,86.969,0,0,0,2.799e4,1.349e4,19.959,0.106,NaN,2019.77,NaN,0.012,7.969e5,32.036,5.389e-5,0.691,2.492e-4,0.356,0.215,0.12,NaN,NaN,NaN,NaN,NaN,NaN,NaN,NaN,1.161e-5,165,213.825,84,0,4.069,15,1013.25,340.389,0.01,0.017
0.86,-4.194e-4,-0.084,-8.388,0.084,8.434,-4.408e-5,0,4.408e-5,180,0.009,0.882,22.175,120.893,9.788,86.956,0,0,0,2.799e4,1.349e4,19.959,0.106,NaN,2019.756,NaN,0.012,7.913e5,36.392,5.387e-5,0.692,2.527e-4,0.356,0.215,0.12,NaN,NaN,NaN,NaN,NaN,NaN,NaN,NaN,1.14e-5,165,213.825,84,0,4.04,15,1013.25,340.389,0.01,0.017
0.87,-4.119e-4,-0.082,-8.239,0.083,8.284,-4.33e-5,0,4.33e-5,180,0.009,0.866,22.175,120.893,9.788,86.943,0,0,0,2.799e4,1.349e4,19.958,0.106,NaN,2019.74,NaN,0.012,7.856e5,40.581,5.381e-5,0.692,2.56e-4,0.357,0.215,0.12,NaN,NaN,NaN,NaN,NaN,NaN,NaN,NaN,1.12e-5,165,213.825,84,0,4.011,15,1013.25,340.389,0.01,0.017
0.88,-4.047e-4,-0.081,-8.093,0.081,8.138,-4.253e-5,0,4.253e-5,180,0.009,0.851,22.175,120.893,9.788,86.93,0,0,0,2.799e4,1.349e4,19.958,0.106,NaN,2019.723,NaN,0.012,7.8e5,44.682,5.372e-5,0.693,2.593e-4,0.358,0.215,0.12,NaN,NaN,NaN,NaN,NaN,NaN,NaN,NaN,1.1e-5,165,213.825,84,0,3.982,15,1013.25,340.389,0.01,0.017
0.89,-3.982e-4,-0.08,-7.965,0.08,8.008,-4.186e-5,0,4.186e-5,180,0.008,0.837,22.175,120.893,9.788,86.92,0,0,0,2.799e4,1.349e4,19.958,0.106,NaN,2019.705,NaN,0.012,7.743e5,48.294,5.351e-5,0.693,2.621e-4,0.358,0.215,0.12,NaN,NaN,NaN,NaN,NaN,NaN,NaN,NaN,1.083e-5,165,213.825,84,0,3.953,15,1013.25,340.389,0.01,0.017
0.9,-3.921e-4,-0.078,-7.842,0.079,7.885,-4.121e-5,0,4.121e-5,180,0.008,0.824,22.175,120.893,9.788,86.911,0,0,0,2.799e4,1.349e4,19.957,0.106,NaN,2019.685,NaN,0.012,7.687e5,51.752,5.325e-5,0.694,2.647e-4,0.359,0.215,0.12,NaN,NaN,NaN,NaN,NaN,NaN,NaN,NaN,1.066e-5,165,213.825,84,0,3.924,15,1013.25,340.389,0.01,0.018
0.91,-3.84e-4,-0.077,-7.679,0.077,7.722,-4.036e-5,0,4.036e-5,180,0.008,0.807,22.175,120.893,9.788,86.889,0,0,0,2.798e4,1.348e4,19.957,0.106,NaN,2019.664,NaN,0.011,7.671e5,56.319,5.415e-5,0.694,2.703e-4,0.359,0.215,0.12,NaN,NaN,NaN,NaN,NaN,NaN,NaN,NaN,1.044e-5,165,213.825,84,0,3.916,15,1013.25,340.389,0.01,0.018
0.92,-3.761e-4,-0.075,-7.522,0.076,7.563,-3.953e-5,0,3.953e-5,180,0.008,0.791,22.175,120.893,9.788,86.868,0,0,0,2.798e4,1.348e4,19.957,0.106,NaN,2019.641,NaN,0.011,7.655e5,60.748,5.502e-5,0.694,2.757e-4,0.359,0.215,0.12,NaN,NaN,NaN,NaN,NaN,NaN,NaN,NaN,1.022e-5,165,213.825,84,0,3.908,15,1013.25,340.389,0.01,0.018
0.93,-3.643e-4,-0.073,-7.286,0.073,7.326,-3.829e-5,0,3.829e-5,180,0.008,0.766,22.175,120.893,9.788,86.836,0,0,0,2.798e4,1.348e4,19.956,0.106,NaN,2019.615,NaN,0.011,7.64e5,67.387,5.652e-5,0.694,2.844e-4,0.359,0.215,0.12,NaN,NaN,NaN,NaN,NaN,NaN,NaN,NaN,9.903e-6,165,213.825,84,0,3.9,15,1013.25,340.389,0.01,0.018
0.94,-3.499e-4,-0.07,-6.999,0.07,7.037,-3.678e-5,0,3.678e-5,180,0.007,0.736,22.175,120.893,9.788,86.796,0,0,0,2.798e4,1.348e4,19.956,0.106,NaN,2019.586,NaN,0.011,7.624e5,75.455,5.845e-5,0.694,2.953e-4,0.359,0.215,0.12,NaN,NaN,NaN,NaN,NaN,NaN,NaN,NaN,9.513e-6,165,213.825,84,0,3.892,15,1013.25,340.389,0.01,0.018
0.95,-3.337e-4,-0.067,-6.674,0.067,6.71,-3.507e-5,0,3.507e-5,180,0.007,0.701,22.175,120.893,9.788,86.75,0,0,0,2.798e4,1.348e4,19.955,0.106,NaN,2019.554,NaN,0.011,7.608e5,84.603,6.074e-5,0.694,3.081e-4,0.359,0.215,0.12,NaN,NaN,NaN,NaN,NaN,NaN,NaN,NaN,9.071e-6,165,213.825,84,0,3.884,15,1013.25,340.389,0.01,0.018
0.96,-3.135e-4,-0.063,-6.271,0.063,6.305,-3.295e-5,0,3.295e-5,180,0.007,0.659,22.175,120.893,9.788,86.682,0,0,0,2.798e4,1.348e4,19.954,0.106,NaN,2019.517,NaN,0.011,7.674e5,95.934,6.562e-5,0.694,3.272e-4,0.359,0.215,0.12,NaN,NaN,NaN,NaN,NaN,NaN,NaN,NaN,8.523e-6,165,213.825,84,0,3.917,15,1013.25,340.389,0.01,0.019
0.97,-2.933e-4,-0.059,-5.865,0.059,5.898,-3.082e-5,0,3.082e-5,180,0.006,0.616,22.175,120.893,9.788,86.615,0,0,0,2.798e4,1.348e4,19.954,0.106,NaN,2019.476,NaN,0.012,7.739e5,107.326,7.074e-5,0.693,3.468e-4,0.358,0.215,0.12,NaN,NaN,NaN,NaN,NaN,NaN,NaN,NaN,7.972e-6,165,213.825,84,0,3.95,15,1013.25,340.389,0.01,0.019
0.98,-2.671e-4,-0.053,-5.342,0.054,5.372,-2.808e-5,0,2.808e-5,180,0.006,0.561,22.175,120.893,9.788,86.533,0,0,0,2.797e4,1.347e4,19.953,0.106,NaN,2019.43,NaN,0.012,7.805e5,122.033,7.721e-5,0.693,3.722e-4,0.357,0.215,0.12,NaN,NaN,NaN,NaN,NaN,NaN,NaN,NaN,7.261e-6,165,213.825,84,0,3.983,15,1013.25,340.389,0.01,0.019
0.99,-2.333e-4,-0.047,-4.667,0.047,4.692,-2.453e-5,0,2.453e-5,180,0.005,0.49,22.175,120.893,9.788,86.429,0,0,0,2.797e4,1.347e4,19.952,0.106,NaN,2019.376,NaN,0.012,7.871e5,141.022,8.556e-5,0.692,4.056e-4,0.357,0.215,0.12,NaN,NaN,NaN,NaN,NaN,NaN,NaN,NaN,6.343e-6,165,213.825,84,0,4.016,15,1013.25,340.389,0.01,0.019
1,-1.839e-4,-0.037,-3.678,0.037,3.699,-1.933e-5,0,1.933e-5,180,0.004,0.387,22.175,120.893,9.788,86.284,0,0,0,2.797e4,1.347e4,19.951,0.106,NaN,2019.312,NaN,0.012,7.937e5,168.795,9.787e-5,0.691,4.563e-4,0.356,0.215,0.12,NaN,NaN,NaN,NaN,NaN,NaN,NaN,NaN,5e-6,165,213.825,84,0,4.05,15,1013.25,340.389,0.01,0.019
1.01,-1.138e-4,-0.023,-2.275,0.023,2.288,-1.196e-5,0,1.196e-5,180,0.002,0.239,22.175,120.893,9.788,86.091,0,0,0,2.796e4,1.346e4,19.949,0.106,NaN,2019.232,NaN,0.012,7.777e5,208.221,1.093e-4,0.693,5.31e-4,0.358,0.215,0.12,NaN,NaN,NaN,NaN,NaN,NaN,NaN,NaN,3.094e-6,165,213.825,84,0,3.967,15,1013.25,340.389,0.01,0.02
1.02,-4.855e-5,-0.01,-0.97,0.01,0.975,-5.103e-6,0,5.103e-6,180,0.001,0.102,22.175,120.893,9.788,85.905,0,0,0,2.796e4,1.346e4,19.948,0.106,NaN,2019.139,NaN,0.011,7.616e5,244.886,1.206e-4,0.694,6.106e-4,0.359,0.215,0.12,NaN,NaN,NaN,NaN,NaN,NaN,NaN,NaN,1.32e-6,165,213.825,84,0,3.884,15,1013.25,340.389,0.01,0.02
1.03,2.205e-5,0.004,0.442,0.004,0.445,2.317e-6,0,2.317e-6,0,4.638e-4,0.046,22.175,120.893,9.788,85.695,0,0,0,2.795e4,1.345e4,19.946,0.106,NaN,2019.03,NaN,0.011,7.457e5,284.538,1.343e-4,0.696,7.096e-4,0.361,0.215,0.12,NaN,NaN,NaN,NaN,NaN,NaN,NaN,NaN,5.997e-7,165,213.825,84,0,3.802,15,1013.25,340.389,0.01,0.02
1.04,1.641e-4,0.024,1.96,0.024,1.971,1.725e-5,0,1.725e-5,0,0.003,0.206,22.175,120.893,9.788,85.391,0,0,0,2.795e4,1.345e4,19.943,0.106,NaN,2018.905,NaN,0.011,7.298e5,327.142,1.577e-4,0.698,8.699e-4,0.362,0.215,0.12,NaN,NaN,NaN,NaN,NaN,NaN,NaN,NaN,3.263e-6,165,213.825,84,0,3.719,15,1013.25,340.389,0.01,0.02
1.05,5.833e-4,0.06,3.585,0.06,3.604,6.13e-5,0,6.13e-5,0,0.006,0.377,22.175,120.893,9.788,84.817,0,0,0,2.794e4,1.344e4,19.941,0.106,NaN,2018.763,NaN,0.011,7.142e5,372.693,2.139e-4,0.699,0.001,0.364,0.215,0.12,NaN,NaN,NaN,NaN,NaN,NaN,NaN,NaN,8.133e-6,165,213.825,84,0,3.637,15,1013.25,340.389,0.01,0.02
1.06,0.001,0.115,5.563,0.116,5.594,1.534e-4,0,1.534e-4,0,0.012,0.585,22.175,120.893,9.788,83.952,0,0,0,2.793e4,1.343e4,19.938,0.106,NaN,2018.599,NaN,0.011,7.191e5,428.171,3.412e-4,0.699,0.002,0.363,0.215,0.12,NaN,NaN,NaN,NaN,NaN,NaN,NaN,NaN,1.569e-5,165,213.825,84,0,3.656,15,1013.25,340.389,0.01,0.02
1.07,0.003,0.191,7.517,0.192,7.558,3.142e-4,0,3.142e-4,0,0.02,0.79,22.175,120.893,9.788,82.797,0,0,0,2.792e4,1.342e4,19.935,0.106,NaN,2018.415,NaN,0.011,7.247e5,482.882,5.775e-4,0.698,0.003,0.363,0.215,0.12,NaN,NaN,NaN,NaN,NaN,NaN,NaN,NaN,2.59e-5,165,213.825,84,0,3.676,15,1013.25,340.389,0.01,0.021
1.08,0.005,0.288,9.758,0.29,9.812,5.658e-4,0,5.658e-4,0,0.03,1.026,22.175,120.893,9.788,81.317,0,0,0,2.791e4,1.341e4,19.931,0.106,NaN,2018.206,NaN,0.011,7.313e5,545.617,0.001,0.697,0.006,0.362,0.215,0.12,NaN,NaN,NaN,NaN,NaN,NaN,NaN,NaN,3.916e-5,165,213.825,84,0,3.696,15,1013.249,340.389,0.01,0.021
1.09,0.009,0.411,12.305,0.413,12.373,9.333e-4,0,9.333e-4,0,0.043,1.293,22.175,120.893,9.788,79.482,0,0,0,2.79e4,1.34e4,19.927,0.106,NaN,2017.969,NaN,0.011,7.392e5,616.859,0.002,0.697,0.01,0.361,0.215,0.12,NaN,NaN,NaN,NaN,NaN,NaN,NaN,NaN,5.588e-5,165,213.825,84,0,3.716,15,1013.249,340.389,0.01,0.021
1.1,0.014,0.563,15.219,0.566,15.303,0.001,0,0.001,0,0.059,1.6,22.175,120.893,9.788,77.258,0,0,0,2.789e4,1.339e4,19.922,0.106,NaN,2017.702,NaN,0.011,7.491e5,698.307,0.003,0.696,0.017,0.36,0.215,0.12,NaN,NaN,NaN,NaN,NaN,NaN,NaN,NaN,7.656e-5,165,213.825,84,0,3.736,15,1013.248,340.389,0.01,0.021
1.11,0.02,0.746,18.289,0.75,18.39,0.002,0,0.002,0,0.078,1.922,22.175,120.893,9.788,74.402,0,0,0,2.788e4,1.338e4,19.917,0.106,NaN,2017.401,NaN,0.011,7.45e5,784.022,0.006,0.696,0.03,0.361,0.215,0.12,NaN,NaN,NaN,NaN,NaN,NaN,NaN,NaN,1.014e-4,165,213.825,84,0,3.669,15,1013.248,340.389,0.01,0.021
1.12,0.029,0.96,21.44,0.966,21.558,0.003,0,0.003,0,0.101,2.253,22.175,120.893,9.788,71.069,0,0,0,2.786e4,1.336e4,19.911,0.106,NaN,2017.066,NaN,0.011,7.447e5,871.849,0.01,0.696,0.051,0.361,0.215,0.12,NaN,NaN,NaN,NaN,NaN,NaN,NaN,NaN,1.305e-4,165,213.825,84,0,3.601,15,1013.247,340.389,0.01,0.022
1.13,0.04,1.207,24.646,1.213,24.781,0.004,0,0.004,0,0.127,2.59,22.175,120.893,9.788,67.297,0,0,0,2.784e4,1.334e4,19.904,0.106,NaN,2016.696,NaN,0.011,7.493e5,961.049,0.016,0.696,0.083,0.36,0.215,0.12,NaN,NaN,NaN,NaN,NaN,NaN,NaN,NaN,1.64e-4,165,213.825,84,0,3.534,15,1013.245,340.389,0.01,0.022
1.14,0.053,1.482,27.565,1.49,27.717,0.006,0,0.006,0,0.156,2.897,22.175,120.893,9.788,63.198,0,0,0,2.782e4,1.332e4,19.897,0.106,NaN,2016.295,NaN,0.011,7.597e5,1042.073,0.025,0.695,0.13,0.359,0.215,0.12,NaN,NaN,NaN,NaN,NaN,NaN,NaN,NaN,2.015e-4,165,213.825,84,0,3.467,15,1013.244,340.389,0.01,0.022
1.15,0.069,1.783,30.094,1.793,30.259,0.007,0,0.007,0,0.187,3.163,22.175,120.893,9.788,58.914,0,0,0,2.78e4,1.33e4,19.889,0.106,NaN,2015.866,NaN,0.012,7.764e5,1112.029,0.039,0.693,0.189,0.358,0.215,0.12,NaN,NaN,NaN,NaN,NaN,NaN,NaN,NaN,2.424e-4,165,213.825,84,0,3.4,15,1013.242,340.389,0.01,0.022
1.16,0.089,2.106,32.29,2.117,32.468,0.009,0,0.009,0,0.221,3.394,22.175,120.893,9.788,55.296,0,0,0,2.778e4,1.328e4,19.881,0.106,NaN,2015.413,NaN,0.012,8.168e5,1172.553,0.056,0.689,0.248,0.354,0.215,0.12,NaN,NaN,NaN,NaN,NaN,NaN,NaN,NaN,2.862e-4,165,213.825,84,0,3.433,14.999,1013.24,340.389,0.01,0.022
1.17,0.112,2.446,34.029,2.459,34.217,0.012,0,0.012,0,0.257,3.577,22.175,120.893,9.788,51.85,0,0,0,2.776e4,1.326e4,19.873,0.105,NaN,2014.941,NaN,0.013,8.622e5,1220.187,0.078,0.685,0.309,0.35,0.215,0.12,NaN,NaN,NaN,NaN,NaN,NaN,NaN,NaN,3.325e-4,165,213.825,84,0,3.467,14.999,1013.237,340.388,0.01,0.022
1.18,0.138,2.799,35.306,2.814,35.5,0.014,0,0.014,0,0.294,3.711,22.175,120.893,9.788,48.641,0,0,0,2.774e4,1.324e4,19.864,0.105,NaN,2014.455,NaN,0.014,9.12e5,1254.818,0.105,0.682,0.371,0.346,0.215,0.12,NaN,NaN,NaN,NaN,NaN,NaN,NaN,NaN,3.804e-4,165,213.825,84,0,3.5,14.999,1013.234,340.388,0.01,0.023
1.19,0.168,3.16,36.107,3.177,36.306,0.018,0,0.018,0,0.332,3.795,22.175,120.893,9.788,45.704,0,0,0,2.771e4,1.321e4,19.855,0.105,NaN,2013.959,NaN,0.014,9.655e5,1276.135,0.136,0.678,0.429,0.342,0.215,0.12,NaN,NaN,NaN,NaN,NaN,NaN,NaN,NaN,4.295e-4,165,213.825,84,0,3.534,14.999,1013.23,340.388,0.01,0.023
1.2,0.201,3.526,36.66,3.546,36.862,0.021,0,0.021,0,0.371,3.853,22.175,120.893,9.788,43.041,0,0,0,2.769e4,1.319e4,19.846,0.105,NaN,2013.458,NaN,0.015,1.022e6,1290.479,0.172,0.674,0.483,0.339,0.215,0.12,NaN,NaN,NaN,NaN,NaN,NaN,NaN,NaN,4.793e-4,165,213.825,84,0,3.567,14.999,1013.226,340.388,0.01,0.023
1.21,0.238,3.896,36.966,3.917,37.17,0.025,0,0.025,0,0.409,3.885,22.175,120.893,9.788,40.516,0,0,0,2.767e4,1.317e4,19.837,0.105,NaN,2012.952,NaN,0.016,1.079e6,1297.933,0.211,0.67,0.534,0.335,0.215,0.12,NaN,NaN,NaN,NaN,NaN,NaN,NaN,NaN,5.295e-4,165,213.825,84,0,3.583,14.998,1013.222,340.388,0.01,0.023
1.22,0.279,4.266,37.025,4.289,37.229,0.029,0,0.029,0,0.448,3.892,22.175,120.893,9.788,38.243,0,0,0,2.764e4,1.314e4,19.828,0.105,NaN,2012.446,NaN,0.017,1.137e6,1298.512,0.255,0.667,0.579,0.332,0.215,0.12,NaN,NaN,NaN,NaN,NaN,NaN,NaN,NaN,5.798e-4,165,213.825,84,0,3.6,14.998,1013.217,340.388,0.01,0.023
1.23,0.324,4.636,37.068,4.662,37.272,0.034,0,0.034,0,0.487,3.896,22.175,120.893,9.788,36.193,0,0,0,2.762e4,1.312e4,19.819,0.105,NaN,2011.938,NaN,0.018,1.198e6,1298.633,0.302,0.663,0.618,0.328,0.215,0.12,NaN,NaN,NaN,NaN,NaN,NaN,NaN,NaN,6.302e-4,165,213.825,84,0,3.616,14.998,1013.212,340.388,0.01,0.024
1.24,0.372,5.006,36.974,5.033,37.177,0.039,0,0.039,0,0.526,3.886,22.175,120.893,9.788,34.347,0,0,0,2.76e4,1.31e4,19.81,0.105,NaN,2011.431,NaN,0.019,1.259e6,1294.965,0.352,0.66,0.651,0.325,0.215,0.12,NaN,NaN,NaN,NaN,NaN,NaN,NaN,NaN,6.804e-4,165,213.825,84,0,3.633,14.998,1013.206,340.387,0.01,0.024
1.25,0.424,5.374,36.888,5.404,37.091,0.045,0,0.045,0,0.565,3.877,22.175,120.893,9.788,32.678,0,0,0,2.757e4,1.307e4,19.801,0.105,NaN,2010.925,NaN,0.02,1.322e6,1291.53,0.405,0.657,0.68,0.322,0.215,0.12,NaN,NaN,NaN,NaN,NaN,NaN,NaN,NaN,7.305e-4,165,213.825,84,0,3.649,14.997,1013.2,340.387,0.01,0.024
1.26,0.479,5.742,36.8,5.774,37.002,0.05,0,0.05,0,0.604,3.868,22.175,120.893,9.788,30.888,0,0,0,2.755e4,1.305e4,19.792,0.105,NaN,2010.419,NaN,0.021,1.381e6,1288.052,0.461,0.655,0.71,0.319,0.215,0.12,NaN,NaN,NaN,NaN,NaN,NaN,NaN,NaN,7.805e-4,165,213.825,84,0,3.624,14.997,1013.194,340.387,0.01,0.024
1.27,0.538,6.109,36.687,6.142,36.889,0.057,0,0.057,0,0.642,3.856,22.175,120.893,9.788,29.249,0,0,0,2.753e4,1.303e4,19.783,0.105,NaN,2009.914,NaN,0.022,1.44e6,1283.912,0.519,0.652,0.734,0.317,0.215,0.12,NaN,NaN,NaN,NaN,NaN,NaN,NaN,NaN,8.303e-4,165,213.825,84,0,3.599,14.997,1013.187,340.387,0.01,0.024
1.28,0.601,6.475,36.654,6.511,36.856,0.063,0,0.063,0,0.681,3.852,22.175,120.893,9.788,27.743,0,0,0,2.75e4,1.3e4,19.774,0.105,NaN,2009.409,NaN,0.022,1.501e6,1281.967,0.579,0.649,0.755,0.314,0.215,0.12,NaN,NaN,NaN,NaN,NaN,NaN,NaN,NaN,8.801e-4,165,213.825,84,0,3.573,14.996,1013.179,340.387,0.01,0.024
1.29,0.668,6.841,36.571,6.878,36.772,0.07,0,0.07,0,0.719,3.844,22.175,120.893,9.788,26.358,0,0,0,2.748e4,1.298e4,19.765,0.105,NaN,2008.904,NaN,0.023,1.563e6,1278.651,0.642,0.647,0.772,0.312,0.215,0.12,NaN,NaN,NaN,NaN,NaN,NaN,NaN,NaN,9.298e-4,165,213.825,84,0,3.548,14.996,1013.172,340.386,0.01,0.025
1.3,0.738,7.206,36.529,7.246,36.731,0.078,0,0.078,0,0.757,3.839,22.175,120.893,9.788,25.08,0,0,0,2.746e4,1.296e4,19.756,0.105,NaN,2008.399,NaN,0.024,1.625e6,1276.485,0.706,0.645,0.785,0.31,0.215,0.12,NaN,NaN,NaN,NaN,NaN,NaN,NaN,NaN,9.794e-4,165,213.825,84,0,3.522,14.995,1013.163,340.386,0.01,0.025
1.31,0.812,7.571,36.524,7.613,36.725,0.085,0,0.085,0,0.796,3.839,22.175,120.893,9.788,23.802,0,0,0,2.743e4,1.293e4,19.747,0.105,NaN,2007.894,NaN,0.025,1.687e6,1275.318,0.772,0.643,0.797,0.307,0.215,0.12,NaN,NaN,NaN,NaN,NaN,NaN,NaN,NaN,0.001,165,213.825,84,0,3.481,14.995,1013.155,340.386,0.01,0.025
1.32,0.89,7.936,36.495,7.979,36.696,0.094,0,0.094,0,0.834,3.836,22.175,120.893,9.788,22.616,0,0,0,2.741e4,1.291e4,19.738,0.105,NaN,2007.388,NaN,0.026,1.749e6,1273.528,0.84,0.641,0.806,0.305,0.215,0.12,NaN,NaN,NaN,NaN,NaN,NaN,NaN,NaN,0.001,165,213.825,84,0,3.439,14.994,1013.146,340.385,0.01,0.025
1.33,0.971,8.301,36.545,8.347,36.746,0.102,0,0.102,0,0.872,3.841,22.175,120.893,9.788,21.511,0,0,0,2.739e4,1.289e4,19.729,0.105,NaN,2006.882,NaN,0.027,1.812e6,1273.891,0.909,0.639,0.813,0.303,0.215,0.12,NaN,NaN,NaN,NaN,NaN,NaN,NaN,NaN,0.001,165,213.825,84,0,3.398,14.994,1013.136,340.385,0.01,0.025
1.34,1.056,8.666,36.522,8.714,36.723,0.111,0,0.111,0,0.911,3.839,22.175,120.893,9.788,20.482,0,0,0,2.736e4,1.286e4,19.72,0.105,NaN,2006.376,NaN,0.028,1.876e6,1272.247,0.979,0.637,0.817,0.301,0.215,0.12,NaN,NaN,NaN,NaN,NaN,NaN,NaN,NaN,0.001,165,213.825,84,0,3.357,14.993,1013.126,340.385,0.01,0.025
1.35,1.144,9.031,36.532,9.081,36.733,0.12,0,0.12,0,0.949,3.84,22.175,120.893,9.788,19.519,0,0,0,2.734e4,1.284e4,19.711,0.105,NaN,2005.868,NaN,0.029,1.94e6,1271.517,1.051,0.635,0.82,0.299,0.215,0.12,NaN,NaN,NaN,NaN,NaN,NaN,NaN,NaN,0.001,165,213.825,84,0,3.315,14.993,1013.116,340.384,0.01,0.026
1.36,1.236,9.397,36.569,9.448,36.77,0.13,0,0.13,0,0.988,3.844,22.175,120.893,9.788,19.171,0,0,0,2.732e4,1.282e4,19.702,0.105,NaN,2005.361,NaN,0.03,2.013e6,1271.539,1.13,0.633,0.818,0.297,0.215,0.12,NaN,NaN,NaN,NaN,NaN,NaN,NaN,NaN,0.001,165,213.825,84,0,3.381,14.992,1013.105,340.384,0.01,0.026
1.37,1.332,9.762,36.585,9.816,36.786,0.14,0,0.14,0,1.026,3.845,22.175,120.893,9.788,18.847,0,0,0,2.729e4,1.279e4,19.693,0.105,NaN,2004.852,NaN,0.031,2.087e6,1270.983,1.211,0.631,0.817,0.295,0.215,0.12,NaN,NaN,NaN,NaN,NaN,NaN,NaN,NaN,0.001,165,213.825,84,0,3.447,14.991,1013.094,340.384,0.01,0.026
1.38,1.431,10.129,36.7,10.185,36.903,0.15,0,0.15,0,1.065,3.857,22.175,120.893,9.788,18.543,0,0,0,2.727e4,1.277e4,19.684,0.105,NaN,2004.342,NaN,0.032,2.16e6,1273.167,1.296,0.629,0.815,0.294,0.215,0.12,NaN,NaN,NaN,NaN,NaN,NaN,NaN,NaN,0.001,165,213.825,84,0,3.513,14.991,1013.082,340.383,0.01,0.026
1.39,1.535,10.496,36.741,10.554,36.943,0.161,0,0.161,0,1.103,3.862,22.175,120.893,9.788,18.258,0,0,0,2.725e4,1.275e4,19.675,0.105,NaN,2003.83,NaN,0.033,2.234e6,1273.278,1.383,0.627,0.814,0.292,0.215,0.12,NaN,NaN,NaN,NaN,NaN,NaN,NaN,NaN,0.001,165,213.825,84,0,3.579,14.99,1013.07,340.383,0.01,0.026
1.4,1.641,10.864,36.828,10.924,37.03,0.173,0,0.173,0,1.142,3.871,22.175,120.893,9.788,17.99,0,0,0,2.723e4,1.273e4,19.666,0.105,NaN,2003.318,NaN,0.035,2.308e6,1274.663,1.473,0.625,0.812,0.29,0.215,0.12,NaN,NaN,NaN,NaN,NaN,NaN,NaN,NaN,0.001,165,213.825,84,0,3.645,14.989,1013.057,340.382,0.01,0.027
1.41,1.752,11.234,36.934,11.295,37.138,0.184,0,0.184,0,1.181,3.882,22.175,120.893,9.788,17.37,0,0,0,2.72e4,1.27e4,19.657,0.105,NaN,2002.803,NaN,0.036,2.376e6,1276.588,1.559,0.624,0.811,0.288,0.215,0.12,NaN,NaN,NaN,NaN,NaN,NaN,NaN,NaN,0.002,165,213.825,84,0,3.627,14.989,1013.045,340.382,0.01,0.027
1.42,1.866,11.603,37.002,11.667,37.206,0.196,0,0.196,0,1.22,3.889,22.175,120.893,9.788,16.784,0,0,0,2.718e4,1.268e4,19.648,0.105,NaN,2002.288,NaN,0.037,2.444e6,1277.444,1.648,0.623,0.81,0.288,0.215,0.12,NaN,NaN,NaN,NaN,NaN,NaN,NaN,NaN,0.002,165,213.825,84,0,3.609,14.988,1013.031,340.382,0.01,0.027
1.43,1.984,11.975,37.138,12.041,37.342,0.209,0,0.209,0,1.259,3.903,22.175,120.893,9.788,16.228,0,0,0,2.716e4,1.266e4,19.639,0.105,NaN,2001.77,NaN,0.038,2.513e6,1280.14,1.74,0.623,0.809,0.288,0.215,0.12,NaN,NaN,NaN,NaN,NaN,NaN,NaN,NaN,0.002,165,213.825,84,0,3.592,14.987,1013.017,340.381,0.01,0.027
1.44,2.106,12.346,37.194,12.414,37.399,0.221,0,0.221,0,1.298,3.909,22.175,120.893,9.788,15.701,0,0,0,2.713e4,1.263e4,19.629,0.105,NaN,2001.252,NaN,0.039,2.582e6,1280.681,1.833,0.623,0.807,0.288,0.215,0.12,NaN,NaN,NaN,NaN,NaN,NaN,NaN,NaN,0.002,165,213.825,84,0,3.574,14.986,1013.003,340.381,0.01,0.027
1.45,2.231,12.719,37.304,12.789,37.509,0.234,0,0.234,0,1.337,3.921,22.175,120.893,9.788,15.201,0,0,0,2.711e4,1.261e4,19.62,0.105,NaN,2000.731,NaN,0.04,2.652e6,1282.653,1.927,0.623,0.804,0.288,0.215,0.12,NaN,NaN,NaN,NaN,NaN,NaN,NaN,NaN,0.002,165,213.825,84,0,3.556,14.985,1012.988,340.38,0.01,0.027
1.46,2.36,13.093,37.421,13.165,37.627,0.248,0,0.248,0,1.376,3.933,22.175,120.893,9.788,14.971,0,0,0,2.709e4,1.259e4,19.611,0.104,NaN,2000.209,NaN,0.041,2.726e6,1284.861,2.032,0.623,0.803,0.288,0.215,0.12,NaN,NaN,NaN,NaN,NaN,NaN,NaN,NaN,0.002,165,213.825,84,0,3.601,14.985,1012.973,340.38,0.01,0.028
1.47,2.493,13.468,37.474,13.542,37.68,0.262,0,0.262,0,1.416,3.939,22.175,120.893,9.788,14.752,0,0,0,2.706e4,1.256e4,19.602,0.104,NaN,1999.686,NaN,0.042,2.8e6,1285.292,2.14,0.623,0.801,0.288,0.215,0.12,NaN,NaN,NaN,NaN,NaN,NaN,NaN,NaN,0.002,165,213.825,84,0,3.647,14.984,1012.958,340.379,0.01,0.028
1.48,2.629,13.844,37.595,13.92,37.802,0.276,0,0.276,0,1.455,3.951,22.175,120.893,9.788,14.544,0,0,0,2.704e4,1.254e4,19.592,0.104,NaN,1999.161,NaN,0.043,2.875e6,1287.587,2.251,0.623,0.8,0.288,0.215,0.12,NaN,NaN,NaN,NaN,NaN,NaN,NaN,NaN,0.002,165,213.825,84,0,3.692,14.983,1012.942,340.379,0.01,0.028
1.49,2.77,14.22,37.641,14.298,37.848,0.291,0,0.291,0,1.495,3.956,22.175,120.893,9.788,14.346,0,0,0,2.702e4,1.252e4,19.583,0.104,NaN,1998.635,NaN,0.044,2.95e6,1287.832,2.365,0.623,0.798,0.288,0.215,0.12,NaN,NaN,NaN,NaN,NaN,NaN,NaN,NaN,0.002,165,213.825,84,0,3.738,14.982,1012.925,340.378,0.01,0.028
1.5,2.914,14.597,37.711,14.677,37.919,0.306,0,0.306,0,1.534,3.964,22.175,120.893,9.788,14.157,0,0,0,2.699e4,1.249e4,19.574,0.104,NaN,1998.108,NaN,0.045,3.024e6,1288.735,2.481,0.623,0.796,0.288,0.215,0.12,NaN,NaN,NaN,NaN,NaN,NaN,NaN,NaN,0.002,165,213.825,84,0,3.783,14.981,1012.908,340.377,0.01,0.028
1.51,3.062,14.974,37.793,15.057,38.001,0.322,0,0.322,0,1.574,3.972,22.175,120.893,9.788,13.834,0,0,0,2.697e4,1.247e4,19.564,0.104,NaN,1997.579,NaN,0.046,3.097e6,1289.948,2.591,0.623,0.793,0.288,0.215,0.12,NaN,NaN,NaN,NaN,NaN,NaN,NaN,NaN,0.002,165,213.825,84,0,3.787,14.98,1012.891,340.377,0.01,0.029
1.52,3.213,15.352,37.809,15.437,38.017,0.338,0,0.338,0,1.614,3.974,22.175,120.893,9.788,13.526,0,0,0,2.695e4,1.244e4,19.555,0.104,NaN,1997.049,NaN,0.047,3.17e6,1289.376,2.704,0.623,0.79,0.288,0.215,0.12,NaN,NaN,NaN,NaN,NaN,NaN,NaN,NaN,0.002,165,213.825,84,0,3.791,14.979,1012.873,340.376,0.01,0.029
1.53,3.369,15.732,37.949,15.818,38.158,0.354,0,0.354,0,1.653,3.989,22.175,120.893,9.788,13.231,0,0,0,2.692e4,1.242e4,19.546,0.104,NaN,1996.518,NaN,0.049,3.243e6,1292.164,2.818,0.623,0.787,0.288,0.215,0.12,NaN,NaN,NaN,NaN,NaN,NaN,NaN,NaN,0.002,165,213.825,84,0,3.795,14.978,1012.855,340.376,0.01,0.029
1.54,3.528,16.112,38.019,16.2,38.229,0.371,0,0.371,0,1.693,3.996,22.175,120.893,9.788,12.948,0,0,0,2.69e4,1.24e4,19.536,0.104,NaN,1995.985,NaN,0.05,3.316e6,1293.051,2.934,0.623,0.784,0.288,0.215,0.12,NaN,NaN,NaN,NaN,NaN,NaN,NaN,NaN,0.002,165,213.825,84,0,3.8,14.977,1012.836,340.375,0.01,0.029
1.55,3.691,16.493,38.125,16.584,38.335,0.388,0,0.388,0,1.733,4.007,22.175,120.893,9.788,12.676,0,0,0,2.687e4,1.237e4,19.527,0.104,NaN,1995.451,NaN,0.051,3.389e6,1294.89,3.053,0.623,0.78,0.288,0.215,0.12,NaN,NaN,NaN,NaN,NaN,NaN,NaN,NaN,0.002,165,213.825,84,0,3.804,14.976,1012.817,340.374,0.01,0.029
1.56,3.858,16.875,38.25,16.968,38.46,0.405,0,0.405,0,1.774,4.02,22.175,120.893,9.788,12.398,0,0,0,2.685e4,1.235e4,19.517,0.104,NaN,1994.914,NaN,0.052,3.463e6,1297.251,3.172,0.623,0.777,0.288,0.215,0.12,NaN,NaN,NaN,NaN,NaN,NaN,NaN,NaN,0.002,165,213.825,84,0,3.802,14.975,1012.798,340.374,0.01,0.029
1.57,4.028,17.258,38.27,17.353,38.48,0.423,0,0.423,0,1.814,4.022,22.175,120.893,9.788,12.132,0,0,0,2.683e4,1.233e4,19.508,0.104,NaN,1994.377,NaN,0.053,3.536e6,1296.778,3.294,0.624,0.773,0.288,0.215,0.12,NaN,NaN,NaN,NaN,NaN,NaN,NaN,NaN,0.002,165,213.825,84,0,3.801,14.974,1012.778,340.373,0.01,0.03
1.585,4.292,17.832,38.328,17.931,38.614,0.451,4.129e-5,0.451,0.005,1.884,4.696,22.175,120.893,9.788,11.76,0,0.037,5.701e-5,2.679e4,1.229e4,19.493,0.104,2055.691,1993.568,0.376,0.055,3.647e6,1298.654,3.48,0.624,0.768,0.288,0.215,0.12,3.11,1.171,-2.483e-4,0,0,0,0,4.425e-6,0.002,165,213.825,84,-0.002,3.799,14.972,1012.747,340.372,0.015,0.03
1.608,4.703,18.698,38.531,18.803,38.818,0.495,2.606e-4,0.495,0.03,1.99,4.706,22.175,120.893,9.788,11.207,0,0.099,3.6e-4,2.674e4,1.224e4,19.472,0.104,2062.8,1992.348,0.427,0.057,3.814e6,1301.804,3.767,0.624,0.76,0.288,0.215,0.12,2.923,1.248,-3.64e-4,0,0,0,0,2.983e-5,0.003,165,213.825,83.999,-0.012,3.785,14.969,1012.698,340.37,0.023,0.03
1.641,5.356,20.007,38.87,20.122,39.157,0.565,9.509e-4,0.565,0.097,2.149,4.73,22.175,120.893,9.788,10.365,0,0.212,0.001,2.666e4,1.216e4,19.439,0.104,2074.093,1990.501,0.507,0.061,4.065e6,1307.398,4.208,0.624,0.748,0.288,0.215,0.12,2.645,1.34,-3.275e-4,0,0,0,0,1.198e-4,0.003,165,213.825,83.995,-0.047,3.73,14.965,1012.622,340.368,0.034,0.03
1.691,6.405,21.967,39.294,22.096,39.578,0.678,0.003,0.678,0.236,2.385,4.725,22.175,120.893,9.788,9.954,0,0.419,0.004,2.654e4,1.204e4,19.39,0.104,2079.846,1987.731,0.558,0.067,4.456e6,1313.533,5.012,0.624,0.741,0.288,0.215,0.121,2.513,1.402,-4.437e-4,0,0,0,0,3.898e-4,0.003,165,213.825,83.984,-0.151,3.928,14.958,1012.499,340.364,0.05,0.03
1.741,7.553,23.956,39.875,24.099,40.158,0.803,0.006,0.803,0.407,2.623,4.757,22.175,120.893,9.788,9.325,0,0.676,0.009,2.642e4,1.192e4,19.34,0.104,2088.935,1984.915,0.63,0.073,4.846e6,1323.765,5.85,0.624,0.731,0.288,0.216,0.121,2.314,1.458,-3.817e-4,0,0,0,0,8.594e-4,0.003,165,213.825,83.964,-0.331,4.013,14.951,1012.364,340.359,0.05,0.031
1.791,8.801,25.976,40.504,26.133,40.792,0.94,0.01,0.94,0.593,2.863,4.843,22.175,120.893,9.788,8.198,0,0.989,0.018,2.63e4,1.18e4,19.29,0.103,2106.066,1982.048,0.752,0.078,5.232e6,1335.184,6.647,0.624,0.713,0.288,0.216,0.121,1.972,1.481,1.177e-4,0,0,0,0,0.002,0.004,165,213.825,83.934,-0.601,3.829,14.943,1012.218,340.354,0.05,0.031
1.841,10.151,28.03,41.178,28.201,41.468,1.089,0.015,1.089,0.78,3.108,4.895,22.175,120.893,9.788,7.831,0,1.356,0.026,2.617e4,1.167e4,19.238,0.103,2111.967,1979.127,0.805,0.085,5.638e6,1347.677,7.657,0.624,0.707,0.288,0.216,0.121,1.864,1.498,-3.715e-4,0,0,0,0,0.003,0.004,165,213.825,83.892,-0.976,3.968,14.934,1012.059,340.349,0.05,0.031
1.891,11.605,30.124,41.982,30.31,42.282,1.251,0.021,1.251,0.96,3.357,5.021,22.175,120.893,9.788,6.977,0,1.783,0.044,2.605e4,1.155e4,19.185,0.103,2126.145,1976.143,0.909,0.091,6.042e6,1363.475,8.624,0.624,0.693,0.288,0.216,0.121,1.62,1.469,-9.168e-6,0,0,0,0,0.004,0.004,165,213.825,83.834,-1.466,3.833,14.925,1011.889,340.343,0.05,0.031
1.941,13.164,32.251,42.642,32.452,42.948,1.425,0.028,1.425,1.127,3.611,5.112,22.175,120.893,9.788,6.574,0,2.26,0.059,2.593e4,1.143e4,19.132,0.103,2133.14,1973.105,0.97,0.097,6.461e6,1375.364,9.776,0.625,0.687,0.288,0.216,0.121,1.509,1.458,-4.497e-4,0,0,0,0,0.005,0.004,165,213.825,83.758,-2.081,3.919,14.914,1011.706,340.337,0.05,0.032
1.991,14.831,34.415,43.389,34.632,43.702,1.612,0.036,1.612,1.278,3.871,5.215,22.175,120.893,9.788,6.346,3.03e-7,2.809,0.074,2.58e4,1.13e4,19.077,0.103,2137.221,1970.006,1.013,0.103,6.892e6,1389.417,11.07,0.625,0.684,0.288,0.216,0.121,1.447,1.459,-3.414e-4,0,0,0,0,0.007,0.005,165,213.825,83.661,-2.826,4.11,14.904,1011.511,340.33,0.05,0.032
2.041,16.607,36.629,44.383,36.862,44.708,1.812,0.045,1.812,1.411,4.138,5.38,22.175,120.893,9.788,6.027,0,3.43,0.094,2.567e4,1.117e4,19.021,0.102,2143.023,1966.831,1.068,0.11,7.331e6,1409.711,12.44,0.625,0.679,0.288,0.216,0.122,1.361,1.443,-3.424e-4,0,0,0,0,0.01,0.005,165,213.825,83.54,-3.706,4.253,14.892,1011.302,340.323,0.05,0.032
2.091,18.495,38.886,45.255,39.136,45.601,2.025,0.054,2.026,1.523,4.414,5.605,22.175,120.893,9.788,5.417,0,4.113,0.134,2.554e4,1.104e4,18.964,0.102,2154.359,1963.584,1.156,0.117,7.771e6,1426.753,13.801,0.625,0.67,0.287,0.216,0.122,1.2,1.376,-1.812e-4,0,0,0,0,0.012,0.005,165,213.825,83.391,-4.722,4.2,14.88,1011.081,340.316,0.05,0.032
2.141,20.496,41.173,45.847,41.441,46.214,2.253,0.063,2.254,1.61,4.7,5.807,22.175,120.893,9.788,5.036,1.445e-6,4.845,0.167,2.541e4,1.091e4,18.906,0.102,2161.717,1960.282,1.221,0.123,8.222e6,1436.554,15.337,0.626,0.665,0.287,0.216,0.122,1.103,1.331,-3.755e-5,0,0,0,0,0.015,0.006,165,213.825,83.211,-5.861,4.302,14.867,1010.846,340.308,0.05,0.032
2.191,22.613,43.494,46.518,43.78,46.916,2.495,0.073,2.496,1.669,4.998,6.092,22.175,120.893,9.788,4.499,1.321e-6,5.633,0.227,2.528e4,1.078e4,18.847,0.102,2172.394,1956.918,1.306,0.13,8.677e6,1448.404,16.907,0.626,0.659,0.287,0.216,0.122,0.969,1.246,-2.723e-4,0,0,0,0,0.019,0.006,165,213.825,82.996,-7.11,4.289,14.853,1010.598,340.3,0.05,0.032
2.241,24.847,45.85,47.227,46.157,47.656,2.753,0.081,2.754,1.695,5.31,6.379,22.175,120.893,9.788,4.246,1.84e-6,6.461,0.254,2.515e4,1.065e4,18.787,0.102,2177.61,1953.489,1.358,0.137,9.147e6,1461.178,18.709,0.626,0.656,0.287,0.217,0.122,0.907,1.21,-2.832e-4,0,0,0,0,0.022,0.006,165,213.825,82.744,-8.449,4.513,14.838,1010.336,340.291,0.05,0.033
2.291,27.199,48.231,47.706,48.559,48.183,3.026,0.089,3.027,1.687,5.637,6.763,22.175,120.893,9.788,3.684,4.06e-7,7.338,0.35,2.501e4,1.051e4,18.726,0.101,2189.429,1950.006,1.451,0.144,9.614e6,1468.288,20.472,0.627,0.649,0.287,0.217,0.123,0.773,1.095,-1.389e-5,0,0,0,0,0.026,0.007,165,213.825,82.45,-9.855,4.493,14.823,1010.06,340.282,0.05,0.033
2.341,29.67,50.614,47.75,50.966,48.279,3.316,0.095,3.318,1.642,5.98,7.126,22.175,120.893,9.788,3.252,1.395e-6,8.204,0.435,2.488e4,1.038e4,18.664,0.101,2198.843,1946.495,1.529,0.151,1.009e7,1464.702,22.387,0.627,0.645,0.287,0.217,0.123,0.672,1,-3.935e-4,0,0,0,0,0.029,0.007,165,213.825,82.113,-11.3,4.592,14.807,1009.77,340.272,0.05,0.033
2.391,32.26,52.997,47.752,53.375,48.359,3.624,0.098,3.626,1.557,6.342,7.64,22.175,120.893,9.788,2.5,1.16e-6,9.028,0.715,2.475e4,1.025e4,18.602,0.101,2215.863,1942.956,1.654,0.158,1.055e7,1460.577,24.242,0.628,0.639,0.287,0.217,0.123,0.504,0.802,2.657e-4,0,0,0,0,0.032,0.007,165,213.825,81.731,-12.751,4.394,14.79,1009.466,340.262,0.05,0.033
2.441,34.969,55.383,47.792,55.79,48.484,3.951,0.098,3.952,1.427,6.729,8.162,22.175,120.893,9.788,1.998,-3.742e-7,9.727,0.976,2.461e4,1.011e4,18.539,0.101,2227.794,1939.385,1.748,0.166,1.102e7,1457.734,26.321,0.628,0.635,0.287,0.217,0.124,0.396,0.658,1.359e-4,0,0,0,0,0.034,0.008,165,213.825,81.309,-14.169,4.426,14.773,1009.149,340.251,0.05,0.033
2.491,37.798,57.75,47.398,58.189,48.194,4.298,0.094,4.299,1.252,7.138,8.722,22.175,120.893,9.788,1.379,5.741e-6,10.272,1.625,2.448e4,9982.7,18.477,0.101,2243.072,1935.809,1.862,0.173,1.149e7,1444.705,28.446,0.628,0.632,0.287,0.218,0.124,0.267,0.463,4.777e-4,0,0,0,0,0.035,0.008,165,213.825,80.85,-15.523,4.333,14.754,1008.817,340.24,0.05,0.034
2.541,40.744,60.11,47.253,60.585,48.169,4.665,0.084,4.666,1.031,7.575,9.348,22.175,120.893,9.788,0.867,5.796e-6,10.469,2.79,2.435e4,9851.919,18.414,0.1,2256.285,1932.21,1.964,0.18,1.195e7,1438.362,30.732,0.629,0.63,0.287,0.218,0.124,0.165,0.291,-2.951e-4,0,0,0,0,0.034,0.008,165,213.825,80.36,-16.786,4.331,14.735,1008.471,340.228,0.05,0.034
2.591,43.808,62.456,46.96,62.971,48.025,5.055,0.067,5.055,0.762,8.042,10.057,22.175,120.893,9.788,0.297,3.815e-6,5.664,9.493,2.422e4,9721.977,18.351,0.1,2271.577,1928.595,2.079,0.187,1.241e7,1429.136,33.101,0.629,0.629,0.287,0.218,0.125,0.055,0.106,-1.181e-4,0,0,0,0,0.009,0.009,165,213.825,79.849,-17.937,4.127,14.715,1008.112,340.216,0.05,0.034
2.641,46.99,64.81,47.112,65.371,48.344,5.469,0.043,5.469,0.447,8.545,10.846,22.175,120.893,9.788,0.491,1.205e-5,-9.013,6.251,2.409e4,9591.843,18.287,0.1,2266.492,1924.936,2.07,0.194,1.288e7,1431.244,35.677,0.63,0.63,0.287,0.218,0.125,0.092,0.213,-1.239e-4,0,0,0,0,-0.021,0.009,165,213.825,79.328,-18.951,4.025,14.695,1007.739,340.204,0.05,0.034
2.691,50.289,67.166,47.168,67.778,48.551,5.908,0.009,5.908,0.086,9.083,11.505,22.175,120.893,9.788,0.663,8.509e-6,-9.743,4.213,2.396e4,9461.748,18.222,0.1,2262.056,1921.238,2.066,0.201,1.335e7,1430.823,38.436,0.63,0.631,0.287,0.218,0.125,0.125,0.282,-3.615e-4,0,0,0,0,-0.023,0.009,165,213.825,78.813,-19.813,4.297,14.673,1007.352,340.191,0.05,0.034
2.741,53.707,69.532,47.331,70.199,48.915,6.374,-0.035,6.374,-0.317,9.656,12.346,22.175,120.893,9.788,1.159,1.568e-5,-9.702,2.646,2.383e4,9331.363,18.157,0.1,2249.33,1917.492,2.011,0.208,1.382e7,1433.995,41.325,0.631,0.633,0.287,0.219,0.126,0.223,0.47,3.348e-4,0,0,0,0,-0.022,0.01,165,213.825,78.315,-20.526,4.145,14.651,1006.951,340.177,0.05,0.035
2.791,57.243,71.915,47.67,72.644,49.456,6.869,-0.091,6.87,-0.758,10.271,13.17,22.175,120.893,9.788,1.522,2.022e-5,-8.876,2.072,2.37e4,9200.305,18.091,0.099,2240.371,1913.685,1.98,0.215,1.43e7,1441.415,44.384,0.631,0.636,0.287,0.219,0.126,0.297,0.605,3e-4,0,0,0,0,-0.017,0.01,165,213.825,77.849,-21.089,4.089,14.628,1006.536,340.163,0.05,0.035
2.841,60.898,74.311,47.944,75.11,49.937,7.394,-0.159,7.396,-1.234,10.926,13.967,22.175,120.893,9.788,1.873,1.68e-5,-7.685,1.763,2.357e4,9068.707,18.023,0.099,2231.973,1909.819,1.952,0.222,1.477e7,1447.346,47.597,0.632,0.638,0.286,0.219,0.126,0.37,0.734,3.898e-5,0,0,0,0,-0.012,0.01,165,213.825,77.432,-21.501,3.952,14.604,1006.108,340.149,0.05,0.035
2.891,64.674,76.701,47.83,77.575,49.978,7.952,-0.242,7.955,-1.74,11.612,14.492,22.175,120.893,9.787,1.99,1.689e-5,-6.177,1.573,2.344e4,8937.495,17.955,0.099,2229.334,1905.922,1.96,0.23,1.525e7,1443.113,50.876,0.633,0.64,0.286,0.219,0.127,0.395,0.782,-2.547e-4,0,0,0,0,-0.007,0.011,165,213.825,77.08,-21.762,4.015,14.58,1005.665,340.134,0.05,0.035
2.941,68.568,79.078,47.578,80.032,49.854,8.542,-0.338,8.549,-2.268,12.322,14.891,22.175,120.893,9.787,2.071,1.776e-5,-4.484,1.449,2.331e4,8806.998,17.887,0.099,2227.585,1902.002,1.973,0.237,1.573e7,1435.232,54.227,0.633,0.641,0.286,0.22,0.127,0.413,0.817,6.183e-5,0,0,0,0,-0.004,0.011,165,213.825,76.804,-21.877,4.012,14.554,1005.208,340.119,0.05,0.035
2.991,72.582,81.465,47.796,82.504,50.163,9.166,-0.45,9.178,-2.812,13.055,15.23,22.175,120.893,9.787,2.037,2.083e-5,-2.619,1.37,2.318e4,8676.274,17.818,0.099,2228.571,1898.031,2.003,0.244,1.621e7,1437.734,57.647,0.634,0.641,0.286,0.22,0.128,0.406,0.814,5.486e-5,0,0,0,0,-0.001,0.011,165,213.825,76.613,-21.851,4.042,14.528,1004.737,340.103,0.05,0.035
3.041,76.715,83.874,48.269,85.003,50.702,9.826,-0.577,9.843,-3.363,13.807,15.519,22.175,120.893,9.787,1.99,2.348e-5,-0.656,1.338,2.305e4,8544.831,17.748,0.098,2229.886,1893.993,2.036,0.252,1.67e7,1445.651,61.173,0.634,0.642,0.286,0.22,0.128,0.396,0.806,-3.75e-4,0,0,0,0,-6.748e-5,0.012,165,213.825,76.514,-21.689,3.953,14.501,1004.253,340.087,0.05,0.036
3.091,80.969,86.302,48.664,87.523,51.085,10.521,-0.72,10.545,-3.916,14.569,15.541,22.175,120.893,9.787,1.781,2.482e-5,1.35,1.349,2.291e4,8412.968,17.677,0.098,2235.137,1889.896,2.092,0.259,1.718e7,1450.255,64.757,0.635,0.641,0.286,0.22,0.129,0.352,0.736,-1.725e-4,0,0,0,0,2.692e-4,0.012,165,213.825,76.511,-21.393,3.972,14.474,1003.754,340.07,0.05,0.036
