# Time (s),Altitude (m),Vertical velocity (m/s),Vertical acceleration (m/s²),Total velocity (m/s),Total acceleration (m/s²),Position East of launch (m),Position North of launch (m),Lateral distance (m),Lateral direction (°),Lateral velocity (m/s),Lateral acceleration (m/s²),Latitude (°),Longitude (°),Gravitational acceleration (m/s²),Angle of attack (°),Roll rate (°/s),Pitch rate (°/s),Yaw rate (°/s),Mass (g),Motor mass (g),Longitudinal moment of inertia (kg·m²),Rotational moment of inertia (kg·m²),CP location (mm),CG location (mm),Stability margin calibers (​),Mach number (​),Reynolds number (​),Thrust (N),Drag force (N),Drag coefficient (​),Axial drag coefficient (​),Friction drag coefficient (​),Pressure drag coefficient (​),Base drag coefficient (​),Normal force coefficient (​),Pitch moment coefficient (​),Yaw moment coefficient (​),Side force coefficient (​),Roll moment coefficient (​),Roll forcing coefficient (​),Roll damping coefficient (​),Pitch damping coefficient (​),Coriolis acceleration (m/s²),Reference length (mm),Reference area (cm²),Vertical orientation (zenith) (°),Lateral orientation (azimuth) (°),Wind velocity (m/s),Air temperature (°C),Air pressure (mbar),Speed of sound (m/s),Simulation time step (s),Computation time (s)
0.01,-4.664e-4,-0.093,-9.324,0.095,9.468,-8.224e-5,0,8.224e-5,180,0.016,1.644,22.175,120.893,9.788,83.858,0,0,0,2.8e4,1.35e4,19.963,0.106,NaN,2019.994,NaN,0.017,1.16e6,4.784,8.843e-4,0.666,0.002,0.33,0.215,0.12,NaN,NaN,NaN,NaN,NaN,NaN,NaN,NaN,1.282e-5,165,213.825,80,0,5.923,15,1013.25,340.389,0.01,0.001
0.02,-4.668e-4,-0.093,-9.336,0.095,9.48,-8.231e-5,0,8.231e-5,180,0.016,1.646,22.175,120.893,9.788,83.864,0,0,0,2.8e4,1.35e4,19.963,0.106,NaN,2019.992,NaN,0.017,1.153e6,4.461,8.717e-4,0.666,0.002,0.331,0.215,0.12,NaN,NaN,NaN,NaN,NaN,NaN,NaN,NaN,1.283e-5,165,213.825,80,0,5.889,15,1013.25,340.389,0.01,0.002
0.03,-4.67e-4,-0.093,-9.34,0.095,9.484,-8.234e-5,0,8.234e-5,180,0.016,1.647,22.175,120.893,9.788,83.87,0,0,0,2.8e4,1.35e4,19.963,0.106,NaN,2019.991,NaN,0.017,1.146e6,4.343,8.596e-4,0.666,0.002,0.331,0.215,0.12,NaN,NaN,NaN,NaN,NaN,NaN,NaN,NaN,1.284e-5,165,213.825,80,0,5.854,15,1013.25,340.389,0.01,0.002
0.04,-4.672e-4,-0.093,-9.343,0.095,9.487,-8.237e-5,0,8.237e-5,180,0.016,1.647,22.175,120.893,9.788,83.876,0,0,0,2.8e4,1.35e4,19.963,0.106,NaN,2019.989,NaN,0.017,1.139e6,4.249,8.476e-4,0.667,0.002,0.331,0.215,0.12,NaN,NaN,NaN,NaN,NaN,NaN,NaN,NaN,1.285e-5,165,213.825,80,0,5.819,15,1013.25,340.389,0.01,0.002
0.05,-4.668e-4,-0.093,-9.336,0.095,9.48,-8.231e-5,0,8.231e-5,180,0.016,1.646,22.175,120.893,9.788,83.881,0,0,0,2.8e4,1.35e4,19.963,0.106,NaN,2019.988,NaN,0.017,1.132e6,4.443,8.36e-4,0.667,0.002,0.332,0.215,0.12,NaN,NaN,NaN,NaN,NaN,NaN,NaN,NaN,1.284e-5,165,213.825,80,0,5.785,15,1013.25,340.389,0.01,0.002
0.06,-4.664e-4,-0.093,-9.328,0.095,9.472,-8.224e-5,0,8.224e-5,180,0.016,1.645,22.175,120.893,9.788,83.882,0,0,0,2.8e4,1.35e4,19.963,0.106,NaN,2019.986,NaN,0.017,1.13e6,4.681,8.318e-4,0.667,0.002,0.332,0.215,0.12,NaN,NaN,NaN,NaN,NaN,NaN,NaN,NaN,1.282e-5,165,213.825,80,0,5.771,15,1013.25,340.389,0.01,0.003
0.07,-4.668e-4,-0.093,-9.337,0.095,9.481,-8.231e-5,0,8.231e-5,180,0.016,1.646,22.175,120.893,9.788,83.885,0,0,0,2.8e4,1.35e4,19.963,0.106,NaN,2019.984,NaN,0.017,1.127e6,4.438,8.269e-4,0.667,0.002,0.332,0.215,0.12,NaN,NaN,NaN,NaN,NaN,NaN,NaN,NaN,1.284e-5,165,213.825,80,0,5.758,15,1013.25,340.389,0.01,0.003
0.08,-4.668e-4,-0.093,-9.335,0.095,9.479,-8.23e-5,0,8.23e-5,180,0.016,1.646,22.175,120.893,9.788,83.887,0,0,0,2.8e4,1.35e4,19.963,0.106,NaN,2019.982,NaN,0.017,1.125e6,4.479,8.225e-4,0.667,0.002,0.332,0.215,0.12,NaN,NaN,NaN,NaN,NaN,NaN,NaN,NaN,1.283e-5,165,213.825,80,0,5.745,15,1013.25,340.389,0.01,0.003
0.09,-4.665e-4,-0.093,-9.331,0.095,9.475,-8.226e-5,0,8.226e-5,180,0.016,1.645,22.175,120.893,9.788,83.889,0,0,0,2.8e4,1.35e4,19.963,0.106,NaN,2019.981,NaN,0.017,1.122e6,4.603,8.181e-4,0.668,0.002,0.332,0.215,0.12,NaN,NaN,NaN,NaN,NaN,NaN,NaN,NaN,1.283e-5,165,213.825,80,0,5.731,15,1013.25,340.389,0.01,0.003
0.1,-4.67e-4,-0.093,-9.341,0.095,9.485,-8.235e-5,0,8.235e-5,180,0.016,1.647,22.175,120.893,9.788,83.892,0,0,0,2.8e4,1.35e4,19.963,0.106,NaN,2019.979,NaN,0.017,1.119e6,4.315,8.132e-4,0.668,0.002,0.333,0.215,0.12,NaN,NaN,NaN,NaN,NaN,NaN,NaN,NaN,1.284e-5,165,213.825,80,0,5.718,15,1013.25,340.389,0.01,0.003
0.11,-4.668e-4,-0.093,-9.337,0.095,9.481,-8.232e-5,0,8.232e-5,180,0.016,1.646,22.175,120.893,9.788,83.908,0,0,0,2.8e4,1.35e4,19.963,0.106,NaN,2019.977,NaN,0.016,1.1e6,4.431,7.813e-4,0.669,0.002,0.334,0.215,0.12,NaN,NaN,NaN,NaN,NaN,NaN,NaN,NaN,1.284e-5,165,213.825,80,0,5.621,15,1013.25,340.389,0.01,0.004
0.12,-4.668e-4,-0.093,-9.337,0.095,9.481,-8.231e-5,0,8.231e-5,180,0.016,1.646,22.175,120.893,9.788,83.925,0,0,0,2.8e4,1.35e4,19.962,0.106,NaN,2019.976,NaN,0.016,1.081e6,4.436,7.498e-4,0.67,0.002,0.335,0.215,0.12,NaN,NaN,NaN,NaN,NaN,NaN,NaN,NaN,1.284e-5,165,213.825,80,0,5.525,15,1013.25,340.389,0.01,0.004
0.13,-4.665e-4,-0.093,-9.33,0.095,9.474,-8.226e-5,0,8.226e-5,180,0.016,1.645,22.175,120.893,9.788,83.941,0,0,0,2.8e4,1.35e4,19.962,0.106,NaN,2019.974,NaN,0.016,1.062e6,4.62,7.192e-4,0.671,0.002,0.336,0.215,0.12,NaN,NaN,NaN,NaN,NaN,NaN,NaN,NaN,1.283e-5,165,213.825,80,0,5.428,15,1013.25,340.389,0.01,0.004
0.14,-4.669e-4,-0.093,-9.338,0.095,9.482,-8.232e-5,0,8.232e-5,180,0.016,1.646,22.175,120.893,9.788,83.96,0,0,0,2.8e4,1.35e4,19.962,0.106,NaN,2019.972,NaN,0.016,1.044e6,4.404,6.887e-4,0.672,0.002,0.337,0.215,0.12,NaN,NaN,NaN,NaN,NaN,NaN,NaN,NaN,1.284e-5,165,213.825,80,0,5.332,15,1013.25,340.389,0.01,0.004
0.15,-4.668e-4,-0.093,-9.336,0.095,9.48,-8.231e-5,0,8.231e-5,180,0.016,1.646,22.175,120.893,9.788,83.979,0,0,0,2.8e4,1.35e4,19.962,0.106,NaN,2019.97,NaN,0.015,1.025e6,4.444,6.591e-4,0.674,0.002,0.338,0.215,0.12,NaN,NaN,NaN,NaN,NaN,NaN,NaN,NaN,1.284e-5,165,213.825,80,0,5.235,15,1013.25,340.389,0.01,0.005
0.16,-4.664e-4,-0.093,-9.329,0.095,9.473,-8.225e-5,0,8.225e-5,180,0.016,1.645,22.175,120.893,9.788,83.984,0,0,0,2.8e4,1.35e4,19.962,0.106,NaN,2019.969,NaN,0.015,1.019e6,4.651,6.503e-4,0.674,0.002,0.339,0.215,0.12,NaN,NaN,NaN,NaN,NaN,NaN,NaN,NaN,1.283e-5,165,213.825,80,0,5.205,15,1013.25,340.389,0.01,0.005
0.17,-4.672e-4,-0.093,-9.344,0.095,9.488,-8.238e-5,0,8.238e-5,180,0.016,1.648,22.175,120.893,9.788,83.992,0,0,0,2.8e4,1.35e4,19.962,0.106,NaN,2019.967,NaN,0.015,1.013e6,4.218,6.407e-4,0.674,0.002,0.339,0.215,0.12,NaN,NaN,NaN,NaN,NaN,NaN,NaN,NaN,1.285e-5,165,213.825,80,0,5.175,15,1013.25,340.389,0.01,0.005
0.18,-4.672e-4,-0.093,-9.344,0.095,9.488,-8.238e-5,0,8.238e-5,180,0.016,1.648,22.175,120.893,9.788,83.998,0,0,0,2.8e4,1.35e4,19.962,0.106,NaN,2019.965,NaN,0.015,1.007e6,4.225,6.317e-4,0.675,0.002,0.34,0.215,0.12,NaN,NaN,NaN,NaN,NaN,NaN,NaN,NaN,1.285e-5,165,213.825,80,0,5.145,15,1013.25,340.389,0.01,0.005
0.19,-4.67e-4,-0.093,-9.341,0.095,9.485,-8.235e-5,0,8.235e-5,180,0.016,1.647,22.175,120.893,9.788,84.004,0,0,0,2.8e4,1.35e4,19.962,0.106,NaN,2019.964,NaN,0.015,1.001e6,4.321,6.229e-4,0.675,0.002,0.34,0.215,0.12,NaN,NaN,NaN,NaN,NaN,NaN,NaN,NaN,1.284e-5,165,213.825,80,0,5.114,15,1013.25,340.389,0.01,0.005
0.2,-4.673e-4,-0.093,-9.346,0.095,9.49,-8.24e-5,0,8.24e-5,180,0.016,1.648,22.175,120.893,9.788,84.011,0,0,0,2.8e4,1.35e4,19.962,0.106,NaN,2019.962,NaN,0.015,9.95e5,4.174,6.138e-4,0.676,0.002,0.34,0.215,0.12,NaN,NaN,NaN,NaN,NaN,NaN,NaN,NaN,1.285e-5,165,213.825,80,0,5.084,15,1013.25,340.389,0.01,0.006
0.21,-4.669e-4,-0.093,-9.338,0.095,9.483,-8.233e-5,0,8.233e-5,180,0.016,1.647,22.175,120.893,9.788,84.009,0,0,0,2.8e4,1.35e4,19.962,0.106,NaN,2019.961,NaN,0.015,9.955e5,4.381,6.149e-4,0.676,0.002,0.34,0.215,0.12,NaN,NaN,NaN,NaN,NaN,NaN,NaN,NaN,1.284e-5,165,213.825,80,0,5.087,15,1013.25,340.389,0.01,0.006
0.22,-4.664e-4,-0.093,-9.329,0.095,9.473,-8.225e-5,0,8.225e-5,180,0.016,1.645,22.175,120.893,9.788,84.008,0,0,0,2.8e4,1.35e4,19.962,0.106,NaN,2019.959,NaN,0.015,9.96e5,4.657,6.16e-4,0.676,0.002,0.34,0.215,0.12,NaN,NaN,NaN,NaN,NaN,NaN,NaN,NaN,1.283e-5,165,213.825,80,0,5.089,15,1013.25,340.389,0.01,0.006
0.23,-4.669e-4,-0.093,-9.338,0.095,9.482,-8.233e-5,0,8.233e-5,180,0.016,1.647,22.175,120.893,9.788,84.008,0,0,0,2.8e4,1.35e4,19.962,0.106,NaN,2019.957,NaN,0.015,9.965e5,4.392,6.164e-4,0.675,0.002,0.34,0.215,0.12,NaN,NaN,NaN,NaN,NaN,NaN,NaN,NaN,1.284e-5,165,213.825,80,0,5.092,15,1013.25,340.389,0.01,0.006
0.24,-4.667e-4,-0.093,-9.334,0.095,9.478,-8.229e-5,0,8.229e-5,180,0.016,1.646,22.175,120.893,9.788,84.007,0,0,0,2.8e4,1.35e4,19.962,0.106,NaN,2019.955,NaN,0.015,9.97e5,4.513,6.173e-4,0.675,0.002,0.34,0.215,0.12,NaN,NaN,NaN,NaN,NaN,NaN,NaN,NaN,1.283e-5,165,213.825,80,0,5.095,15,1013.25,340.389,0.01,0.006
0.25,-4.666e-4,-0.093,-9.331,0.095,9.475,-8.227e-5,0,8.227e-5,180,0.016,1.645,22.175,120.893,9.788,84.006,0,0,0,2.8e4,1.35e4,19.962,0.106,NaN,2019.954,NaN,0.015,9.975e5,4.587,6.182e-4,0.675,0.002,0.34,0.215,0.12,NaN,NaN,NaN,NaN,NaN,NaN,NaN,NaN,1.283e-5,165,213.825,80,0,5.097,15,1013.25,340.389,0.01,0.007
0.26,-4.668e-4,-0.093,-9.337,0.095,9.481,-8.232e-5,0,8.232e-5,180,0.016,1.646,22.175,120.893,9.788,84.008,0,0,0,2.8e4,1.35e4,19.962,0.106,NaN,2019.952,NaN,0.015,9.961e5,4.429,6.159e-4,0.676,0.002,0.34,0.215,0.12,NaN,NaN,NaN,NaN,NaN,NaN,NaN,NaN,1.284e-5,165,213.825,80,0,5.09,15,1013.25,340.389,0.01,0.007
0.27,-4.667e-4,-0.093,-9.333,0.095,9.477,-8.229e-5,0,8.229e-5,180,0.016,1.646,22.175,120.893,9.788,84.009,0,0,0,2.8e4,1.35e4,19.962,0.106,NaN,2019.95,NaN,0.015,9.947e5,4.527,6.139e-4,0.676,0.002,0.34,0.215,0.12,NaN,NaN,NaN,NaN,NaN,NaN,NaN,NaN,1.283e-5,165,213.825,80,0,5.083,15,1013.25,340.389,0.01,0.007
0.28,-4.667e-4,-0.093,-9.335,0.095,9.479,-8.23e-5,0,8.23e-5,180,0.016,1.646,22.175,120.893,9.788,84.011,0,0,0,2.8e4,1.35e4,19.962,0.106,NaN,2019.949,NaN,0.015,9.933e5,4.488,6.118e-4,0.676,0.002,0.341,0.215,0.12,NaN,NaN,NaN,NaN,NaN,NaN,NaN,NaN,1.283e-5,165,213.825,80,0,5.076,15,1013.25,340.389,0.01,0.007
0.29,-4.665e-4,-0.093,-9.33,0.095,9.474,-8.226e-5,0,8.226e-5,180,0.016,1.645,22.175,120.893,9.788,84.012,0,0,0,2.8e4,1.35e4,19.962,0.106,NaN,2019.947,NaN,0.015,9.919e5,4.616,6.098e-4,0.676,0.002,0.341,0.215,0.12,NaN,NaN,NaN,NaN,NaN,NaN,NaN,NaN,1.283e-5,165,213.825,80,0,5.069,15,1013.25,340.389,0.01,0.007
0.3,-4.666e-4,-0.093,-9.333,0.095,9.477,-8.228e-5,0,8.228e-5,180,0.016,1.646,22.175,120.893,9.788,84.014,0,0,0,2.8e4,1.35e4,19.962,0.106,NaN,2019.945,NaN,0.015,9.905e5,4.548,6.077e-4,0.676,0.002,0.341,0.215,0.12,NaN,NaN,NaN,NaN,NaN,NaN,NaN,NaN,1.283e-5,165,213.825,80,0,5.062,15,1013.25,340.389,0.01,0.008
0.31,-4.664e-4,-0.093,-9.327,0.095,9.471,-8.223e-5,0,8.223e-5,180,0.016,1.645,22.175,120.893,9.788,83.986,0,0,0,2.8e4,1.35e4,19.962,0.106,NaN,2019.943,NaN,0.015,1.017e6,4.706,6.478e-4,0.674,0.002,0.339,0.215,0.12,NaN,NaN,NaN,NaN,NaN,NaN,NaN,NaN,1.282e-5,165,213.825,80,0,5.196,15,1013.25,340.389,0.01,0.008
0.32,-4.67e-4,-0.093,-9.34,0.095,9.484,-8.235e-5,0,8.235e-5,180,0.016,1.647,22.175,120.893,9.788,83.961,0,0,0,2.8e4,1.35e4,19.962,0.106,NaN,2019.942,NaN,0.016,1.043e6,4.332,6.884e-4,0.672,0.002,0.337,0.215,0.12,NaN,NaN,NaN,NaN,NaN,NaN,NaN,NaN,1.284e-5,165,213.825,80,0,5.331,15,1013.25,340.389,0.01,0.008
0.33,-4.667e-4,-0.093,-9.335,0.095,9.479,-8.23e-5,0,8.23e-5,180,0.016,1.646,22.175,120.893,9.788,83.935,0,0,0,2.8e4,1.35e4,19.962,0.106,NaN,2019.94,NaN,0.016,1.07e6,4.483,7.309e-4,0.671,0.002,0.336,0.215,0.12,NaN,NaN,NaN,NaN,NaN,NaN,NaN,NaN,1.283e-5,165,213.825,80,0,5.466,15,1013.25,340.389,0.01,0.008
0.34,-4.666e-4,-0.093,-9.332,0.095,9.476,-8.227e-5,0,8.227e-5,180,0.016,1.645,22.175,120.893,9.788,83.911,0,0,0,2.8e4,1.35e4,19.962,0.106,NaN,2019.938,NaN,0.016,1.096e6,4.57,7.746e-4,0.669,0.002,0.334,0.215,0.12,NaN,NaN,NaN,NaN,NaN,NaN,NaN,NaN,1.283e-5,165,213.825,80,0,5.601,15,1013.25,340.389,0.01,0.008
0.35,-4.669e-4,-0.093,-9.337,0.095,9.481,-8.232e-5,0,8.232e-5,180,0.016,1.646,22.175,120.893,9.788,83.889,0,0,0,2.8e4,1.35e4,19.962,0.106,NaN,2019.936,NaN,0.017,1.123e6,4.419,8.192e-4,0.668,0.002,0.332,0.215,0.12,NaN,NaN,NaN,NaN,NaN,NaN,NaN,NaN,1.284e-5,165,213.825,80,0,5.735,15,1013.25,340.389,0.01,0.008
0.36,-4.67e-4,-0.093,-9.341,0.095,9.485,-8.235e-5,0,8.235e-5,180,0.016,1.647,22.175,120.893,9.788,83.889,0,0,0,2.8e4,1.35e4,19.962,0.106,NaN,2019.935,NaN,0.017,1.123e6,4.317,8.202e-4,0.668,0.002,0.332,0.215,0.12,NaN,NaN,NaN,NaN,NaN,NaN,NaN,NaN,1.284e-5,165,213.825,80,0,5.739,15,1013.25,340.389,0.01,0.009
0.37,-4.667e-4,-0.093,-9.334,0.095,9.478,-8.229e-5,0,8.229e-5,180,0.016,1.646,22.175,120.893,9.788,83.887,0,0,0,2.8e4,1.35e4,19.962,0.106,NaN,2019.933,NaN,0.017,1.124e6,4.522,8.215e-4,0.668,0.002,0.332,0.215,0.12,NaN,NaN,NaN,NaN,NaN,NaN,NaN,NaN,1.283e-5,165,213.825,80,0,5.742,15,1013.25,340.389,0.01,0.009
0.38,-4.668e-4,-0.093,-9.337,0.095,9.481,-8.232e-5,0,8.232e-5,180,0.016,1.646,22.175,120.893,9.788,83.887,0,0,0,2.8e4,1.35e4,19.962,0.106,NaN,2019.931,NaN,0.017,1.125e6,4.433,8.225e-4,0.667,0.002,0.332,0.215,0.12,NaN,NaN,NaN,NaN,NaN,NaN,NaN,NaN,1.284e-5,165,213.825,80,0,5.745,15,1013.25,340.389,0.01,0.009
0.39,-4.664e-4,-0.093,-9.328,0.095,9.472,-8.224e-5,0,8.224e-5,180,0.016,1.645,22.175,120.893,9.788,83.886,0,0,0,2.8e4,1.35e4,19.962,0.106,NaN,2019.93,NaN,0.017,1.125e6,4.673,8.239e-4,0.667,0.002,0.332,0.215,0.12,NaN,NaN,NaN,NaN,NaN,NaN,NaN,NaN,1.282e-5,165,213.825,80,0,5.748,15,1013.25,340.389,0.01,0.009
0.4,-4.662e-4,-0.093,-9.323,0.095,9.467,-8.22e-5,0,8.22e-5,180,0.016,1.644,22.175,120.893,9.788,83.885,0,0,0,2.8e4,1.35e4,19.962,0.106,NaN,2019.928,NaN,0.017,1.126e6,4.812,8.252e-4,0.667,0.002,0.332,0.215,0.12,NaN,NaN,NaN,NaN,NaN,NaN,NaN,NaN,1.282e-5,165,213.825,80,0,5.751,15,1013.25,340.389,0.01,0.009
0.41,-4.665e-4,-0.093,-9.331,0.095,9.475,-8.227e-5,0,8.227e-5,180,0.016,1.645,22.175,120.893,9.788,83.891,0,0,0,2.8e4,1.35e4,19.962,0.106,NaN,2019.926,NaN,0.017,1.119e6,4.595,8.135e-4,0.668,0.002,0.333,0.215,0.12,NaN,NaN,NaN,NaN,NaN,NaN,NaN,NaN,1.283e-5,165,213.825,80,0,5.718,15,1013.25,340.389,0.01,0.01
0.42,-4.665e-4,-0.093,-9.329,0.095,9.473,-8.225e-5,0,8.225e-5,180,0.016,1.645,22.175,120.893,9.788,83.897,0,0,0,2.8e4,1.35e4,19.962,0.106,NaN,2019.924,NaN,0.017,1.113e6,4.638,8.023e-4,0.668,0.002,0.333,0.215,0.12,NaN,NaN,NaN,NaN,NaN,NaN,NaN,NaN,1.283e-5,165,213.825,80,0,5.684,15,1013.25,340.389,0.01,0.01
0.43,-4.662e-4,-0.093,-9.323,0.095,9.467,-8.22e-5,0,8.22e-5,180,0.016,1.644,22.175,120.893,9.788,83.902,0,0,0,2.8e4,1.35e4,19.962,0.106,NaN,2019.922,NaN,0.017,1.106e6,4.811,7.913e-4,0.669,0.002,0.333,0.215,0.12,NaN,NaN,NaN,NaN,NaN,NaN,NaN,NaN,1.282e-5,165,213.825,80,0,5.65,15,1013.25,340.389,0.01,0.01
0.44,-4.66e-4,-0.093,-9.32,0.095,9.463,-8.216e-5,0,8.216e-5,180,0.016,1.643,22.175,120.893,9.788,83.907,0,0,0,2.8e4,1.35e4,19.962,0.106,NaN,2019.921,NaN,0.016,1.099e6,4.919,7.803e-4,0.669,0.002,0.334,0.215,0.12,NaN,NaN,NaN,NaN,NaN,NaN,NaN,NaN,1.281e-5,165,213.825,80,0,5.616,15,1013.25,340.389,0.01,0.01
0.45,-4.666e-4,-0.093,-9.331,0.095,9.475,-8.227e-5,0,8.227e-5,180,0.016,1.645,22.175,120.893,9.788,83.914,0,0,0,2.8e4,1.35e4,19.961,0.106,NaN,2019.919,NaN,0.016,1.093e6,4.583,7.688e-4,0.669,0.002,0.334,0.215,0.12,NaN,NaN,NaN,NaN,NaN,NaN,NaN,NaN,1.283e-5,165,213.825,80,0,5.583,15,1013.25,340.389,0.01,0.01
0.46,-4.668e-4,-0.093,-9.337,0.095,9.481,-8.232e-5,0,8.232e-5,180,0.016,1.646,22.175,120.893,9.788,83.896,0,0,0,2.8e4,1.35e4,19.961,0.106,NaN,2019.917,NaN,0.017,1.114e6,4.429,8.05e-4,0.668,0.002,0.333,0.215,0.12,NaN,NaN,NaN,NaN,NaN,NaN,NaN,NaN,1.284e-5,165,213.825,80,0,5.693,15,1013.25,340.389,0.01,0.01
0.47,-4.668e-4,-0.093,-9.336,0.095,9.48,-8.231e-5,0,8.231e-5,180,0.016,1.646,22.175,120.893,9.788,83.878,0,0,0,2.8e4,1.35e4,19.961,0.106,NaN,2019.915,NaN,0.017,1.136e6,4.45,8.422e-4,0.667,0.002,0.332,0.215,0.12,NaN,NaN,NaN,NaN,NaN,NaN,NaN,NaN,1.284e-5,165,213.825,80,0,5.803,15,1013.25,340.389,0.01,0.011
0.48,-4.66e-4,-0.093,-9.32,0.095,9.464,-8.217e-5,0,8.217e-5,180,0.016,1.643,22.175,120.893,9.788,83.859,0,0,0,2.8e4,1.35e4,19.961,0.106,NaN,2019.914,NaN,0.017,1.158e6,4.905,8.809e-4,0.666,0.002,0.33,0.215,0.12,NaN,NaN,NaN,NaN,NaN,NaN,NaN,NaN,1.281e-5,165,213.825,80,0,5.913,15,1013.25,340.389,0.01,0.011
0.49,-4.663e-4,-0.093,-9.326,0.095,9.469,-8.222e-5,0,8.222e-5,180,0.016,1.644,22.175,120.893,9.788,83.843,0,0,0,2.8e4,1.35e4,19.961,0.106,NaN,2019.912,NaN,0.018,1.179e6,4.746,9.196e-4,0.664,0.002,0.329,0.215,0.12,NaN,NaN,NaN,NaN,NaN,NaN,NaN,NaN,1.282e-5,165,213.825,80,0,6.023,15,1013.25,340.389,0.01,0.011
0.5,-4.668e-4,-0.093,-9.335,0.095,9.479,-8.23e-5,0,8.23e-5,180,0.016,1.646,22.175,120.893,9.788,83.827,0,0,0,2.8e4,1.35e4,19.961,0.106,NaN,2019.91,NaN,0.018,1.201e6,4.47,9.588e-4,0.663,0.002,0.328,0.215,0.12,NaN,NaN,NaN,NaN,NaN,NaN,NaN,NaN,1.283e-5,165,213.825,80,0,6.134,15,1013.25,340.389,0.01,0.011
0.51,-4.664e-4,-0.093,-9.329,0.095,9.473,-8.225e-5,0,8.225e-5,180,0.016,1.645,22.175,120.893,9.788,83.831,0,0,0,2.8e4,1.35e4,19.961,0.106,NaN,2019.908,NaN,0.018,1.196e6,4.657,9.494e-4,0.664,0.002,0.328,0.215,0.12,NaN,NaN,NaN,NaN,NaN,NaN,NaN,NaN,1.283e-5,165,213.825,80,0,6.107,15,1013.25,340.389,0.01,0.011
0.52,-4.656e-4,-0.093,-9.313,0.095,9.456,-8.21e-5,0,8.21e-5,180,0.016,1.642,22.175,120.893,9.788,83.833,0,0,0,2.8e4,1.35e4,19.961,0.106,NaN,2019.906,NaN,0.018,1.19e6,5.115,9.405e-4,0.664,0.002,0.329,0.215,0.12,NaN,NaN,NaN,NaN,NaN,NaN,NaN,NaN,1.28e-5,165,213.825,80,0,6.08,15,1013.25,340.389,0.01,0.011
0.53,-4.652e-4,-0.093,-9.305,0.094,9.448,-8.203e-5,0,8.203e-5,180,0.016,1.641,22.175,120.893,9.788,83.836,0,0,0,2.8e4,1.35e4,19.961,0.106,NaN,2019.904,NaN,0.018,1.185e6,5.339,9.312e-4,0.664,0.002,0.329,0.215,0.12,NaN,NaN,NaN,NaN,NaN,NaN,NaN,NaN,1.279e-5,165,213.825,80,0,6.054,15,1013.25,340.389,0.01,0.012
0.54,-4.665e-4,-0.093,-9.329,0.095,9.473,-8.225e-5,0,8.225e-5,180,0.016,1.645,22.175,120.893,9.788,83.842,0,0,0,2.8e4,1.35e4,19.961,0.106,NaN,2019.903,NaN,0.018,1.18e6,4.638,9.207e-4,0.664,0.002,0.329,0.215,0.12,NaN,NaN,NaN,NaN,NaN,NaN,NaN,NaN,1.283e-5,165,213.825,80,0,6.027,15,1013.25,340.389,0.01,0.012
0.55,-4.662e-4,-0.093,-9.323,0.095,9.467,-8.22e-5,0,8.22e-5,180,0.016,1.644,22.175,120.893,9.788,83.846,0,0,0,2.8e4,1.35e4,19.961,0.106,NaN,2019.901,NaN,0.018,1.175e6,4.82,9.115e-4,0.665,0.002,0.33,0.215,0.12,NaN,NaN,NaN,NaN,NaN,NaN,NaN,NaN,1.282e-5,165,213.825,80,0,6,15,1013.25,340.389,0.01,0.012
0.56,-4.656e-4,-0.093,-9.312,0.095,9.455,-8.21e-5,0,8.21e-5,180,0.016,1.642,22.175,120.893,9.788,83.842,0,0,0,2.8e4,1.35e4,19.961,0.106,NaN,2019.899,NaN,0.018,1.178e6,5.14,9.181e-4,0.664,0.002,0.329,0.215,0.12,NaN,NaN,NaN,NaN,NaN,NaN,NaN,NaN,1.28e-5,165,213.825,80,0,6.018,15,1013.25,340.389,0.01,0.012
0.57,-4.655e-4,-0.093,-9.311,0.095,9.455,-8.209e-5,0,8.209e-5,180,0.016,1.642,22.175,120.893,9.788,83.839,0,0,0,2.8e4,1.35e4,19.961,0.106,NaN,2019.897,NaN,0.018,1.181e6,5.164,9.244e-4,0.664,0.002,0.329,0.215,0.12,NaN,NaN,NaN,NaN,NaN,NaN,NaN,NaN,1.28e-5,165,213.825,80,0,6.035,15,1013.25,340.389,0.01,0.012
0.58,-4.656e-4,-0.093,-9.312,0.095,9.456,-8.21e-5,0,8.21e-5,180,0.016,1.642,22.175,120.893,9.788,83.837,0,0,0,2.8e4,1.35e4,19.961,0.106,NaN,2019.895,NaN,0.018,1.185e6,5.125,9.306e-4,0.664,0.002,0.329,0.215,0.12,NaN,NaN,NaN,NaN,NaN,NaN,NaN,NaN,1.28e-5,165,213.825,80,0,6.053,15,1013.25,340.389,0.01,0.013
0.59,-4.653e-4,-0.093,-9.306,0.094,9.45,-8.205e-5,0,8.205e-5,180,0.016,1.641,22.175,120.893,9.788,83.834,0,0,0,2.8e4,1.35e4,19.961,0.106,NaN,2019.893,NaN,0.018,1.188e6,5.296,9.371e-4,0.664,0.002,0.329,0.215,0.12,NaN,NaN,NaN,NaN,NaN,NaN,NaN,NaN,1.279e-5,165,213.825,80,0,6.07,15,1013.25,340.389,0.01,0.013
0.6,-4.648e-4,-0.093,-9.297,0.094,9.44,-8.196e-5,0,8.196e-5,180,0.016,1.639,22.175,120.893,9.788,83.83,0,0,0,2.8e4,1.349e4,19.961,0.106,NaN,2019.891,NaN,0.018,1.192e6,5.567,9.438e-4,0.664,0.002,0.329,0.215,0.12,NaN,NaN,NaN,NaN,NaN,NaN,NaN,NaN,1.278e-5,165,213.825,80,0,6.088,15,1013.25,340.389,0.01,0.013
0.61,-4.646e-4,-0.093,-9.291,0.094,9.435,-8.192e-5,0,8.192e-5,180,0.016,1.638,22.175,120.893,9.788,83.832,0,0,0,2.8e4,1.349e4,19.961,0.106,NaN,2019.889,NaN,0.018,1.189e6,5.717,9.391e-4,0.664,0.002,0.329,0.215,0.12,NaN,NaN,NaN,NaN,NaN,NaN,NaN,NaN,1.277e-5,165,213.825,80,0,6.074,15,1013.25,340.389,0.01,0.013
0.62,-4.652e-4,-0.093,-9.304,0.094,9.447,-8.203e-5,0,8.203e-5,180,0.016,1.641,22.175,120.893,9.788,83.835,0,0,0,2.8e4,1.349e4,19.961,0.106,NaN,2019.887,NaN,0.018,1.186e6,5.366,9.336e-4,0.664,0.002,0.329,0.215,0.12,NaN,NaN,NaN,NaN,NaN,NaN,NaN,NaN,1.279e-5,165,213.825,80,0,6.06,15,1013.25,340.389,0.01,0.013
0.63,-4.644e-4,-0.093,-9.287,0.094,9.43,-8.188e-5,0,8.188e-5,180,0.016,1.638,22.175,120.893,9.788,83.835,0,0,0,2.799e4,1.349e4,19.961,0.106,NaN,2019.884,NaN,0.018,1.184e6,5.844,9.294e-4,0.664,0.002,0.329,0.215,0.12,NaN,NaN,NaN,NaN,NaN,NaN,NaN,NaN,1.277e-5,165,213.825,80,0,6.046,15,1013.25,340.389,0.01,0.013
0.64,-4.645e-4,-0.093,-9.289,0.094,9.432,-8.19e-5,0,8.19e-5,180,0.016,1.638,22.175,120.893,9.788,83.838,0,0,0,2.799e4,1.349e4,19.961,0.106,NaN,2019.882,NaN,0.018,1.181e6,5.786,9.244e-4,0.664,0.002,0.329,0.215,0.12,NaN,NaN,NaN,NaN,NaN,NaN,NaN,NaN,1.277e-5,165,213.825,80,0,6.033,15,1013.25,340.389,0.01,0.014
0.65,-4.641e-4,-0.093,-9.283,0.094,9.426,-8.184e-5,0,8.184e-5,180,0.016,1.637,22.175,120.893,9.788,83.839,0,0,0,2.799e4,1.349e4,19.961,0.106,NaN,2019.88,NaN,0.018,1.178e6,5.968,9.197e-4,0.664,0.002,0.329,0.215,0.12,NaN,NaN,NaN,NaN,NaN,NaN,NaN,NaN,1.276e-5,165,213.825,80,0,6.019,15,1013.25,340.389,0.01,0.014
0.66,-4.631e-4,-0.093,-9.262,0.094,9.405,-8.166e-5,0,8.166e-5,180,0.016,1.633,22.175,120.893,9.788,83.83,0,0,0,2.799e4,1.349e4,19.961,0.106,NaN,2019.877,NaN,0.018,1.187e6,6.551,9.371e-4,0.664,0.002,0.329,0.215,0.12,NaN,NaN,NaN,NaN,NaN,NaN,NaN,NaN,1.273e-5,165,213.825,80,0,6.065,15,1013.25,340.389,0.01,0.014
0.67,-4.628e-4,-0.093,-9.256,0.094,9.399,-8.161e-5,0,8.161e-5,180,0.016,1.632,22.175,120.893,9.788,83.823,0,0,0,2.799e4,1.349e4,19.961,0.106,NaN,2019.875,NaN,0.018,1.196e6,6.72,9.541e-4,0.663,0.002,0.328,0.215,0.12,NaN,NaN,NaN,NaN,NaN,NaN,NaN,NaN,1.273e-5,165,213.825,80,0,6.111,15,1013.25,340.389,0.01,0.014
0.68,-4.618e-4,-0.092,-9.236,0.094,9.378,-8.143e-5,0,8.143e-5,180,0.016,1.629,22.175,120.893,9.788,83.815,0,0,0,2.799e4,1.349e4,19.961,0.106,NaN,2019.872,NaN,0.018,1.205e6,7.299,9.718e-4,0.663,0.002,0.328,0.215,0.12,NaN,NaN,NaN,NaN,NaN,NaN,NaN,NaN,1.27e-5,165,213.825,80,0,6.157,15,1013.25,340.389,0.01,0.014
0.69,-4.615e-4,-0.092,-9.23,0.094,9.372,-8.137e-5,0,8.137e-5,180,0.016,1.627,22.175,120.893,9.788,83.808,0,0,0,2.799e4,1.349e4,19.961,0.106,NaN,2019.869,NaN,0.018,1.214e6,7.467,9.89e-4,0.663,0.002,0.327,0.215,0.12,NaN,NaN,NaN,NaN,NaN,NaN,NaN,NaN,1.269e-5,165,213.825,80,0,6.204,15,1013.25,340.389,0.01,0.014
0.7,-4.606e-4,-0.092,-9.213,0.094,9.355,-8.122e-5,0,8.122e-5,180,0.016,1.624,22.175,120.893,9.788,83.8,0,0,0,2.799e4,1.349e4,19.961,0.106,NaN,2019.866,NaN,0.018,1.224e6,7.951,0.001,0.662,0.002,0.327,0.215,0.12,NaN,NaN,NaN,NaN,NaN,NaN,NaN,NaN,1.267e-5,165,213.825,80,0,6.25,15,1013.25,340.389,0.01,0.015
0.71,-4.589e-4,-0.092,-9.178,0.093,9.32,-8.092e-5,0,8.092e-5,180,0.016,1.618,22.175,120.893,9.788,83.785,0,0,0,2.799e4,1.349e4,19.96,0.106,NaN,2019.863,NaN,0.019,1.24e6,8.938,0.001,0.661,0.002,0.326,0.215,0.12,NaN,NaN,NaN,NaN,NaN,NaN,NaN,NaN,1.262e-5,165,213.825,80,0,6.334,15,1013.25,340.389,0.01,0.015
0.72,-4.584e-4,-0.092,-9.167,0.093,9.308,-8.082e-5,0,8.082e-5,180,0.016,1.616,22.175,120.893,9.788,83.773,0,0,0,2.799e4,1.349e4,19.96,0.106,NaN,2019.859,NaN,0.019,1.256e6,9.255,0.001,0.66,0.002,0.325,0.215,0.12,NaN,NaN,NaN,NaN,NaN,NaN,NaN,NaN,1.26e-5,165,213.825,80,0,6.418,15,1013.25,340.389,0.01,0.015
0.73,-4.567e-4,-0.091,-9.134,0.093,9.275,-8.053e-5,0,8.053e-5,180,0.016,1.611,22.175,120.893,9.788,83.76,0,0,0,2.799e4,1.349e4,19.96,0.106,NaN,2019.855,NaN,0.019,1.273e6,10.185,0.001,0.66,0.002,0.324,0.215,0.12,NaN,NaN,NaN,NaN,NaN,NaN,NaN,NaN,1.256e-5,165,213.825,80,0,6.501,15,1013.25,340.389,0.01,0.015
0.74,-4.548e-4,-0.091,-9.096,0.092,9.236,-8.019e-5,0,8.019e-5,180,0.016,1.604,22.175,120.893,9.788,83.746,0,0,0,2.799e4,1.349e4,19.96,0.106,NaN,2019.851,NaN,0.019,1.289e6,11.275,0.001,0.659,0.002,0.324,0.215,0.12,NaN,NaN,NaN,NaN,NaN,NaN,NaN,NaN,1.251e-5,165,213.825,80,0,6.585,15,1013.25,340.389,0.01,0.015
0.75,-4.53e-4,-0.091,-9.059,0.092,9.199,-7.987e-5,0,7.987e-5,180,0.016,1.597,22.175,120.893,9.788,83.733,0,0,0,2.799e4,1.349e4,19.96,0.106,NaN,2019.846,NaN,0.02,1.306e6,12.322,0.001,0.658,0.002,0.323,0.215,0.12,NaN,NaN,NaN,NaN,NaN,NaN,NaN,NaN,1.245e-5,165,213.825,80,0,6.669,15,1013.25,340.389,0.01,0.016
0.76,-4.506e-4,-0.09,-9.012,0.092,9.151,-7.945e-5,0,7.945e-5,180,0.016,1.589,22.175,120.893,9.788,83.725,0,0,0,2.799e4,1.349e4,19.96,0.106,NaN,2019.841,NaN,0.02,1.312e6,13.663,0.001,0.658,0.002,0.322,0.215,0.12,NaN,NaN,NaN,NaN,NaN,NaN,NaN,NaN,1.239e-5,165,213.825,80,0,6.703,15,1013.25,340.389,0.01,0.016
0.77,-4.495e-4,-0.09,-8.989,0.091,9.128,-7.925e-5,0,7.925e-5,180,0.016,1.585,22.175,120.893,9.788,83.719,0,0,0,2.799e4,1.349e4,19.96,0.106,NaN,2019.836,NaN,0.02,1.319e6,14.302,0.001,0.657,0.002,0.322,0.215,0.12,NaN,NaN,NaN,NaN,NaN,NaN,NaN,NaN,1.236e-5,165,213.825,80,0,6.736,15,1013.25,340.389,0.01,0.016
0.78,-4.469e-4,-0.089,-8.938,0.091,9.076,-7.88e-5,0,7.88e-5,180,0.016,1.576,22.175,120.893,9.788,83.71,0,0,0,2.799e4,1.349e4,19.96,0.106,NaN,2019.83,NaN,0.02,1.326e6,15.77,0.001,0.657,0.002,0.322,0.215,0.12,NaN,NaN,NaN,NaN,NaN,NaN,NaN,NaN,1.229e-5,165,213.825,80,0,6.77,15,1013.25,340.389,0.01,0.016
0.79,-4.449e-4,-0.089,-8.897,0.09,9.034,-7.844e-5,0,7.844e-5,180,0.016,1.569,22.175,120.893,9.788,83.703,0,0,0,2.799e4,1.349e4,19.96,0.106,NaN,2019.823,NaN,0.02,1.332e6,16.927,0.001,0.657,0.002,0.322,0.215,0.12,NaN,NaN,NaN,NaN,NaN,NaN,NaN,NaN,1.223e-5,165,213.825,80,0,6.804,15,1013.25,340.389,0.01,0.016
0.8,-4.428e-4,-0.089,-8.855,0.09,8.992,-7.807e-5,0,7.807e-5,180,0.016,1.561,22.175,120.893,9.788,83.696,0,0,0,2.799e4,1.349e4,19.96,0.106,NaN,2019.816,NaN,0.02,1.339e6,18.121,0.001,0.656,0.002,0.321,0.215,0.12,NaN,NaN,NaN,NaN,NaN,NaN,NaN,NaN,1.217e-5,165,213.825,80,0,6.837,15,1013.25,340.389,0.01,0.016
0.81,-4.404e-4,-0.088,-8.809,0.089,8.945,-7.766e-5,0,7.766e-5,180,0.016,1.553,22.175,120.893,9.788,83.689,0,0,0,2.799e4,1.349e4,19.96,0.106,NaN,2019.809,NaN,0.02,1.344e6,19.438,0.001,0.656,0.002,0.321,0.215,0.12,NaN,NaN,NaN,NaN,NaN,NaN,NaN,NaN,1.211e-5,165,213.825,80,0,6.865,15,1013.25,340.389,0.01,0.017
0.82,-4.392e-4,-0.088,-8.783,0.089,8.919,-7.744e-5,0,7.744e-5,180,0.015,1.549,22.175,120.893,9.788,83.684,0,0,0,2.799e4,1.349e4,19.959,0.106,NaN,2019.801,NaN,0.02,1.35e6,20.155,0.001,0.656,0.002,0.321,0.215,0.12,NaN,NaN,NaN,NaN,NaN,NaN,NaN,NaN,1.208e-5,165,213.825,80,0,6.893,15,1013.25,340.389,0.01,0.017
0.83,-4.343e-4,-0.087,-8.687,0.088,8.821,-7.659e-5,0,7.659e-5,180,0.015,1.532,22.175,120.893,9.788,83.673,0,0,0,2.799e4,1.349e4,19.959,0.106,NaN,2019.793,NaN,0.02,1.355e6,22.899,0.001,0.656,0.002,0.32,0.215,0.12,NaN,NaN,NaN,NaN,NaN,NaN,NaN,NaN,1.194e-5,165,213.825,80,0,6.921,15,1013.25,340.389,0.01,0.017
0.84,-4.256e-4,-0.085,-8.511,0.086,8.643,-7.504e-5,0,7.504e-5,180,0.015,1.501,22.175,120.893,9.788,83.655,0,0,0,2.799e4,1.349e4,19.959,0.106,NaN,2019.782,NaN,0.02,1.361e6,27.886,0.001,0.655,0.002,0.32,0.215,0.12,NaN,NaN,NaN,NaN,NaN,NaN,NaN,NaN,1.17e-5,165,213.825,80,0,6.949,15,1013.25,340.389,0.01,0.017
0.85,-4.183e-4,-0.084,-8.365,0.085,8.494,-7.375e-5,0,7.375e-5,180,0.015,1.475,22.175,120.893,9.788,83.64,0,0,0,2.799e4,1.349e4,19.959,0.106,NaN,2019.77,NaN,0.02,1.366e6,32.036,0.001,0.655,0.002,0.32,0.215,0.12,NaN,NaN,NaN,NaN,NaN,NaN,NaN,NaN,1.15e-5,165,213.825,80,0,6.977,15,1013.25,340.389,0.01,0.017
0.86,-4.106e-4,-0.082,-8.212,0.083,8.339,-7.24e-5,0,7.24e-5,180,0.014,1.448,22.175,120.893,9.788,83.625,0,0,0,2.799e4,1.349e4,19.959,0.106,NaN,2019.756,NaN,0.021,1.372e6,36.392,0.001,0.655,0.002,0.32,0.215,0.12,NaN,NaN,NaN,NaN,NaN,NaN,NaN,NaN,1.129e-5,165,213.825,80,0,7.007,15,1013.25,340.389,0.01,0.018
0.87,-4.032e-4,-0.081,-8.065,0.082,8.189,-7.11e-5,0,7.11e-5,180,0.014,1.422,22.175,120.893,9.788,83.61,0,0,0,2.799e4,1.349e4,19.958,0.106,NaN,2019.74,NaN,0.021,1.378e6,40.581,0.001,0.655,0.002,0.319,0.215,0.12,NaN,NaN,NaN,NaN,NaN,NaN,NaN,NaN,1.109e-5,165,213.825,80,0,7.037,15,1013.25,340.389,0.01,0.018
0.88,-3.96e-4,-0.079,-7.92,0.08,8.043,-6.983e-5,0,6.983e-5,180,0.014,1.397,22.175,120.893,9.788,83.595,0,0,0,2.799e4,1.349e4,19.958,0.106,NaN,2019.723,NaN,0.021,1.384e6,44.682,0.001,0.654,0.002,0.319,0.215,0.12,NaN,NaN,NaN,NaN,NaN,NaN,NaN,NaN,1.089e-5,165,213.825,80,0,7.068,15,1013.25,340.389,0.01,0.018
0.89,-3.897e-4,-0.078,-7.793,0.079,7.913,-6.871e-5,0,6.871e-5,180,0.014,1.374,22.175,120.893,9.788,83.582,0,0,0,2.799e4,1.349e4,19.958,0.106,NaN,2019.705,NaN,0.021,1.39e6,48.294,0.001,0.654,0.002,0.319,0.215,0.12,NaN,NaN,NaN,NaN,NaN,NaN,NaN,NaN,1.071e-5,165,213.825,80,0,7.098,15,1013.25,340.389,0.01,0.018
0.9,-3.836e-4,-0.077,-7.671,0.078,7.79,-6.763e-5,0,6.763e-5,180,0.014,1.353,22.175,120.893,9.788,83.569,0,0,0,2.799e4,1.349e4,19.957,0.106,NaN,2019.685,NaN,0.021,1.396e6,51.752,0.001,0.654,0.002,0.319,0.215,0.12,NaN,NaN,NaN,NaN,NaN,NaN,NaN,NaN,1.055e-5,165,213.825,80,0,7.129,15,1013.25,340.389,0.01,0.018
0.91,-3.755e-4,-0.075,-7.511,0.076,7.627,-6.622e-5,0,6.622e-5,180,0.013,1.324,22.175,120.893,9.788,83.559,0,0,0,2.798e4,1.348e4,19.957,0.106,NaN,2019.664,NaN,0.021,1.39e6,56.319,0.001,0.654,0.002,0.319,0.215,0.12,NaN,NaN,NaN,NaN,NaN,NaN,NaN,NaN,1.033e-5,165,213.825,80,0,7.099,15,1013.25,340.389,0.01,0.018
0.92,-3.677e-4,-0.074,-7.355,0.075,7.468,-6.484e-5,0,6.484e-5,180,0.013,1.297,22.175,120.893,9.788,83.549,0,0,0,2.798e4,1.348e4,19.957,0.106,NaN,2019.641,NaN,0.021,1.384e6,60.748,0.001,0.654,0.002,0.319,0.215,0.12,NaN,NaN,NaN,NaN,NaN,NaN,NaN,NaN,1.011e-5,165,213.825,80,0,7.068,15,1013.25,340.389,0.01,0.019
0.93,-3.561e-4,-0.071,-7.121,0.072,7.231,-6.278e-5,0,6.278e-5,180,0.013,1.256,22.175,120.893,9.788,83.532,0,0,0,2.798e4,1.348e4,19.956,0.106,NaN,2019.615,NaN,0.021,1.379e6,67.387,0.001,0.655,0.002,0.319,0.215,0.12,NaN,NaN,NaN,NaN,NaN,NaN,NaN,NaN,9.79e-6,165,213.825,80,0,7.038,15,1013.25,340.389,0.01,0.019
0.94,-3.418e-4,-0.068,-6.837,0.069,6.942,-6.028e-5,0,6.028e-5,180,0.012,1.206,22.175,120.893,9.788,83.511,0,0,0,2.798e4,1.348e4,19.956,0.106,NaN,2019.586,NaN,0.021,1.373e6,75.455,0.001,0.655,0.002,0.32,0.215,0.12,NaN,NaN,NaN,NaN,NaN,NaN,NaN,NaN,9.4e-6,165,213.825,80,0,7.007,15,1013.25,340.389,0.01,0.019
0.95,-3.257e-4,-0.065,-6.515,0.066,6.615,-5.744e-5,0,5.744e-5,180,0.011,1.149,22.175,120.893,9.788,83.487,0,0,0,2.798e4,1.348e4,19.955,0.106,NaN,2019.554,NaN,0.02,1.367e6,84.603,0.001,0.655,0.002,0.32,0.215,0.12,NaN,NaN,NaN,NaN,NaN,NaN,NaN,NaN,8.957e-6,165,213.825,80,0,6.977,15,1013.25,340.389,0.01,0.019
0.96,-3.058e-4,-0.061,-6.116,0.062,6.21,-5.392e-5,0,5.392e-5,180,0.011,1.078,22.175,120.893,9.788,83.459,0,0,0,2.798e4,1.348e4,19.954,0.106,NaN,2019.517,NaN,0.02,1.352e6,95.934,0.001,0.656,0.002,0.321,0.215,0.12,NaN,NaN,NaN,NaN,NaN,NaN,NaN,NaN,8.408e-6,165,213.825,80,0,6.902,15,1013.25,340.389,0.01,0.019
0.97,-2.857e-4,-0.057,-5.714,0.058,5.803,-5.038e-5,0,5.038e-5,180,0.01,1.008,22.175,120.893,9.788,83.431,0,0,0,2.798e4,1.348e4,19.954,0.106,NaN,2019.476,NaN,0.02,1.337e6,107.326,0.001,0.656,0.002,0.321,0.215,0.12,NaN,NaN,NaN,NaN,NaN,NaN,NaN,NaN,7.857e-6,165,213.825,80,0,6.827,15,1013.25,340.389,0.01,0.019
0.98,-2.598e-4,-0.052,-5.196,0.053,5.277,-4.582e-5,0,4.582e-5,180,0.009,0.916,22.175,120.893,9.788,83.392,0,0,0,2.797e4,1.347e4,19.953,0.106,NaN,2019.43,NaN,0.02,1.323e6,122.033,0.001,0.657,0.002,0.322,0.215,0.12,NaN,NaN,NaN,NaN,NaN,NaN,NaN,NaN,7.144e-6,165,213.825,80,0,6.751,15,1013.25,340.389,0.01,0.02
0.99,-2.264e-4,-0.045,-4.527,0.046,4.597,-3.992e-5,0,3.992e-5,180,0.008,0.798,22.175,120.893,9.788,83.339,0,0,0,2.797e4,1.347e4,19.952,0.106,NaN,2019.376,NaN,0.02,1.308e6,141.022,0.001,0.658,0.002,0.323,0.215,0.12,NaN,NaN,NaN,NaN,NaN,NaN,NaN,NaN,6.225e-6,165,213.825,80,0,6.676,15,1013.25,340.389,0.01,0.02
1,-1.775e-4,-0.035,-3.549,0.036,3.604,-3.129e-5,0,3.129e-5,180,0.006,0.626,22.175,120.893,9.788,83.258,0,0,0,2.797e4,1.347e4,19.951,0.106,NaN,2019.312,NaN,0.019,1.294e6,168.795,0.001,0.659,0.003,0.323,0.215,0.12,NaN,NaN,NaN,NaN,NaN,NaN,NaN,NaN,4.88e-6,165,213.825,80,0,6.601,15,1013.25,340.389,0.01,0.02
1.01,-1.08e-4,-0.022,-2.16,0.022,2.193,-1.905e-5,0,1.905e-5,180,0.004,0.381,22.175,120.893,9.788,83.134,0,0,0,2.796e4,1.346e4,19.949,0.106,NaN,2019.232,NaN,0.02,1.308e6,208.221,0.002,0.658,0.003,0.323,0.215,0.12,NaN,NaN,NaN,NaN,NaN,NaN,NaN,NaN,2.97e-6,165,213.825,80,0,6.672,15,1013.25,340.389,0.01,0.02
1.02,-4.34e-5,-0.009,-0.867,0.009,0.88,-7.652e-6,0,7.652e-6,180,0.002,0.153,22.175,120.893,9.788,83.021,0,0,0,2.796e4,1.346e4,19.948,0.106,NaN,2019.139,NaN,0.02,1.322e6,244.886,0.002,0.657,0.003,0.322,0.215,0.12,NaN,NaN,NaN,NaN,NaN,NaN,NaN,NaN,1.193e-6,165,213.825,80,0,6.743,15,1013.25,340.389,0.01,0.02
1.03,2.651e-5,0.005,0.531,0.005,0.54,4.675e-6,0,4.675e-6,0,9.354e-4,0.094,22.175,120.893,9.788,82.902,0,0,0,2.795e4,1.345e4,19.946,0.106,NaN,2019.03,NaN,0.02,1.337e6,284.538,0.002,0.657,0.003,0.321,0.215,0.12,NaN,NaN,NaN,NaN,NaN,NaN,NaN,NaN,7.294e-7,165,213.825,80,0,6.814,15,1013.25,340.389,0.01,0.021
1.04,1.812e-4,0.026,2.035,0.026,2.066,3.195e-5,0,3.195e-5,0,0.005,0.359,22.175,120.893,9.788,82.732,0,0,0,2.795e4,1.345e4,19.943,0.106,NaN,2018.905,NaN,0.02,1.351e6,327.142,0.002,0.656,0.003,0.321,0.215,0.12,NaN,NaN,NaN,NaN,NaN,NaN,NaN,NaN,3.525e-6,165,213.825,80,0,6.885,15,1013.25,340.389,0.01,0.021
1.05,6.197e-4,0.062,3.643,0.063,3.699,1.093e-4,0,1.093e-4,0,0.011,0.642,22.175,120.893,9.788,82.433,0,0,0,2.794e4,1.344e4,19.941,0.106,NaN,2018.763,NaN,0.02,1.366e6,372.693,0.002,0.655,0.004,0.32,0.215,0.12,NaN,NaN,NaN,NaN,NaN,NaN,NaN,NaN,8.531e-6,165,213.825,80,0,6.957,15,1013.25,340.389,0.01,0.021
1.06,0.002,0.118,5.603,0.12,5.689,2.681e-4,0,2.681e-4,0,0.021,0.988,22.175,120.893,9.788,81.945,0,0,0,2.793e4,1.343e4,19.938,0.106,NaN,2018.599,NaN,0.02,1.334e6,428.171,0.003,0.657,0.004,0.321,0.215,0.12,NaN,NaN,NaN,NaN,NaN,NaN,NaN,NaN,1.623e-5,165,213.825,80,0,6.788,15,1013.25,340.389,0.01,0.021
1.07,0.003,0.193,7.537,0.196,7.653,5.426e-4,0,5.426e-4,0,0.034,1.329,22.175,120.893,9.788,81.267,0,0,0,2.792e4,1.342e4,19.935,0.106,NaN,2018.415,NaN,0.02,1.304e6,482.882,0.003,0.658,0.005,0.323,0.215,0.12,NaN,NaN,NaN,NaN,NaN,NaN,NaN,NaN,2.659e-5,165,213.825,80,0,6.62,15,1013.25,340.389,0.01,0.021
1.08,0.005,0.291,9.756,0.295,9.907,9.696e-4,0,9.696e-4,0,0.051,1.72,22.175,120.893,9.788,80.36,0,0,0,2.791e4,1.341e4,19.931,0.106,NaN,2018.206,NaN,0.019,1.274e6,545.617,0.004,0.66,0.007,0.324,0.215,0.12,NaN,NaN,NaN,NaN,NaN,NaN,NaN,NaN,4e-5,165,213.825,80,0,6.451,15,1013.249,340.389,0.01,0.021
1.09,0.009,0.414,12.278,0.42,12.467,0.002,0,0.002,0,0.073,2.165,22.175,120.893,9.788,79.182,0,0,0,2.79e4,1.34e4,19.927,0.106,NaN,2017.969,NaN,0.019,1.245e6,616.859,0.005,0.661,0.01,0.326,0.215,0.12,NaN,NaN,NaN,NaN,NaN,NaN,NaN,NaN,5.687e-5,165,213.825,80,0,6.283,15,1013.249,340.389,0.01,0.022
1.1,0.014,0.565,15.164,0.574,15.398,0.002,0,0.002,0,0.1,2.674,22.175,120.893,9.788,77.685,0,0,0,2.789e4,1.339e4,19.922,0.106,NaN,2017.702,NaN,0.018,1.218e6,698.307,0.007,0.662,0.014,0.327,0.215,0.12,NaN,NaN,NaN,NaN,NaN,NaN,NaN,NaN,7.771e-5,165,213.825,80,0,6.115,15,1013.248,340.389,0.01,0.022
1.11,0.02,0.747,18.204,0.759,18.485,0.004,0,0.004,0,0.132,3.21,22.175,120.893,9.788,76.083,0,0,0,2.788e4,1.338e4,19.917,0.106,NaN,2017.401,NaN,0.019,1.236e6,784.022,0.011,0.661,0.02,0.326,0.215,0.12,NaN,NaN,NaN,NaN,NaN,NaN,NaN,NaN,1.027e-4,165,213.825,80,0,6.162,15,1013.248,340.389,0.01,0.022
1.12,0.029,0.96,21.324,0.975,21.653,0.005,0,0.005,0,0.169,3.76,22.175,120.893,9.788,74.254,0,0,0,2.786e4,1.336e4,19.911,0.106,NaN,2017.066,NaN,0.019,1.256e6,871.849,0.016,0.66,0.029,0.325,0.215,0.12,NaN,NaN,NaN,NaN,NaN,NaN,NaN,NaN,1.32e-4,165,213.825,80,0,6.21,15,1013.247,340.389,0.01,0.022
1.13,0.04,1.205,24.498,1.224,24.876,0.007,0,0.007,0,0.213,4.32,22.175,120.893,9.788,72.214,0,0,0,2.784e4,1.334e4,19.904,0.106,NaN,2016.696,NaN,0.019,1.279e6,961.049,0.023,0.659,0.041,0.324,0.215,0.12,NaN,NaN,NaN,NaN,NaN,NaN,NaN,NaN,1.657e-4,165,213.825,80,0,6.258,15,1013.245,340.389,0.01,0.022
1.14,0.053,1.479,27.389,1.502,27.811,0.009,0,0.009,0,0.261,4.829,22.175,120.893,9.788,70.012,0,0,0,2.782e4,1.332e4,19.897,0.106,NaN,2016.295,NaN,0.02,1.306e6,1042.073,0.032,0.658,0.056,0.323,0.215,0.12,NaN,NaN,NaN,NaN,NaN,NaN,NaN,NaN,2.033e-4,165,213.825,80,0,6.305,15,1013.244,340.389,0.01,0.023
1.15,0.07,1.778,29.893,1.805,30.354,0.012,0,0.012,0,0.313,5.271,22.175,120.893,9.788,67.704,0,0,0,2.78e4,1.33e4,19.889,0.106,NaN,2015.866,NaN,0.02,1.336e6,1112.029,0.046,0.657,0.075,0.321,0.215,0.12,NaN,NaN,NaN,NaN,NaN,NaN,NaN,NaN,2.444e-4,165,213.825,80,0,6.353,15,1013.242,340.389,0.01,0.023
1.16,0.089,2.098,32.068,2.131,32.563,0.016,0,0.016,0,0.37,5.654,22.175,120.893,9.788,65.223,0,0,0,2.778e4,1.328e4,19.881,0.106,NaN,2015.413,NaN,0.02,1.362e6,1172.553,0.063,0.655,0.099,0.32,0.215,0.12,NaN,NaN,NaN,NaN,NaN,NaN,NaN,NaN,2.885e-4,165,213.825,80,0,6.355,14.999,1013.24,340.389,0.01,0.023
1.17,0.112,2.436,33.79,2.474,34.311,0.02,0,0.02,0,0.43,5.958,22.175,120.893,9.788,62.713,0,0,0,2.776e4,1.326e4,19.873,0.105,NaN,2014.941,NaN,0.021,1.392e6,1220.187,0.084,0.654,0.128,0.319,0.215,0.12,NaN,NaN,NaN,NaN,NaN,NaN,NaN,NaN,3.349e-4,165,213.825,80,0,6.356,14.999,1013.237,340.388,0.01,0.023
1.18,0.138,2.786,35.054,2.829,35.595,0.024,0,0.024,0,0.491,6.181,22.175,120.893,9.788,60.226,0,0,0,2.774e4,1.324e4,19.864,0.105,NaN,2014.455,NaN,0.021,1.426e6,1254.818,0.111,0.653,0.16,0.317,0.215,0.12,NaN,NaN,NaN,NaN,NaN,NaN,NaN,NaN,3.831e-4,165,213.825,80,0,6.358,14.999,1013.234,340.388,0.01,0.023
1.19,0.167,3.145,35.848,3.193,36.401,0.03,0,0.03,0,0.554,6.321,22.175,120.893,9.788,57.805,0,0,0,2.771e4,1.321e4,19.855,0.105,NaN,2013.959,NaN,0.022,1.463e6,1276.135,0.142,0.651,0.194,0.316,0.215,0.12,NaN,NaN,NaN,NaN,NaN,NaN,NaN,NaN,4.323e-4,165,213.825,80,0,6.36,14.999,1013.23,340.388,0.01,0.023
1.2,0.201,3.508,36.395,3.563,36.957,0.035,0,0.035,0,0.619,6.417,22.175,120.893,9.788,55.473,0,0,0,2.769e4,1.319e4,19.846,0.105,NaN,2013.458,NaN,0.023,1.503e6,1290.479,0.177,0.649,0.231,0.314,0.215,0.12,NaN,NaN,NaN,NaN,NaN,NaN,NaN,NaN,4.824e-4,165,213.825,80,0,6.362,14.999,1013.226,340.388,0.01,0.024
1.21,0.238,3.875,36.698,3.935,37.264,0.042,0,0.042,0,0.683,6.471,22.175,120.893,9.788,53.086,0,0,0,2.767e4,1.317e4,19.837,0.105,NaN,2012.952,NaN,0.023,1.538e6,1297.933,0.218,0.648,0.27,0.313,0.215,0.12,NaN,NaN,NaN,NaN,NaN,NaN,NaN,NaN,5.328e-4,165,213.825,80,0,6.319,14.998,1013.222,340.388,0.01,0.024
1.22,0.278,4.243,36.757,4.308,37.324,0.049,0,0.049,0,0.748,6.481,22.175,120.893,9.788,50.807,0,0,0,2.764e4,1.314e4,19.828,0.105,NaN,2012.446,NaN,0.024,1.576e6,1298.512,0.263,0.647,0.311,0.311,0.215,0.12,NaN,NaN,NaN,NaN,NaN,NaN,NaN,NaN,5.833e-4,165,213.825,80,0,6.276,14.998,1013.217,340.388,0.01,0.024
1.23,0.322,4.61,36.799,4.682,37.367,0.057,0,0.057,0,0.813,6.489,22.175,120.893,9.788,48.635,0,0,0,2.762e4,1.312e4,19.819,0.105,NaN,2011.938,NaN,0.024,1.616e6,1298.633,0.312,0.645,0.351,0.31,0.215,0.12,NaN,NaN,NaN,NaN,NaN,NaN,NaN,NaN,6.339e-4,165,213.825,80,0,6.233,14.998,1013.212,340.388,0.01,0.024
1.24,0.37,4.977,36.706,5.054,37.272,0.065,0,0.065,0,0.878,6.472,22.175,120.893,9.788,46.577,0,0,0,2.76e4,1.31e4,19.81,0.105,NaN,2011.431,NaN,0.025,1.659e6,1294.965,0.366,0.644,0.39,0.308,0.215,0.12,NaN,NaN,NaN,NaN,NaN,NaN,NaN,NaN,6.843e-4,165,213.825,80,0,6.19,14.998,1013.207,340.387,0.01,0.024
1.25,0.422,5.343,36.62,5.426,37.185,0.074,0,0.074,0,0.942,6.457,22.175,120.893,9.788,44.628,0,0,0,2.757e4,1.307e4,19.801,0.105,NaN,2010.925,NaN,0.026,1.703e6,1291.53,0.423,0.642,0.428,0.307,0.215,0.12,NaN,NaN,NaN,NaN,NaN,NaN,NaN,NaN,7.346e-4,165,213.825,80,0,6.147,14.997,1013.201,340.387,0.01,0.025
1.26,0.477,5.708,36.533,5.797,37.096,0.084,0,0.084,0,1.007,6.442,22.175,120.893,9.788,43.066,0,0,0,2.755e4,1.305e4,19.792,0.105,NaN,2010.419,NaN,0.026,1.759e6,1288.052,0.483,0.64,0.458,0.305,0.215,0.12,NaN,NaN,NaN,NaN,NaN,NaN,NaN,NaN,7.848e-4,165,213.825,80,0,6.173,14.997,1013.194,340.387,0.01,0.025
1.27,0.536,6.073,36.421,6.166,36.983,0.095,0,0.095,0,1.071,6.422,22.175,120.893,9.788,41.607,0,0,0,2.753e4,1.303e4,19.783,0.105,NaN,2009.914,NaN,0.027,1.817e6,1283.912,0.547,0.638,0.486,0.303,0.215,0.12,NaN,NaN,NaN,NaN,NaN,NaN,NaN,NaN,8.349e-4,165,213.825,80,0,6.199,14.997,1013.187,340.387,0.01,0.025
1.28,0.599,6.436,36.388,6.535,36.95,0.106,0,0.106,0,1.135,6.416,22.175,120.893,9.788,40.239,0,0,0,2.75e4,1.3e4,19.774,0.105,NaN,2009.409,NaN,0.028,1.875e6,1281.967,0.614,0.637,0.512,0.301,0.215,0.12,NaN,NaN,NaN,NaN,NaN,NaN,NaN,NaN,8.849e-4,165,213.825,80,0,6.224,14.996,1013.18,340.387,0.01,0.025
1.29,0.665,6.799,36.306,6.904,36.866,0.117,0,0.117,0,1.199,6.402,22.175,120.893,9.788,38.958,0,0,0,2.748e4,1.298e4,19.765,0.105,NaN,2008.904,NaN,0.029,1.935e6,1278.651,0.684,0.635,0.537,0.3,0.215,0.12,NaN,NaN,NaN,NaN,NaN,NaN,NaN,NaN,9.348e-4,165,213.825,80,0,6.25,14.996,1013.172,340.386,0.01,0.025
1.3,0.735,7.162,36.264,7.272,36.824,0.13,0,0.13,0,1.263,6.394,22.175,120.893,9.788,37.755,0,0,0,2.746e4,1.296e4,19.756,0.105,NaN,2008.399,NaN,0.03,1.995e6,1276.485,0.758,0.633,0.559,0.298,0.215,0.12,NaN,NaN,NaN,NaN,NaN,NaN,NaN,NaN,9.846e-4,165,213.825,80,0,6.276,14.995,1013.164,340.386,0.01,0.025
1.31,0.808,7.524,36.258,7.64,36.817,0.142,0,0.142,0,1.327,6.393,22.175,120.893,9.788,36.688,0,0,0,2.743e4,1.293e4,19.747,0.105,NaN,2007.894,NaN,0.031,2.058e6,1275.318,0.834,0.631,0.578,0.296,0.215,0.12,NaN,NaN,NaN,NaN,NaN,NaN,NaN,NaN,0.001,165,213.825,80,0,6.318,14.995,1013.155,340.386,0.01,0.026
1.32,0.885,7.886,36.23,8.008,36.789,0.156,0,0.156,0,1.391,6.388,22.175,120.893,9.788,35.685,0,0,0,2.741e4,1.291e4,19.738,0.105,NaN,2007.388,NaN,0.032,2.122e6,1273.528,0.914,0.63,0.596,0.294,0.215,0.12,NaN,NaN,NaN,NaN,NaN,NaN,NaN,NaN,0.001,165,213.825,80,0,6.36,14.994,1013.146,340.385,0.01,0.026
1.33,0.966,8.249,36.278,8.376,36.838,0.17,0,0.17,0,1.454,6.397,22.175,120.893,9.788,34.74,0,0,0,2.739e4,1.289e4,19.729,0.105,NaN,2006.882,NaN,0.033,2.186e6,1273.891,0.997,0.628,0.613,0.293,0.215,0.12,NaN,NaN,NaN,NaN,NaN,NaN,NaN,NaN,0.001,165,213.825,80,0,6.402,14.994,1013.137,340.385,0.01,0.026
1.34,1.05,8.611,36.255,8.744,36.814,0.185,0,0.185,0,1.518,6.393,22.175,120.893,9.788,33.849,0,0,0,2.736e4,1.286e4,19.72,0.105,NaN,2006.376,NaN,0.034,2.251e6,1272.247,1.083,0.627,0.627,0.291,0.215,0.12,NaN,NaN,NaN,NaN,NaN,NaN,NaN,NaN,0.001,165,213.825,80,0,6.444,14.993,1013.127,340.385,0.01,0.026
1.35,1.138,8.974,36.264,9.112,36.823,0.201,0,0.201,0,1.582,6.394,22.175,120.893,9.788,33.009,0,0,0,2.734e4,1.284e4,19.711,0.105,NaN,2005.868,NaN,0.035,2.317e6,1271.517,1.172,0.625,0.641,0.29,0.215,0.12,NaN,NaN,NaN,NaN,NaN,NaN,NaN,NaN,0.001,165,213.825,80,0,6.486,14.993,1013.117,340.384,0.01,0.026
1.36,1.23,9.336,36.3,9.48,36.86,0.217,0,0.217,0,1.646,6.401,22.175,120.893,9.788,32.163,0,0,0,2.732e4,1.282e4,19.702,0.105,NaN,2005.361,NaN,0.036,2.381e6,1271.539,1.264,0.624,0.655,0.288,0.215,0.12,NaN,NaN,NaN,NaN,NaN,NaN,NaN,NaN,0.001,165,213.825,80,0,6.514,14.992,1013.106,340.384,0.01,0.027
1.37,1.325,9.699,36.315,9.849,36.876,0.234,0,0.234,0,1.71,6.403,22.175,120.893,9.788,31.362,0,0,0,2.729e4,1.279e4,19.693,0.105,NaN,2004.852,NaN,0.037,2.446e6,1270.983,1.361,0.623,0.668,0.288,0.215,0.12,NaN,NaN,NaN,NaN,NaN,NaN,NaN,NaN,0.001,165,213.825,80,0,6.542,14.991,1013.095,340.384,0.01,0.027
1.38,1.424,10.063,36.429,10.219,36.991,0.251,0,0.251,0,1.774,6.423,22.175,120.893,9.788,30.6,0,0,0,2.727e4,1.277e4,19.684,0.105,NaN,2004.342,NaN,0.038,2.512e6,1273.167,1.462,0.623,0.68,0.288,0.215,0.12,NaN,NaN,NaN,NaN,NaN,NaN,NaN,NaN,0.001,165,213.825,80,0,6.57,14.991,1013.083,340.383,0.01,0.027
1.39,1.526,10.428,36.469,10.589,37.031,0.269,0,0.269,0,1.839,6.43,22.175,120.893,9.788,29.876,0,0,0,2.725e4,1.275e4,19.675,0.105,NaN,2003.83,NaN,0.039,2.578e6,1273.278,1.566,0.623,0.692,0.288,0.215,0.12,NaN,NaN,NaN,NaN,NaN,NaN,NaN,NaN,0.001,165,213.825,80,0,6.598,14.99,1013.071,340.383,0.01,0.027
1.4,1.632,10.793,36.554,10.96,37.118,0.288,0,0.288,0,1.903,6.445,22.175,120.893,9.788,29.186,0,0,0,2.723e4,1.273e4,19.666,0.105,NaN,2003.318,NaN,0.04,2.644e6,1274.663,1.674,0.623,0.703,0.288,0.215,0.12,NaN,NaN,NaN,NaN,NaN,NaN,NaN,NaN,0.001,165,213.825,80,0,6.626,14.989,1013.059,340.382,0.01,0.027
1.41,1.742,11.16,36.659,11.332,37.224,0.307,0,0.307,0,1.968,6.464,22.175,120.893,9.788,28.563,0,0,0,2.72e4,1.27e4,19.657,0.105,NaN,2002.803,NaN,0.041,2.713e6,1276.588,1.786,0.623,0.713,0.288,0.215,0.12,NaN,NaN,NaN,NaN,NaN,NaN,NaN,NaN,0.002,165,213.825,80,0,6.665,14.989,1013.046,340.382,0.01,0.027
1.42,1.855,11.527,36.725,11.705,37.292,0.327,0,0.327,0,2.032,6.476,22.175,120.893,9.788,27.969,0,0,0,2.718e4,1.268e4,19.648,0.105,NaN,2002.288,NaN,0.042,2.781e6,1277.444,1.9,0.623,0.721,0.288,0.215,0.12,NaN,NaN,NaN,NaN,NaN,NaN,NaN,NaN,0.002,165,213.825,80,0,6.703,14.988,1013.032,340.382,0.01,0.028
1.43,1.972,11.895,36.858,12.079,37.427,0.348,0,0.348,0,2.097,6.499,22.175,120.893,9.788,27.401,0,0,0,2.716e4,1.266e4,19.639,0.105,NaN,2001.77,NaN,0.043,2.851e6,1280.14,2.018,0.623,0.729,0.288,0.215,0.12,NaN,NaN,NaN,NaN,NaN,NaN,NaN,NaN,0.002,165,213.825,80,0,6.741,14.987,1013.019,340.381,0.01,0.028
1.44,2.093,12.264,36.913,12.453,37.483,0.369,0,0.369,0,2.163,6.509,22.175,120.893,9.788,26.86,0,0,0,2.713e4,1.263e4,19.629,0.105,NaN,2001.252,NaN,0.044,2.92e6,1280.681,2.14,0.623,0.737,0.288,0.215,0.12,NaN,NaN,NaN,NaN,NaN,NaN,NaN,NaN,0.002,165,213.825,80,0,6.78,14.986,1013.005,340.381,0.01,0.028
1.45,2.218,12.634,37.02,12.829,37.591,0.391,0,0.391,0,2.228,6.528,22.175,120.893,9.788,26.342,0,0,0,2.711e4,1.261e4,19.62,0.105,NaN,2000.731,NaN,0.045,2.99e6,1282.653,2.265,0.623,0.744,0.288,0.215,0.12,NaN,NaN,NaN,NaN,NaN,NaN,NaN,NaN,0.002,165,213.825,80,0,6.818,14.986,1012.99,340.38,0.01,0.028
1.46,2.346,13.005,37.136,13.206,37.709,0.414,0,0.414,0,2.293,6.548,22.175,120.893,9.788,25.44,0,0,0,2.709e4,1.259e4,19.611,0.104,NaN,2000.209,NaN,0.046,3.047e6,1284.861,2.387,0.623,0.755,0.288,0.215,0.12,NaN,NaN,NaN,NaN,NaN,NaN,NaN,NaN,0.002,165,213.825,80,0,6.726,14.985,1012.975,340.38,0.01,0.028
1.47,2.478,13.377,37.188,13.583,37.761,0.437,0,0.437,0,2.359,6.557,22.175,120.893,9.788,24.57,0,0,0,2.706e4,1.256e4,19.602,0.104,NaN,1999.686,NaN,0.047,3.104e6,1285.292,2.511,0.623,0.765,0.288,0.215,0.12,NaN,NaN,NaN,NaN,NaN,NaN,NaN,NaN,0.002,165,213.825,80,0,6.633,14.984,1012.959,340.379,0.01,0.029
1.48,2.613,13.75,37.307,13.962,37.883,0.461,0,0.461,0,2.424,6.578,22.175,120.893,9.788,23.73,0,0,0,2.704e4,1.254e4,19.592,0.104,NaN,1999.161,NaN,0.047,3.163e6,1287.587,2.636,0.623,0.774,0.288,0.215,0.12,NaN,NaN,NaN,NaN,NaN,NaN,NaN,NaN,0.002,165,213.825,80,0,6.54,14.983,1012.943,340.379,0.01,0.029
1.49,2.753,14.123,37.352,14.341,37.928,0.485,0,0.485,0,2.49,6.586,22.175,120.893,9.788,22.92,0,0,0,2.702e4,1.252e4,19.583,0.104,NaN,1998.635,NaN,0.048,3.222e6,1287.832,2.763,0.623,0.782,0.288,0.215,0.12,NaN,NaN,NaN,NaN,NaN,NaN,NaN,NaN,0.002,165,213.825,80,0,6.448,14.982,1012.927,340.378,0.01,0.029
1.5,2.896,14.497,37.421,14.721,37.998,0.511,0,0.511,0,2.556,6.598,22.175,120.893,9.788,22.139,0,0,0,2.699e4,1.249e4,19.574,0.104,NaN,1998.108,NaN,0.049,3.281e6,1288.735,2.892,0.623,0.789,0.288,0.215,0.12,NaN,NaN,NaN,NaN,NaN,NaN,NaN,NaN,0.002,165,213.825,80,0,6.355,14.981,1012.91,340.377,0.01,0.029
1.51,3.043,14.872,37.501,15.102,38.08,0.537,0,0.537,0,2.622,6.612,22.175,120.893,9.788,21.387,0,0,0,2.697e4,1.247e4,19.564,0.104,NaN,1997.579,NaN,0.05,3.342e6,1289.948,3.021,0.623,0.794,0.288,0.215,0.12,NaN,NaN,NaN,NaN,NaN,NaN,NaN,NaN,0.002,165,213.825,80,0,6.263,14.98,1012.893,340.377,0.01,0.029
1.52,3.193,15.247,37.516,15.482,38.095,0.563,0,0.563,0,2.688,6.615,22.175,120.893,9.788,20.662,0,0,0,2.695e4,1.244e4,19.555,0.104,NaN,1997.049,NaN,0.051,3.403e6,1289.376,3.152,0.623,0.799,0.288,0.215,0.12,NaN,NaN,NaN,NaN,NaN,NaN,NaN,NaN,0.002,165,213.825,80,0,6.171,14.979,1012.875,340.376,0.01,0.03
1.53,3.348,15.624,37.655,15.865,38.236,0.59,0,0.59,0,2.755,6.64,22.175,120.893,9.788,19.961,0,0,0,2.692e4,1.242e4,19.546,0.104,NaN,1996.518,NaN,0.052,3.465e6,1292.164,3.283,0.623,0.803,0.288,0.215,0.12,NaN,NaN,NaN,NaN,NaN,NaN,NaN,NaN,0.002,165,213.825,80,0,6.079,14.978,1012.857,340.376,0.01,0.03
1.54,3.506,16.001,37.723,16.247,38.305,0.618,0,0.618,0,2.821,6.652,22.175,120.893,9.788,19.284,0,0,0,2.69e4,1.24e4,19.536,0.104,NaN,1995.985,NaN,0.053,3.528e6,1293.051,3.416,0.624,0.806,0.288,0.215,0.12,NaN,NaN,NaN,NaN,NaN,NaN,NaN,NaN,0.002,165,213.825,80,0,5.987,14.977,1012.839,340.375,0.01,0.03
1.55,3.668,16.379,37.827,16.631,38.411,0.647,0,0.647,0,2.888,6.67,22.175,120.893,9.788,18.629,0,0,0,2.687e4,1.237e4,19.527,0.104,NaN,1995.451,NaN,0.054,3.591e6,1294.89,3.549,0.624,0.808,0.288,0.215,0.12,NaN,NaN,NaN,NaN,NaN,NaN,NaN,NaN,0.002,165,213.825,80,0,5.895,14.976,1012.82,340.374,0.01,0.03
1.56,3.833,16.758,37.95,17.016,38.535,0.676,0,0.676,0,2.955,6.692,22.175,120.893,9.788,18.346,0,0,0,2.685e4,1.235e4,19.517,0.104,NaN,1994.914,NaN,0.055,3.665e6,1297.251,3.702,0.624,0.809,0.288,0.215,0.12,NaN,NaN,NaN,NaN,NaN,NaN,NaN,NaN,0.002,165,213.825,80,0,5.929,14.975,1012.8,340.374,0.01,0.03
1.57,4.003,17.137,37.969,17.402,38.554,0.706,0,0.706,0,3.022,6.695,22.175,120.893,9.788,18.074,0,0,0,2.683e4,1.233e4,19.508,0.104,NaN,1994.377,NaN,0.056,3.74e6,1296.778,3.857,0.624,0.81,0.288,0.215,0.12,NaN,NaN,NaN,NaN,NaN,NaN,NaN,NaN,0.002,165,213.825,80,0,5.963,14.974,1012.781,340.373,0.01,0.03
1.585,4.264,17.706,37.92,17.982,38.698,0.752,7.93e-5,0.752,0.006,3.137,7.721,22.175,120.893,9.788,17.692,0,-0.004,-4.595e-6,2.679e4,1.229e4,19.493,0.104,1992.368,1993.568,-0.007,0.058,3.852e6,1298.654,4.096,0.624,0.81,0.288,0.215,0.12,5.359,-0.039,-3.195e-5,0,0,0,0,-4.464e-8,0.002,165,213.825,80,0,6.014,14.972,1012.75,340.372,0.015,0.031
1.608,4.672,18.563,38.124,18.855,38.898,0.825,5.028e-4,0.825,0.035,3.31,7.723,22.175,120.893,9.788,17.145,0,-3.662e-4,-3.849e-5,2.674e4,1.224e4,19.472,0.104,1997.368,1992.348,0.03,0.06,4.022e6,1301.804,4.467,0.624,0.811,0.288,0.215,0.12,5.134,0.156,-4.401e-4,0,0,0,0,0,0.003,165,213.825,80,2.824e-4,6.087,14.97,1012.702,340.37,0.023,0.031
1.641,5.321,19.858,38.462,20.177,39.231,0.941,0.002,0.941,0.113,3.571,7.731,22.175,120.893,9.788,16.371,0,0.028,6.299e-5,2.666e4,1.216e4,19.439,0.104,2004.72,1990.501,0.086,0.064,4.278e6,1307.398,5.05,0.624,0.81,0.288,0.215,0.121,4.822,0.416,4.915e-4,0,0,0,0,1.857e-6,0.003,165,213.825,80,-0.001,6.187,14.965,1012.626,340.368,0.034,0.031
1.691,6.362,21.797,38.884,22.153,39.648,1.129,0.006,1.129,0.28,3.957,7.748,22.175,120.893,9.788,15.126,0,0.128,8.297e-4,2.654e4,1.204e4,19.39,0.104,2017.232,1987.731,0.179,0.07,4.654e6,1313.533,5.937,0.624,0.805,0.288,0.216,0.121,4.335,0.775,-4.794e-5,0,0,0,0,3.32e-5,0.003,165,213.825,79.997,-0.016,6.231,14.959,1012.504,340.364,0.05,0.031
1.741,7.501,23.765,39.447,24.16,40.234,1.336,0.011,1.336,0.482,4.349,7.918,22.175,120.893,9.788,12.573,0,0.326,0.004,2.642e4,1.192e4,19.34,0.104,2045.801,1984.915,0.369,0.075,4.989e6,1323.765,6.612,0.624,0.78,0.288,0.216,0.121,3.394,1.252,-4.004e-4,0,0,0,0,1.889e-4,0.003,165,213.825,79.989,-0.059,5.574,14.951,1012.37,340.359,0.05,0.031
1.791,8.739,25.764,40.078,26.197,40.858,1.564,0.019,1.564,0.691,4.747,7.945,22.175,120.893,9.788,12.139,0,0.625,0.007,2.63e4,1.18e4,19.29,0.103,2051.14,1982.048,0.419,0.081,5.396e6,1335.184,7.68,0.624,0.774,0.288,0.216,0.121,3.242,1.357,2.392e-4,0,0,0,0,5.914e-4,0.004,165,213.825,79.972,-0.152,5.828,14.943,1012.225,340.354,0.05,0.032
1.841,10.078,27.796,40.744,28.269,41.535,1.811,0.028,1.811,0.9,5.148,8.07,22.175,120.893,9.788,10.917,0,0.997,0.017,2.617e4,1.167e4,19.238,0.103,2066.839,1979.127,0.532,0.087,5.781e6,1347.677,8.619,0.624,0.757,0.288,0.216,0.121,2.827,1.502,3.418e-4,0,0,0,0,0.001,0.004,165,213.825,79.943,-0.31,5.644,14.934,1012.068,340.349,0.05,0.032
1.891,11.52,29.868,41.543,30.38,42.343,2.078,0.04,2.079,1.103,5.557,8.194,22.175,120.893,9.788,10.175,0,1.461,0.029,2.605e4,1.155e4,19.185,0.103,2076.977,1976.143,0.611,0.093,6.189e6,1363.475,9.731,0.625,0.746,0.288,0.216,0.121,2.584,1.577,-2.482e-4,0,0,0,0,0.002,0.004,165,213.825,79.898,-0.546,5.667,14.925,1011.899,340.344,0.05,0.032
1.941,13.066,31.973,42.201,32.525,43.003,2.366,0.054,2.367,1.296,5.97,8.269,22.175,120.893,9.788,9.822,0,2.013,0.041,2.593e4,1.143e4,19.132,0.103,2081.998,1973.105,0.66,0.099,6.615e6,1375.364,11.039,0.625,0.74,0.288,0.216,0.121,2.472,1.627,1.81e-4,0,0,0,0,0.004,0.004,165,213.825,79.834,-0.874,5.901,14.915,1011.718,340.337,0.05,0.032
1.991,14.718,34.115,42.94,34.708,43.758,2.675,0.069,2.676,1.478,6.389,8.421,22.175,120.893,9.788,9.174,5.545e-7,2.661,0.063,2.58e4,1.13e4,19.077,0.103,2091.468,1970.006,0.736,0.106,7.038e6,1389.417,12.323,0.625,0.73,0.288,0.216,0.121,2.268,1.663,3.358e-4,0,0,0,0,0.006,0.005,165,213.825,79.746,-1.306,5.946,14.904,1011.524,340.331,0.05,0.032
2.041,16.478,36.305,43.922,36.94,44.764,3.004,0.086,3.006,1.646,6.819,8.64,22.175,120.893,9.788,8.597,4.571e-7,3.406,0.09,2.567e4,1.117e4,19.021,0.102,2100.223,1966.831,0.808,0.112,7.474e6,1409.711,13.72,0.625,0.721,0.288,0.216,0.122,2.092,1.683,-2.234e-4,0,0,0,0,0.009,0.005,165,213.825,79.63,-1.852,6.028,14.893,1011.317,340.324,0.05,0.033
2.091,18.349,38.539,44.78,39.217,45.654,3.356,0.105,3.358,1.798,7.26,8.889,22.175,120.893,9.788,7.953,1.019e-6,4.25,0.127,2.554e4,1.104e4,18.964,0.102,2110.385,1963.584,0.89,0.119,7.915e6,1426.753,15.169,0.626,0.71,0.287,0.216,0.122,1.901,1.679,-1.443e-4,0,0,0,0,0.013,0.005,165,213.825,79.483,-2.52,6.054,14.881,1011.098,340.317,0.05,0.033
2.141,20.333,40.802,45.361,41.525,46.266,3.73,0.126,3.732,1.932,7.712,9.106,22.175,120.893,9.788,7.465,8.973e-7,5.193,0.164,2.541e4,1.091e4,18.906,0.102,2118.377,1960.282,0.958,0.126,8.369e6,1436.554,16.777,0.626,0.703,0.287,0.216,0.122,1.76,1.669,3.328e-4,0,0,0,0,0.017,0.006,165,213.825,79.298,-3.313,6.196,14.868,1010.865,340.309,0.05,0.033
2.191,22.43,43.098,46.012,43.867,46.97,4.126,0.147,4.129,2.045,8.177,9.44,22.175,120.893,9.788,6.749,9.044e-7,6.231,0.232,2.528e4,1.078e4,18.847,0.102,2130.539,1956.918,1.052,0.132,8.82e6,1448.404,18.343,0.626,0.691,0.287,0.217,0.122,1.558,1.618,-4.858e-4,0,0,0,0,0.022,0.006,165,213.825,79.07,-4.23,6.162,14.854,1010.619,340.301,0.05,0.033
2.241,24.643,45.428,46.697,46.246,47.714,4.546,0.169,4.55,2.135,8.66,9.802,22.175,120.893,9.788,6.246,1.639e-6,7.346,0.288,2.515e4,1.065e4,18.787,0.102,2139.482,1953.489,1.127,0.139,9.289e6,1461.178,20.125,0.627,0.684,0.287,0.217,0.123,1.42,1.573,1.45e-5,0,0,0,0,0.028,0.006,165,213.825,78.794,-5.262,6.309,14.84,1010.36,340.292,0.05,0.033
2.291,26.974,47.782,47.153,48.652,48.238,4.991,0.192,4.995,2.198,9.159,10.174,22.175,120.893,9.788,5.806,-7.059e-7,8.555,0.341,2.501e4,1.051e4,18.726,0.101,2147.555,1950.006,1.197,0.147,9.767e6,1468.288,22.048,0.627,0.678,0.287,0.217,0.123,1.303,1.527,4.882e-4,0,0,0,0,0.034,0.007,165,213.825,78.466,-6.4,6.537,14.825,1010.086,340.283,0.05,0.034
2.341,29.421,50.136,47.156,51.061,48.35,5.462,0.213,5.466,2.233,9.677,10.675,22.175,120.893,9.788,4.881,5.133e-6,9.806,0.535,2.488e4,1.038e4,18.664,0.101,2165.192,1946.495,1.325,0.154,1.022e7,1464.702,23.71,0.627,0.665,0.287,0.217,0.123,1.064,1.37,-7.145e-5,0,0,0,0,0.04,0.007,165,213.825,78.08,-7.625,6.333,14.809,1009.799,340.273,0.05,0.034
2.391,31.987,52.489,47.117,53.474,48.437,5.959,0.233,5.963,2.236,10.219,11.233,22.175,120.893,9.788,4.08,4.602e-6,11.004,0.767,2.475e4,1.025e4,18.602,0.101,2181.4,1942.956,1.445,0.161,1.069e7,1460.577,25.532,0.628,0.655,0.287,0.217,0.123,0.867,1.207,3.814e-4,0,0,0,0,0.047,0.007,165,213.825,77.634,-8.91,6.237,14.792,1009.498,340.263,0.05,0.034
2.441,34.67,54.841,47.097,55.893,48.578,6.483,0.25,6.488,2.204,10.79,11.903,22.175,120.893,9.788,3.261,8.371e-6,12.127,1.137,2.461e4,1.011e4,18.539,0.101,2198.929,1939.385,1.573,0.168,1.115e7,1457.734,27.436,0.628,0.646,0.287,0.217,0.124,0.675,1.01,1.721e-4,0,0,0,0,0.052,0.008,165,213.825,77.129,-10.219,6.119,14.775,1009.184,340.252,0.05,0.034
2.491,37.471,57.172,46.641,58.295,48.303,7.038,0.262,7.042,2.134,11.388,12.561,22.175,120.893,9.788,2.483,5.285e-6,13.081,1.709,2.448e4,9982.7,18.477,0.101,2216.542,1935.809,1.701,0.175,1.162e7,1444.705,29.459,0.629,0.639,0.287,0.218,0.124,0.501,0.796,-7.218e-6,0,0,0,0,0.056,0.008,165,213.825,76.567,-11.518,6.036,14.756,1008.855,340.241,0.05,0.034
2.541,40.387,59.492,46.413,60.695,48.298,7.623,0.269,7.627,2.025,12.021,13.362,22.175,120.893,9.788,1.716,5.582e-6,13.737,2.786,2.435e4,9851.919,18.414,0.1,2234.895,1932.21,1.834,0.182,1.208e7,1438.362,31.614,0.629,0.634,0.287,0.218,0.124,0.337,0.561,4.472e-4,0,0,0,0,0.057,0.008,165,213.825,75.955,-12.775,5.948,14.737,1008.513,340.23,0.05,0.035
2.591,43.419,61.794,46.021,63.084,48.179,8.24,0.27,8.245,1.875,12.691,14.258,22.175,120.893,9.788,0.855,1.971e-5,12.973,6.591,2.422e4,9721.977,18.351,0.1,2256.753,1928.595,1.989,0.189,1.254e7,1429.136,33.852,0.629,0.631,0.287,0.218,0.125,0.163,0.277,-9.782e-5,0,0,0,0,0.047,0.009,165,213.825,75.302,-13.957,5.674,14.718,1008.158,340.218,0.05,0.035
2.641,46.567,64.098,46.053,65.485,48.522,8.892,0.261,8.896,1.683,13.407,15.282,22.175,120.893,9.788,0.424,2.246e-5,-0.618,14.706,2.409e4,9591.843,18.287,0.1,2268.319,1924.936,2.081,0.196,1.3e7,1431.244,36.369,0.63,0.63,0.287,0.218,0.125,0.079,0.165,-2.585e-4,0,0,0,0,-9.922e-5,0.009,165,213.825,74.624,-15.035,5.514,14.697,1007.789,340.205,0.05,0.035
2.691,49.829,66.398,45.964,67.893,48.757,9.581,0.243,9.584,1.45,14.17,16.265,22.175,120.893,9.788,0.76,3.383e-5,-11.753,8.486,2.396e4,9461.748,18.222,0.1,2259.55,1921.238,2.05,0.203,1.347e7,1430.823,39.139,0.63,0.632,0.287,0.218,0.125,0.144,0.329,3.717e-4,0,0,0,0,-0.033,0.009,165,213.825,73.939,-15.981,5.517,14.676,1007.406,340.193,0.05,0.035
2.741,53.207,68.7,45.97,70.315,49.149,10.309,0.212,10.311,1.177,14.982,17.388,22.175,120.893,9.788,1.419,3.137e-5,-12.896,4.976,2.383e4,9331.363,18.157,0.1,2242.824,1917.492,1.972,0.21,1.394e7,1433.995,42.098,0.631,0.635,0.287,0.219,0.126,0.276,0.582,-4.241e-4,0,0,0,0,-0.038,0.01,165,213.825,73.265,-16.776,5.298,14.654,1007.01,340.179,0.05,0.035
2.791,56.699,71.012,46.216,72.758,49.698,11.078,0.167,11.08,0.866,15.845,18.274,22.175,120.893,9.788,1.478,2.866e-5,-12.128,4.02,2.37e4,9200.305,18.091,0.099,2241.529,1913.685,1.987,0.217,1.444e7,1441.415,45.259,0.632,0.636,0.287,0.219,0.126,0.288,0.603,6.401e-5,0,0,0,0,-0.031,0.01,165,213.825,72.627,-17.413,5.816,14.631,1006.6,340.166,0.05,0.036
2.841,60.308,73.332,46.344,75.221,50.2,11.891,0.108,11.891,0.521,16.753,19.295,22.175,120.893,9.788,1.868,3.493e-5,-11.131,3.179,2.357e4,9068.707,18.023,0.099,2232.13,1909.819,1.953,0.225,1.492e7,1447.346,48.564,0.632,0.638,0.286,0.219,0.127,0.369,0.746,3.178e-4,0,0,0,0,-0.024,0.01,165,213.825,72.035,-17.903,5.819,14.608,1006.177,340.151,0.05,0.036
2.891,64.032,75.638,46.089,77.682,50.263,12.749,0.033,12.749,0.148,17.703,20.053,22.175,120.893,9.788,2.086,3.877e-5,-9.616,2.678,2.344e4,8937.495,17.955,0.099,2227.085,1905.922,1.946,0.232,1.541e7,1443.113,51.973,0.633,0.641,0.286,0.219,0.127,0.416,0.826,7.641e-5,0,0,0,0,-0.017,0.011,165,213.825,71.507,-18.253,5.942,14.584,1005.74,340.137,0.05,0.036
2.941,67.871,77.926,45.75,80.135,50.149,13.654,-0.06,13.654,-0.25,18.685,20.538,22.175,120.893,9.787,2.058,3.296e-5,-7.895,2.29,2.331e4,8806.998,17.887,0.099,2227.952,1902.002,1.975,0.24,1.59e7,1435.232,55.434,0.633,0.641,0.286,0.22,0.127,0.41,0.82,6.199e-5,0,0,0,0,-0.011,0.011,165,213.825,71.057,-18.468,6.301,14.559,1005.29,340.122,0.05,0.036
2.991,71.825,80.218,45.82,82.601,50.481,14.607,-0.17,14.608,-0.666,19.7,21.187,22.175,120.893,9.787,2.182,3.362e-5,-5.986,2.066,2.318e4,8676.274,17.818,0.099,2225.205,1898.031,1.983,0.247,1.639e7,1437.734,59.004,0.634,0.643,0.286,0.22,0.128,0.437,0.871,-2.079e-4,0,0,0,0,-0.006,0.011,165,213.825,70.694,-18.562,6.303,14.533,1004.826,340.106,0.05,0.036
3.041,75.894,82.525,46.178,85.094,51.033,15.61,-0.298,15.613,-1.095,20.749,21.726,22.175,120.893,9.787,2.166,3.625e-5,-3.828,1.921,2.305e4,8544.831,17.748,0.098,2225.772,1893.993,2.011,0.254,1.688e7,1445.651,62.652,0.635,0.643,0.286,0.22,0.128,0.433,0.874,-4.234e-4,0,0,0,0,-0.002,0.012,165,213.825,70.43,-18.539,6.354,14.507,1004.349,340.09,0.05,0.036
3.091,80.078,84.845,46.42,87.607,51.444,16.664,-0.446,16.67,-1.532,21.824,22.173,22.175,120.893,9.787,2.226,3.545e-5,-1.493,1.873,2.291e4,8412.968,17.677,0.098,2224.571,1889.896,2.028,0.262,1.735e7,1450.255,66.381,0.635,0.644,0.286,0.221,0.129,0.446,0.906,4.714e-5,0,0,0,0,-3.23e-4,0.012,165,213.825,70.273,-18.403,6.107,14.479,1003.858,340.073,0.05,0.037
