# Time (s),Altitude (m),Vertical velocity (m/s),Vertical acceleration (m/s²),Total velocity (m/s),Total acceleration (m/s²),Position East of launch (m),Position North of launch (m),Lateral distance (m),Lateral direction (°),Lateral velocity (m/s),Lateral acceleration (m/s²),Latitude (°),Longitude (°),Gravitational acceleration (m/s²),Angle of attack (°),Roll rate (°/s),Pitch rate (°/s),Yaw rate (°/s),Mass (g),Motor mass (g),Longitudinal moment of inertia (kg·m²),Rotational moment of inertia (kg·m²),CP location (mm),CG location (mm),Stability margin calibers (​),Mach number (​),Reynolds number (​),Thrust (N),Drag force (N),Drag coefficient (​),Axial drag coefficient (​),Friction drag coefficient (​),Pressure drag coefficient (​),Base drag coefficient (​),Normal force coefficient (​),Pitch moment coefficient (​),Yaw moment coefficient (​),Side force coefficient (​),Roll moment coefficient (​),Roll forcing coefficient (​),Roll damping coefficient (​),Pitch damping coefficient (​),Coriolis acceleration (m/s²),Reference length (mm),Reference area (cm²),Vertical orientation (zenith) (°),Lateral orientation (azimuth) (°),Wind velocity (m/s),Air temperature (°C),Air pressure (mbar),Speed of sound (m/s),Simulation time step (s),Computation time (s)
0.01,-4.757e-4,-0.095,-9.511,0.096,9.563,-5e-5,0,5e-5,180,0.01,1,22.175,120.893,9.788,132.239,0,0,0,2.8e4,1.35e4,19.963,0.106,NaN,2019.994,NaN,3.746e-4,2.501e4,4.784,-1.434e-4,1.181,-0.673,0.846,0.215,0.12,NaN,NaN,NaN,NaN,NaN,NaN,NaN,NaN,1.293e-5,165,213.825,84,0,0.095,15,1013.25,340.389,0.01,0.002
0.02,-4.761e-4,-0.095,-9.522,0.096,9.575,-5.004e-5,0,5.004e-5,180,0.01,1.001,22.175,120.893,9.788,132.151,0,0,0,2.8e4,1.35e4,19.963,0.106,NaN,2019.992,NaN,3.755e-4,2.507e4,4.461,-1.433e-4,1.18,-0.67,0.845,0.215,0.12,NaN,NaN,NaN,NaN,NaN,NaN,NaN,NaN,1.294e-5,165,213.825,84,0,0.095,15,1013.25,340.389,0.01,0.003
0.03,-4.763e-4,-0.095,-9.526,0.096,9.579,-5.006e-5,0,5.006e-5,180,0.01,1.001,22.175,120.893,9.788,132.04,0,0,0,2.8e4,1.35e4,19.963,0.106,NaN,2019.991,NaN,3.764e-4,2.512e4,4.343,-1.431e-4,1.18,-0.666,0.845,0.215,0.12,NaN,NaN,NaN,NaN,NaN,NaN,NaN,NaN,1.295e-5,165,213.825,84,0,0.096,15,1013.25,340.389,0.01,0.004
0.04,-4.765e-4,-0.095,-9.53,0.096,9.582,-5.008e-5,0,5.008e-5,180,0.01,1.002,22.175,120.893,9.788,131.927,0,0,0,2.8e4,1.35e4,19.963,0.106,NaN,2019.989,NaN,3.772e-4,2.518e4,4.249,-1.427e-4,1.179,-0.661,0.844,0.215,0.12,NaN,NaN,NaN,NaN,NaN,NaN,NaN,NaN,1.295e-5,165,213.825,84,0,0.096,15,1013.25,340.389,0.01,0.005
0.05,-4.761e-4,-0.095,-9.523,0.096,9.575,-5.005e-5,0,5.005e-5,180,0.01,1.001,22.175,120.893,9.788,131.78,0,0,0,2.8e4,1.35e4,19.963,0.106,NaN,2019.988,NaN,3.778e-4,2.522e4,4.443,-1.42e-4,1.179,-0.656,0.844,0.215,0.12,NaN,NaN,NaN,NaN,NaN,NaN,NaN,NaN,1.294e-5,165,213.825,84,0,0.096,15,1013.25,340.389,0.01,0.005
0.06,-4.757e-4,-0.095,-9.514,0.096,9.567,-5e-5,0,5e-5,180,0.01,1,22.175,120.893,9.788,131.592,0,0,0,2.8e4,1.35e4,19.963,0.106,NaN,2019.986,NaN,3.786e-4,2.527e4,4.681,-1.411e-4,1.178,-0.649,0.843,0.215,0.12,NaN,NaN,NaN,NaN,NaN,NaN,NaN,NaN,1.293e-5,165,213.825,84,0,0.097,15,1013.25,340.389,0.01,0.006
0.07,-4.762e-4,-0.095,-9.523,0.096,9.576,-5.005e-5,0,5.005e-5,180,0.01,1.001,22.175,120.893,9.788,131.462,0,0,0,2.8e4,1.35e4,19.963,0.106,NaN,2019.984,NaN,3.797e-4,2.535e4,4.438,-1.409e-4,1.177,-0.644,0.842,0.215,0.12,NaN,NaN,NaN,NaN,NaN,NaN,NaN,NaN,1.294e-5,165,213.825,84,0,0.097,15,1013.25,340.389,0.01,0.007
0.08,-4.761e-4,-0.095,-9.522,0.096,9.574,-5.004e-5,0,5.004e-5,180,0.01,1.001,22.175,120.893,9.788,131.3,0,0,0,2.8e4,1.35e4,19.963,0.106,NaN,2019.982,NaN,3.806e-4,2.541e4,4.479,-1.402e-4,1.177,-0.638,0.842,0.215,0.12,NaN,NaN,NaN,NaN,NaN,NaN,NaN,NaN,1.294e-5,165,213.825,84,0,0.098,15,1013.25,340.389,0.01,0.008
0.09,-4.759e-4,-0.095,-9.517,0.096,9.57,-5.002e-5,0,5.002e-5,180,0.01,1,22.175,120.893,9.788,131.128,0,0,0,2.8e4,1.35e4,19.963,0.106,NaN,2019.981,NaN,3.815e-4,2.547e4,4.603,-1.395e-4,1.176,-0.631,0.841,0.215,0.12,NaN,NaN,NaN,NaN,NaN,NaN,NaN,NaN,1.294e-5,165,213.825,84,0,0.098,15,1013.25,340.389,0.01,0.009
0.1,-4.764e-4,-0.095,-9.527,0.096,9.58,-5.007e-5,0,5.007e-5,180,0.01,1.001,22.175,120.893,9.788,131.006,0,0,0,2.8e4,1.35e4,19.963,0.106,NaN,2019.979,NaN,3.827e-4,2.555e4,4.315,-1.393e-4,1.175,-0.627,0.84,0.215,0.12,NaN,NaN,NaN,NaN,NaN,NaN,NaN,NaN,1.295e-5,165,213.825,84,0,0.099,15,1013.25,340.389,0.01,0.01
0.11,-4.762e-4,-0.095,-9.523,0.096,9.576,-5.005e-5,0,5.005e-5,180,0.01,1.001,22.175,120.893,9.788,130.558,0,0,0,2.8e4,1.35e4,19.963,0.106,NaN,2019.977,NaN,3.853e-4,2.572e4,4.431,-1.375e-4,1.173,-0.61,0.838,0.215,0.12,NaN,NaN,NaN,NaN,NaN,NaN,NaN,NaN,1.294e-5,165,213.825,84,0,0.1,15,1013.25,340.389,0.01,0.01
0.12,-4.762e-4,-0.095,-9.523,0.096,9.576,-5.005e-5,0,5.005e-5,180,0.01,1.001,22.175,120.893,9.788,130.13,0,0,0,2.8e4,1.35e4,19.962,0.106,NaN,2019.976,NaN,3.881e-4,2.591e4,4.436,-1.359e-4,1.172,-0.595,0.836,0.215,0.12,NaN,NaN,NaN,NaN,NaN,NaN,NaN,NaN,1.294e-5,165,213.825,84,0,0.102,15,1013.25,340.389,0.01,0.011
0.13,-4.758e-4,-0.095,-9.517,0.096,9.569,-5.001e-5,0,5.001e-5,180,0.01,1,22.175,120.893,9.788,129.687,0,0,0,2.8e4,1.35e4,19.962,0.106,NaN,2019.974,NaN,3.907e-4,2.608e4,4.62,-1.341e-4,1.17,-0.579,0.835,0.215,0.12,NaN,NaN,NaN,NaN,NaN,NaN,NaN,NaN,1.294e-5,165,213.825,84,0,0.103,15,1013.25,340.389,0.01,0.012
0.14,-4.762e-4,-0.095,-9.524,0.096,9.577,-5.005e-5,0,5.005e-5,180,0.01,1.001,22.175,120.893,9.788,129.297,0,0,0,2.8e4,1.35e4,19.962,0.106,NaN,2019.972,NaN,3.937e-4,2.628e4,4.404,-1.328e-4,1.168,-0.565,0.833,0.215,0.12,NaN,NaN,NaN,NaN,NaN,NaN,NaN,NaN,1.295e-5,165,213.825,84,0,0.104,15,1013.25,340.389,0.01,0.013
0.15,-4.761e-4,-0.095,-9.523,0.096,9.575,-5.004e-5,0,5.004e-5,180,0.01,1.001,22.175,120.893,9.788,128.882,0,0,0,2.8e4,1.35e4,19.962,0.106,NaN,2019.97,NaN,3.965e-4,2.647e4,4.444,-1.312e-4,1.166,-0.55,0.831,0.215,0.12,NaN,NaN,NaN,NaN,NaN,NaN,NaN,NaN,1.294e-5,165,213.825,84,0,0.106,15,1013.25,340.389,0.01,0.014
0.16,-4.758e-4,-0.095,-9.516,0.096,9.568,-5.001e-5,0,5.001e-5,180,0.01,1,22.175,120.893,9.788,128.859,0,0,0,2.8e4,1.35e4,19.962,0.106,NaN,2019.969,NaN,3.963e-4,2.646e4,4.651,-1.31e-4,1.166,-0.549,0.831,0.215,0.12,NaN,NaN,NaN,NaN,NaN,NaN,NaN,NaN,1.293e-5,165,213.825,84,0,0.106,15,1013.25,340.389,0.01,0.015
0.17,-4.765e-4,-0.095,-9.531,0.096,9.583,-5.009e-5,0,5.009e-5,180,0.01,1.002,22.175,120.893,9.788,128.912,0,0,0,2.8e4,1.35e4,19.962,0.106,NaN,2019.967,NaN,3.966e-4,2.647e4,4.218,-1.315e-4,1.166,-0.551,0.831,0.215,0.12,NaN,NaN,NaN,NaN,NaN,NaN,NaN,NaN,1.295e-5,165,213.825,84,0,0.106,15,1013.25,340.389,0.01,0.015
0.18,-4.765e-4,-0.095,-9.531,0.096,9.583,-5.009e-5,0,5.009e-5,180,0.01,1.002,22.175,120.893,9.788,128.913,0,0,0,2.8e4,1.35e4,19.962,0.106,NaN,2019.965,NaN,3.966e-4,2.647e4,4.225,-1.315e-4,1.166,-0.551,0.831,0.215,0.12,NaN,NaN,NaN,NaN,NaN,NaN,NaN,NaN,1.295e-5,165,213.825,84,0,0.106,15,1013.25,340.389,0.01,0.016
0.19,-4.764e-4,-0.095,-9.527,0.096,9.58,-5.007e-5,0,5.007e-5,180,0.01,1.001,22.175,120.893,9.788,128.903,0,0,0,2.8e4,1.35e4,19.962,0.106,NaN,2019.964,NaN,3.965e-4,2.647e4,4.321,-1.314e-4,1.166,-0.551,0.831,0.215,0.12,NaN,NaN,NaN,NaN,NaN,NaN,NaN,NaN,1.295e-5,165,213.825,84,0,0.106,15,1013.25,340.389,0.01,0.017
0.2,-4.766e-4,-0.095,-9.532,0.096,9.585,-5.01e-5,0,5.01e-5,180,0.01,1.002,22.175,120.893,9.788,128.922,0,0,0,2.8e4,1.35e4,19.962,0.106,NaN,2019.962,NaN,3.966e-4,2.647e4,4.174,-1.316e-4,1.166,-0.551,0.831,0.215,0.12,NaN,NaN,NaN,NaN,NaN,NaN,NaN,NaN,1.296e-5,165,213.825,84,0,0.106,15,1013.25,340.389,0.01,0.018
0.21,-4.763e-4,-0.095,-9.525,0.096,9.578,-5.006e-5,0,5.006e-5,180,0.01,1.001,22.175,120.893,9.788,128.919,0,0,0,2.8e4,1.35e4,19.962,0.106,NaN,2019.961,NaN,3.963e-4,2.646e4,4.381,-1.314e-4,1.166,-0.551,0.831,0.215,0.12,NaN,NaN,NaN,NaN,NaN,NaN,NaN,NaN,1.295e-5,165,213.825,84,0,0.106,15,1013.25,340.389,0.01,0.019
0.22,-4.758e-4,-0.095,-9.515,0.096,9.568,-5.001e-5,0,5.001e-5,180,0.01,1,22.175,120.893,9.788,128.907,0,0,0,2.8e4,1.35e4,19.962,0.106,NaN,2019.959,NaN,3.96e-4,2.643e4,4.657,-1.311e-4,1.166,-0.551,0.831,0.215,0.12,NaN,NaN,NaN,NaN,NaN,NaN,NaN,NaN,1.293e-5,165,213.825,84,0,0.105,15,1013.25,340.389,0.01,0.02
0.23,-4.762e-4,-0.095,-9.525,0.096,9.577,-5.005e-5,0,5.005e-5,180,0.01,1.001,22.175,120.893,9.788,128.959,0,0,0,2.8e4,1.35e4,19.962,0.106,NaN,2019.957,NaN,3.96e-4,2.644e4,4.392,-1.316e-4,1.166,-0.553,0.831,0.215,0.12,NaN,NaN,NaN,NaN,NaN,NaN,NaN,NaN,1.295e-5,165,213.825,84,0,0.105,15,1013.25,340.389,0.01,0.02
0.24,-4.76e-4,-0.095,-9.52,0.096,9.573,-5.003e-5,0,5.003e-5,180,0.01,1.001,22.175,120.893,9.788,128.966,0,0,0,2.8e4,1.35e4,19.962,0.106,NaN,2019.955,NaN,3.958e-4,2.642e4,4.513,-1.315e-4,1.166,-0.553,0.831,0.215,0.12,NaN,NaN,NaN,NaN,NaN,NaN,NaN,NaN,1.294e-5,165,213.825,84,0,0.105,15,1013.25,340.389,0.01,0.021
0.25,-4.759e-4,-0.095,-9.518,0.096,9.57,-5.002e-5,0,5.002e-5,180,0.01,1,22.175,120.893,9.788,128.978,0,0,0,2.8e4,1.35e4,19.962,0.106,NaN,2019.954,NaN,3.956e-4,2.641e4,4.587,-1.315e-4,1.167,-0.554,0.832,0.215,0.12,NaN,NaN,NaN,NaN,NaN,NaN,NaN,NaN,1.294e-5,165,213.825,84,0,0.105,15,1013.25,340.389,0.01,0.023
0.26,-4.762e-4,-0.095,-9.523,0.096,9.576,-5.005e-5,0,5.005e-5,180,0.01,1.001,22.175,120.893,9.788,129.027,0,0,0,2.8e4,1.35e4,19.962,0.106,NaN,2019.952,NaN,3.955e-4,2.64e4,4.429,-1.318e-4,1.167,-0.555,0.832,0.215,0.12,NaN,NaN,NaN,NaN,NaN,NaN,NaN,NaN,1.294e-5,165,213.825,84,0,0.105,15,1013.25,340.389,0.01,0.024
0.27,-4.76e-4,-0.095,-9.52,0.096,9.572,-5.003e-5,0,5.003e-5,180,0.01,1.001,22.175,120.893,9.788,129.045,0,0,0,2.8e4,1.35e4,19.962,0.106,NaN,2019.95,NaN,3.952e-4,2.638e4,4.527,-1.318e-4,1.167,-0.556,0.832,0.215,0.12,NaN,NaN,NaN,NaN,NaN,NaN,NaN,NaN,1.294e-5,165,213.825,84,0,0.105,15,1013.25,340.389,0.01,0.025
0.28,-4.761e-4,-0.095,-9.521,0.096,9.574,-5.004e-5,0,5.004e-5,180,0.01,1.001,22.175,120.893,9.788,129.08,0,0,0,2.8e4,1.35e4,19.962,0.106,NaN,2019.949,NaN,3.95e-4,2.637e4,4.488,-1.319e-4,1.167,-0.557,0.832,0.215,0.12,NaN,NaN,NaN,NaN,NaN,NaN,NaN,NaN,1.294e-5,165,213.825,84,0,0.105,15,1013.25,340.389,0.01,0.026
0.29,-4.758e-4,-0.095,-9.517,0.096,9.569,-5.001e-5,0,5.001e-5,180,0.01,1,22.175,120.893,9.788,129.094,0,0,0,2.8e4,1.35e4,19.962,0.106,NaN,2019.947,NaN,3.947e-4,2.635e4,4.616,-1.319e-4,1.167,-0.558,0.832,0.215,0.12,NaN,NaN,NaN,NaN,NaN,NaN,NaN,NaN,1.294e-5,165,213.825,84,0,0.105,15,1013.25,340.389,0.01,0.027
0.3,-4.76e-4,-0.095,-9.519,0.096,9.572,-5.003e-5,0,5.003e-5,180,0.01,1.001,22.175,120.893,9.788,129.133,0,0,0,2.8e4,1.35e4,19.962,0.106,NaN,2019.945,NaN,3.946e-4,2.634e4,4.548,-1.321e-4,1.167,-0.559,0.832,0.215,0.12,NaN,NaN,NaN,NaN,NaN,NaN,NaN,NaN,1.294e-5,165,213.825,84,0,0.105,15,1013.25,340.389,0.01,0.027
0.31,-4.757e-4,-0.095,-9.514,0.096,9.566,-5e-5,0,5e-5,180,0.01,1,22.175,120.893,9.788,129.427,0,0,0,2.8e4,1.35e4,19.962,0.106,NaN,2019.943,NaN,3.923e-4,2.619e4,4.706,-1.331e-4,1.169,-0.57,0.834,0.215,0.12,NaN,NaN,NaN,NaN,NaN,NaN,NaN,NaN,1.293e-5,165,213.825,84,0,0.104,15,1013.25,340.389,0.01,0.028
0.32,-4.763e-4,-0.095,-9.527,0.096,9.579,-5.007e-5,0,5.007e-5,180,0.01,1.001,22.175,120.893,9.788,129.788,0,0,0,2.8e4,1.35e4,19.962,0.106,NaN,2019.942,NaN,3.905e-4,2.607e4,4.332,-1.347e-4,1.17,-0.582,0.835,0.215,0.12,NaN,NaN,NaN,NaN,NaN,NaN,NaN,NaN,1.295e-5,165,213.825,84,0,0.103,15,1013.25,340.389,0.01,0.028
0.33,-4.761e-4,-0.095,-9.521,0.096,9.574,-5.004e-5,0,5.004e-5,180,0.01,1.001,22.175,120.893,9.788,130.09,0,0,0,2.8e4,1.35e4,19.962,0.106,NaN,2019.94,NaN,3.883e-4,2.592e4,4.483,-1.357e-4,1.171,-0.593,0.836,0.215,0.12,NaN,NaN,NaN,NaN,NaN,NaN,NaN,NaN,1.294e-5,165,213.825,84,0,0.102,15,1013.25,340.389,0.01,0.029
0.34,-4.759e-4,-0.095,-9.518,0.096,9.571,-5.002e-5,0,5.002e-5,180,0.01,1,22.175,120.893,9.788,130.404,0,0,0,2.8e4,1.35e4,19.962,0.106,NaN,2019.938,NaN,3.861e-4,2.578e4,4.57,-1.368e-4,1.173,-0.605,0.838,0.215,0.12,NaN,NaN,NaN,NaN,NaN,NaN,NaN,NaN,1.294e-5,165,213.825,84,0,0.101,15,1013.25,340.389,0.01,0.029
0.35,-4.762e-4,-0.095,-9.524,0.096,9.576,-5.005e-5,0,5.005e-5,180,0.01,1.001,22.175,120.893,9.788,130.749,0,0,0,2.8e4,1.35e4,19.962,0.106,NaN,2019.936,NaN,3.841e-4,2.564e4,4.419,-1.382e-4,1.174,-0.617,0.839,0.215,0.12,NaN,NaN,NaN,NaN,NaN,NaN,NaN,NaN,1.294e-5,165,213.825,84,0,0.1,15,1013.25,340.389,0.01,0.029
0.36,-4.764e-4,-0.095,-9.527,0.096,9.58,-5.007e-5,0,5.007e-5,180,0.01,1.001,22.175,120.893,9.788,130.57,0,0,0,2.8e4,1.35e4,19.962,0.106,NaN,2019.935,NaN,3.854e-4,2.573e4,4.317,-1.377e-4,1.173,-0.611,0.838,0.215,0.12,NaN,NaN,NaN,NaN,NaN,NaN,NaN,NaN,1.295e-5,165,213.825,84,0,0.1,15,1013.25,340.389,0.01,0.03
0.37,-4.76e-4,-0.095,-9.52,0.096,9.573,-5.003e-5,0,5.003e-5,180,0.01,1.001,22.175,120.893,9.788,130.357,0,0,0,2.8e4,1.35e4,19.962,0.106,NaN,2019.933,NaN,3.865e-4,2.58e4,4.522,-1.367e-4,1.173,-0.603,0.838,0.215,0.12,NaN,NaN,NaN,NaN,NaN,NaN,NaN,NaN,1.294e-5,165,213.825,84,0,0.101,15,1013.25,340.389,0.01,0.03
0.38,-4.762e-4,-0.095,-9.523,0.096,9.576,-5.005e-5,0,5.005e-5,180,0.01,1.001,22.175,120.893,9.788,130.179,0,0,0,2.8e4,1.35e4,19.962,0.106,NaN,2019.931,NaN,3.878e-4,2.589e4,4.433,-1.361e-4,1.172,-0.597,0.837,0.215,0.12,NaN,NaN,NaN,NaN,NaN,NaN,NaN,NaN,1.294e-5,165,213.825,84,0,0.101,15,1013.25,340.389,0.01,0.031
0.39,-4.757e-4,-0.095,-9.515,0.096,9.567,-5e-5,0,5e-5,180,0.01,1,22.175,120.893,9.788,129.964,0,0,0,2.8e4,1.35e4,19.962,0.106,NaN,2019.93,NaN,3.888e-4,2.596e4,4.673,-1.351e-4,1.171,-0.589,0.836,0.215,0.12,NaN,NaN,NaN,NaN,NaN,NaN,NaN,NaN,1.293e-5,165,213.825,84,0,0.102,15,1013.25,340.389,0.01,0.032
0.4,-4.755e-4,-0.095,-9.51,0.096,9.562,-4.998e-5,0,4.998e-5,180,0.01,1,22.175,120.893,9.788,129.762,0,0,0,2.8e4,1.35e4,19.962,0.106,NaN,2019.928,NaN,3.9e-4,2.603e4,4.812,-1.342e-4,1.17,-0.582,0.835,0.215,0.12,NaN,NaN,NaN,NaN,NaN,NaN,NaN,NaN,1.293e-5,165,213.825,84,0,0.103,15,1013.25,340.389,0.01,0.032
0.41,-4.759e-4,-0.095,-9.518,0.096,9.57,-5.002e-5,0,5.002e-5,180,0.01,1,22.175,120.893,9.788,129.998,0,0,0,2.8e4,1.35e4,19.962,0.106,NaN,2019.926,NaN,3.887e-4,2.595e4,4.595,-1.353e-4,1.171,-0.59,0.836,0.215,0.12,NaN,NaN,NaN,NaN,NaN,NaN,NaN,NaN,1.294e-5,165,213.825,84,0,0.102,15,1013.25,340.389,0.01,0.032
0.42,-4.758e-4,-0.095,-9.516,0.096,9.568,-5.001e-5,0,5.001e-5,180,0.01,1,22.175,120.893,9.788,130.205,0,0,0,2.8e4,1.35e4,19.962,0.106,NaN,2019.924,NaN,3.873e-4,2.585e4,4.638,-1.36e-4,1.172,-0.598,0.837,0.215,0.12,NaN,NaN,NaN,NaN,NaN,NaN,NaN,NaN,1.293e-5,165,213.825,84,0,0.101,15,1013.25,340.389,0.01,0.033
0.43,-4.755e-4,-0.095,-9.51,0.096,9.562,-4.998e-5,0,4.998e-5,180,0.01,1,22.175,120.893,9.788,130.398,0,0,0,2.8e4,1.35e4,19.962,0.106,NaN,2019.922,NaN,3.858e-4,2.576e4,4.811,-1.366e-4,1.173,-0.605,0.838,0.215,0.12,NaN,NaN,NaN,NaN,NaN,NaN,NaN,NaN,1.293e-5,165,213.825,84,0,0.101,15,1013.25,340.389,0.01,0.033
0.44,-4.753e-4,-0.095,-9.506,0.096,9.558,-4.996e-5,0,4.996e-5,180,0.01,0.999,22.175,120.893,9.788,130.6,0,0,0,2.8e4,1.35e4,19.962,0.106,NaN,2019.921,NaN,3.844e-4,2.566e4,4.919,-1.372e-4,1.174,-0.612,0.839,0.215,0.12,NaN,NaN,NaN,NaN,NaN,NaN,NaN,NaN,1.292e-5,165,213.825,84,0,0.1,15,1013.25,340.389,0.01,0.033
0.45,-4.759e-4,-0.095,-9.518,0.096,9.57,-5.002e-5,0,5.002e-5,180,0.01,1,22.175,120.893,9.788,130.856,0,0,0,2.8e4,1.35e4,19.961,0.106,NaN,2019.919,NaN,3.832e-4,2.558e4,4.583,-1.385e-4,1.175,-0.621,0.84,0.215,0.12,NaN,NaN,NaN,NaN,NaN,NaN,NaN,NaN,1.294e-5,165,213.825,84,0,0.099,15,1013.25,340.389,0.01,0.033
0.46,-4.762e-4,-0.095,-9.523,0.096,9.576,-5.005e-5,0,5.005e-5,180,0.01,1.001,22.175,120.893,9.788,130.288,0,0,0,2.8e4,1.35e4,19.961,0.106,NaN,2019.917,NaN,3.871e-4,2.584e4,4.429,-1.365e-4,1.172,-0.601,0.837,0.215,0.12,NaN,NaN,NaN,NaN,NaN,NaN,NaN,NaN,1.294e-5,165,213.825,84,0,0.101,15,1013.25,340.389,0.01,0.033
0.47,-4.761e-4,-0.095,-9.523,0.096,9.575,-5.004e-5,0,5.004e-5,180,0.01,1.001,22.175,120.893,9.788,129.711,0,0,0,2.8e4,1.35e4,19.961,0.106,NaN,2019.915,NaN,3.908e-4,2.609e4,4.45,-1.344e-4,1.17,-0.58,0.835,0.215,0.12,NaN,NaN,NaN,NaN,NaN,NaN,NaN,NaN,1.294e-5,165,213.825,84,0,0.103,15,1013.25,340.389,0.01,0.034
0.48,-4.753e-4,-0.095,-9.507,0.096,9.559,-4.996e-5,0,4.996e-5,180,0.01,0.999,22.175,120.893,9.788,129.094,0,0,0,2.8e4,1.35e4,19.961,0.106,NaN,2019.914,NaN,3.943e-4,2.632e4,4.905,-1.316e-4,1.167,-0.558,0.832,0.215,0.12,NaN,NaN,NaN,NaN,NaN,NaN,NaN,NaN,1.292e-5,165,213.825,84,0,0.105,15,1013.25,340.389,0.01,0.034
0.49,-4.756e-4,-0.095,-9.512,0.096,9.565,-4.999e-5,0,4.999e-5,180,0.01,1,22.175,120.893,9.788,128.56,0,0,0,2.8e4,1.35e4,19.961,0.106,NaN,2019.912,NaN,3.983e-4,2.659e4,4.746,-1.297e-4,1.165,-0.539,0.83,0.215,0.12,NaN,NaN,NaN,NaN,NaN,NaN,NaN,NaN,1.293e-5,165,213.825,84,0,0.107,15,1013.25,340.389,0.01,0.034
0.5,-4.761e-4,-0.095,-9.522,0.096,9.574,-5.004e-5,0,5.004e-5,180,0.01,1.001,22.175,120.893,9.788,128.05,0,0,0,2.8e4,1.35e4,19.961,0.106,NaN,2019.91,NaN,4.023e-4,2.686e4,4.47,-1.28e-4,1.162,-0.521,0.827,0.215,0.12,NaN,NaN,NaN,NaN,NaN,NaN,NaN,NaN,1.294e-5,165,213.825,84,0,0.108,15,1013.25,340.389,0.01,0.034
0.51,-4.758e-4,-0.095,-9.515,0.096,9.568,-5.001e-5,0,5.001e-5,180,0.01,1,22.175,120.893,9.788,128.71,0,0,0,2.8e4,1.35e4,19.961,0.106,NaN,2019.908,NaN,3.973e-4,2.653e4,4.657,-1.304e-4,1.165,-0.544,0.83,0.215,0.12,NaN,NaN,NaN,NaN,NaN,NaN,NaN,NaN,1.293e-5,165,213.825,84,0,0.106,15,1013.25,340.389,0.01,0.034
0.52,-4.75e-4,-0.095,-9.499,0.096,9.551,-4.992e-5,0,4.992e-5,180,0.01,0.998,22.175,120.893,9.788,129.355,0,0,0,2.8e4,1.35e4,19.961,0.106,NaN,2019.906,NaN,3.922e-4,2.618e4,5.115,-1.324e-4,1.169,-0.567,0.834,0.215,0.12,NaN,NaN,NaN,NaN,NaN,NaN,NaN,NaN,1.291e-5,165,213.825,84,0,0.104,15,1013.25,340.389,0.01,0.035
0.53,-4.746e-4,-0.095,-9.491,0.095,9.543,-4.988e-5,0,4.988e-5,180,0.01,0.998,22.175,120.893,9.788,130.044,0,0,0,2.8e4,1.35e4,19.961,0.106,NaN,2019.904,NaN,3.873e-4,2.586e4,5.339,-1.348e-4,1.172,-0.592,0.837,0.215,0.12,NaN,NaN,NaN,NaN,NaN,NaN,NaN,NaN,1.29e-5,165,213.825,84,0,0.101,15,1013.25,340.389,0.01,0.035
0.54,-4.758e-4,-0.095,-9.516,0.096,9.568,-5.001e-5,0,5.001e-5,180,0.01,1,22.175,120.893,9.788,130.862,0,0,0,2.8e4,1.35e4,19.961,0.106,NaN,2019.903,NaN,3.831e-4,2.558e4,4.638,-1.385e-4,1.175,-0.622,0.84,0.215,0.12,NaN,NaN,NaN,NaN,NaN,NaN,NaN,NaN,1.293e-5,165,213.825,84,0,0.099,15,1013.25,340.389,0.01,0.035
0.55,-4.755e-4,-0.095,-9.509,0.096,9.562,-4.997e-5,0,4.997e-5,180,0.01,0.999,22.175,120.893,9.788,131.592,0,0,0,2.8e4,1.35e4,19.961,0.106,NaN,2019.901,NaN,3.784e-4,2.526e4,4.82,-1.41e-4,1.178,-0.649,0.843,0.215,0.12,NaN,NaN,NaN,NaN,NaN,NaN,NaN,NaN,1.293e-5,165,213.825,84,0,0.097,15,1013.25,340.389,0.01,0.035
0.56,-4.749e-4,-0.095,-9.498,0.096,9.55,-4.991e-5,0,4.991e-5,180,0.01,0.998,22.175,120.893,9.788,131.784,0,0,0,2.8e4,1.35e4,19.961,0.106,NaN,2019.899,NaN,3.768e-4,2.515e4,5.14,-1.414e-4,1.179,-0.656,0.844,0.215,0.12,NaN,NaN,NaN,NaN,NaN,NaN,NaN,NaN,1.291e-5,165,213.825,84,0,0.096,15,1013.25,340.389,0.01,0.036
0.57,-4.749e-4,-0.095,-9.497,0.095,9.55,-4.991e-5,0,4.991e-5,180,0.01,0.998,22.175,120.893,9.788,132.014,0,0,0,2.8e4,1.35e4,19.961,0.106,NaN,2019.897,NaN,3.754e-4,2.506e4,5.164,-1.422e-4,1.18,-0.665,0.845,0.215,0.12,NaN,NaN,NaN,NaN,NaN,NaN,NaN,NaN,1.291e-5,165,213.825,84,0,0.095,15,1013.25,340.389,0.01,0.036
0.58,-4.749e-4,-0.095,-9.499,0.096,9.551,-4.992e-5,0,4.992e-5,180,0.01,0.998,22.175,120.893,9.788,132.252,0,0,0,2.8e4,1.35e4,19.961,0.106,NaN,2019.895,NaN,3.74e-4,2.497e4,5.125,-1.431e-4,1.181,-0.674,0.846,0.215,0.12,NaN,NaN,NaN,NaN,NaN,NaN,NaN,NaN,1.291e-5,165,213.825,84,0,0.095,15,1013.25,340.389,0.01,0.036
0.59,-4.746e-4,-0.095,-9.493,0.095,9.545,-4.989e-5,0,4.989e-5,180,0.01,0.998,22.175,120.893,9.788,132.467,0,0,0,2.8e4,1.35e4,19.961,0.106,NaN,2019.893,NaN,3.725e-4,2.487e4,5.296,-1.437e-4,1.182,-0.682,0.847,0.215,0.12,NaN,NaN,NaN,NaN,NaN,NaN,NaN,NaN,1.29e-5,165,213.825,84,0,0.094,15,1013.25,340.389,0.01,0.037
0.6,-4.741e-4,-0.095,-9.483,0.095,9.535,-4.984e-5,0,4.984e-5,180,0.01,0.997,22.175,120.893,9.788,132.672,0,0,0,2.8e4,1.349e4,19.961,0.106,NaN,2019.891,NaN,3.71e-4,2.477e4,5.567,-1.442e-4,1.183,-0.69,0.848,0.215,0.12,NaN,NaN,NaN,NaN,NaN,NaN,NaN,NaN,1.289e-5,165,213.825,84,0,0.093,15,1013.25,340.389,0.01,0.037
0.61,-4.739e-4,-0.095,-9.478,0.095,9.53,-4.981e-5,0,4.981e-5,180,0.01,0.996,22.175,120.893,9.788,132.572,0,0,0,2.8e4,1.349e4,19.961,0.106,NaN,2019.889,NaN,3.714e-4,2.479e4,5.717,-1.437e-4,1.183,-0.687,0.848,0.215,0.12,NaN,NaN,NaN,NaN,NaN,NaN,NaN,NaN,1.288e-5,165,213.825,84,0,0.094,15,1013.25,340.389,0.01,0.037
0.62,-4.745e-4,-0.095,-9.49,0.095,9.542,-4.987e-5,0,4.987e-5,180,0.01,0.997,22.175,120.893,9.788,132.532,0,0,0,2.8e4,1.349e4,19.961,0.106,NaN,2019.887,NaN,3.721e-4,2.484e4,5.366,-1.439e-4,1.183,-0.685,0.848,0.215,0.12,NaN,NaN,NaN,NaN,NaN,NaN,NaN,NaN,1.29e-5,165,213.825,84,0,0.094,15,1013.25,340.389,0.01,0.038
0.63,-4.737e-4,-0.095,-9.473,0.095,9.525,-4.978e-5,0,4.978e-5,180,0.01,0.996,22.175,120.893,9.788,132.393,0,0,0,2.799e4,1.349e4,19.961,0.106,NaN,2019.884,NaN,3.722e-4,2.485e4,5.844,-1.429e-4,1.183,-0.68,0.847,0.215,0.12,NaN,NaN,NaN,NaN,NaN,NaN,NaN,NaN,1.288e-5,165,213.825,84,0,0.094,15,1013.25,340.389,0.01,0.038
0.64,-4.738e-4,-0.095,-9.475,0.095,9.527,-4.979e-5,0,4.979e-5,180,0.01,0.996,22.175,120.893,9.788,132.318,0,0,0,2.799e4,1.349e4,19.961,0.106,NaN,2019.882,NaN,3.727e-4,2.488e4,5.786,-1.427e-4,1.182,-0.677,0.847,0.215,0.12,NaN,NaN,NaN,NaN,NaN,NaN,NaN,NaN,1.288e-5,165,213.825,84,0,0.094,15,1013.25,340.389,0.01,0.039
0.65,-4.734e-4,-0.095,-9.469,0.095,9.521,-4.976e-5,0,4.976e-5,180,0.01,0.995,22.175,120.893,9.788,132.215,0,0,0,2.799e4,1.349e4,19.961,0.106,NaN,2019.88,NaN,3.731e-4,2.49e4,5.968,-1.421e-4,1.182,-0.673,0.847,0.215,0.12,NaN,NaN,NaN,NaN,NaN,NaN,NaN,NaN,1.287e-5,165,213.825,84,0,0.095,15,1013.25,340.389,0.01,0.039
0.66,-4.724e-4,-0.094,-9.448,0.095,9.5,-4.965e-5,0,4.965e-5,180,0.01,0.993,22.175,120.893,9.788,132.105,0,0,0,2.799e4,1.349e4,19.961,0.106,NaN,2019.877,NaN,3.729e-4,2.489e4,6.551,-1.412e-4,1.182,-0.669,0.847,0.215,0.12,NaN,NaN,NaN,NaN,NaN,NaN,NaN,NaN,1.284e-5,165,213.825,84,0,0.095,15,1013.25,340.389,0.01,0.039
0.67,-4.721e-4,-0.094,-9.442,0.095,9.494,-4.962e-5,0,4.962e-5,180,0.01,0.992,22.175,120.893,9.788,132.045,0,0,0,2.799e4,1.349e4,19.961,0.106,NaN,2019.875,NaN,3.73e-4,2.49e4,6.72,-1.408e-4,1.182,-0.667,0.847,0.215,0.12,NaN,NaN,NaN,NaN,NaN,NaN,NaN,NaN,1.283e-5,165,213.825,84,0,0.095,15,1013.25,340.389,0.01,0.039
0.68,-4.711e-4,-0.094,-9.421,0.095,9.473,-4.951e-5,0,4.951e-5,180,0.01,0.99,22.175,120.893,9.788,131.936,0,0,0,2.799e4,1.349e4,19.961,0.106,NaN,2019.872,NaN,3.728e-4,2.489e4,7.299,-1.399e-4,1.182,-0.663,0.847,0.215,0.12,NaN,NaN,NaN,NaN,NaN,NaN,NaN,NaN,1.281e-5,165,213.825,84,0,0.095,15,1013.25,340.389,0.01,0.04
0.69,-4.708e-4,-0.094,-9.415,0.095,9.467,-4.948e-5,0,4.948e-5,180,0.01,0.99,22.175,120.893,9.788,131.877,0,0,0,2.799e4,1.349e4,19.961,0.106,NaN,2019.869,NaN,3.729e-4,2.49e4,7.467,-1.395e-4,1.182,-0.661,0.847,0.215,0.12,NaN,NaN,NaN,NaN,NaN,NaN,NaN,NaN,1.28e-5,165,213.825,84,0,0.095,15,1013.25,340.389,0.01,0.04
0.7,-4.699e-4,-0.094,-9.398,0.095,9.45,-4.939e-5,0,4.939e-5,180,0.01,0.988,22.175,120.893,9.788,131.779,0,0,0,2.799e4,1.349e4,19.961,0.106,NaN,2019.866,NaN,3.728e-4,2.489e4,7.951,-1.387e-4,1.182,-0.658,0.847,0.215,0.12,NaN,NaN,NaN,NaN,NaN,NaN,NaN,NaN,1.277e-5,165,213.825,84,0,0.095,15,1013.25,340.389,0.01,0.04
0.71,-4.682e-4,-0.094,-9.363,0.094,9.415,-4.921e-5,0,4.921e-5,180,0.01,0.984,22.175,120.893,9.788,131.317,0,0,0,2.799e4,1.349e4,19.96,0.106,NaN,2019.863,NaN,3.742e-4,2.498e4,8.938,-1.362e-4,1.181,-0.641,0.846,0.215,0.12,NaN,NaN,NaN,NaN,NaN,NaN,NaN,NaN,1.273e-5,165,213.825,84,0,0.096,15,1013.25,340.389,0.01,0.041
0.72,-4.676e-4,-0.094,-9.352,0.094,9.403,-4.915e-5,0,4.915e-5,180,0.01,0.983,22.175,120.893,9.788,130.94,0,0,0,2.799e4,1.349e4,19.96,0.106,NaN,2019.859,NaN,3.76e-4,2.51e4,9.255,-1.345e-4,1.18,-0.627,0.845,0.215,0.12,NaN,NaN,NaN,NaN,NaN,NaN,NaN,NaN,1.271e-5,165,213.825,84,0,0.097,15,1013.25,340.389,0.01,0.041
0.73,-4.659e-4,-0.093,-9.319,0.094,9.37,-4.897e-5,0,4.897e-5,180,0.01,0.979,22.175,120.893,9.788,130.492,0,0,0,2.799e4,1.349e4,19.96,0.106,NaN,2019.855,NaN,3.775e-4,2.52e4,10.185,-1.321e-4,1.179,-0.611,0.844,0.215,0.12,NaN,NaN,NaN,NaN,NaN,NaN,NaN,NaN,1.267e-5,165,213.825,84,0,0.098,15,1013.25,340.389,0.01,0.042
0.74,-4.64e-4,-0.093,-9.28,0.093,9.331,-4.877e-5,0,4.877e-5,180,0.01,0.975,22.175,120.893,9.788,130.028,0,0,0,2.799e4,1.349e4,19.96,0.106,NaN,2019.851,NaN,3.788e-4,2.529e4,11.275,-1.295e-4,1.178,-0.595,0.843,0.215,0.12,NaN,NaN,NaN,NaN,NaN,NaN,NaN,NaN,1.261e-5,165,213.825,84,0,0.099,15,1013.25,340.389,0.01,0.042
0.75,-4.621e-4,-0.092,-9.243,0.093,9.294,-4.857e-5,0,4.857e-5,180,0.01,0.971,22.175,120.893,9.788,129.573,0,0,0,2.799e4,1.349e4,19.96,0.106,NaN,2019.846,NaN,3.802e-4,2.538e4,12.322,-1.269e-4,1.177,-0.579,0.842,0.215,0.12,NaN,NaN,NaN,NaN,NaN,NaN,NaN,NaN,1.256e-5,165,213.825,84,0,0.1,15,1013.25,340.389,0.01,0.043
0.76,-4.598e-4,-0.092,-9.195,0.092,9.246,-4.832e-5,0,4.832e-5,180,0.01,0.966,22.175,120.893,9.788,129.254,0,0,0,2.799e4,1.349e4,19.96,0.106,NaN,2019.841,NaN,3.804e-4,2.539e4,13.663,-1.246e-4,1.177,-0.568,0.842,0.215,0.12,NaN,NaN,NaN,NaN,NaN,NaN,NaN,NaN,1.25e-5,165,213.825,84,0,0.101,15,1013.25,340.389,0.01,0.043
0.77,-4.586e-4,-0.092,-9.173,0.092,9.223,-4.82e-5,0,4.82e-5,180,0.01,0.964,22.175,120.893,9.788,129.02,0,0,0,2.799e4,1.349e4,19.96,0.106,NaN,2019.836,NaN,3.81e-4,2.543e4,14.302,-1.233e-4,1.176,-0.56,0.841,0.215,0.12,NaN,NaN,NaN,NaN,NaN,NaN,NaN,NaN,1.247e-5,165,213.825,84,0,0.101,15,1013.25,340.389,0.01,0.043
0.78,-4.56e-4,-0.091,-9.12,0.092,9.171,-4.793e-5,0,4.793e-5,180,0.01,0.959,22.175,120.893,9.788,128.686,0,0,0,2.799e4,1.349e4,19.96,0.106,NaN,2019.83,NaN,3.81e-4,2.544e4,15.77,-1.208e-4,1.176,-0.549,0.841,0.215,0.12,NaN,NaN,NaN,NaN,NaN,NaN,NaN,NaN,1.24e-5,165,213.825,84,0,0.102,15,1013.25,340.389,0.01,0.045
0.79,-4.54e-4,-0.091,-9.079,0.091,9.129,-4.771e-5,0,4.771e-5,180,0.01,0.954,22.175,120.893,9.788,128.39,0,0,0,2.799e4,1.349e4,19.96,0.106,NaN,2019.823,NaN,3.813e-4,2.545e4,16.927,-1.188e-4,1.176,-0.539,0.841,0.215,0.12,NaN,NaN,NaN,NaN,NaN,NaN,NaN,NaN,1.234e-5,165,213.825,84,0,0.102,15,1013.25,340.389,0.01,0.045
0.8,-4.518e-4,-0.09,-9.037,0.091,9.087,-4.749e-5,0,4.749e-5,180,0.009,0.95,22.175,120.893,9.788,128.09,0,0,0,2.799e4,1.349e4,19.96,0.106,NaN,2019.816,NaN,3.816e-4,2.547e4,18.121,-1.168e-4,1.176,-0.529,0.841,0.215,0.12,NaN,NaN,NaN,NaN,NaN,NaN,NaN,NaN,1.228e-5,165,213.825,84,0,0.103,15,1013.25,340.389,0.01,0.046
0.81,-4.495e-4,-0.09,-8.99,0.09,9.04,-4.725e-5,0,4.725e-5,180,0.009,0.945,22.175,120.893,9.788,127.901,0,0,0,2.799e4,1.349e4,19.96,0.106,NaN,2019.809,NaN,3.809e-4,2.543e4,19.438,-1.151e-4,1.176,-0.523,0.841,0.215,0.12,NaN,NaN,NaN,NaN,NaN,NaN,NaN,NaN,1.222e-5,165,213.825,84,0,0.103,15,1013.25,340.389,0.01,0.046
0.82,-4.482e-4,-0.09,-8.965,0.09,9.014,-4.711e-5,0,4.711e-5,180,0.009,0.942,22.175,120.893,9.788,127.787,0,0,0,2.799e4,1.349e4,19.959,0.106,NaN,2019.801,NaN,3.806e-4,2.541e4,20.155,-1.141e-4,1.177,-0.519,0.842,0.215,0.12,NaN,NaN,NaN,NaN,NaN,NaN,NaN,NaN,1.218e-5,165,213.825,84,0,0.103,15,1013.25,340.389,0.01,0.047
0.83,-4.434e-4,-0.089,-8.867,0.089,8.916,-4.66e-5,0,4.66e-5,180,0.009,0.932,22.175,120.893,9.788,127.418,0,0,0,2.799e4,1.349e4,19.959,0.106,NaN,2019.793,NaN,3.79e-4,2.53e4,22.899,-1.107e-4,1.178,-0.508,0.843,0.215,0.12,NaN,NaN,NaN,NaN,NaN,NaN,NaN,NaN,1.205e-5,165,213.825,84,0,0.103,15,1013.25,340.389,0.01,0.047
0.84,-4.345e-4,-0.087,-8.69,0.087,8.738,-4.567e-5,0,4.567e-5,180,0.009,0.913,22.175,120.893,9.788,126.76,0,0,0,2.799e4,1.349e4,19.959,0.106,NaN,2019.782,NaN,3.76e-4,2.51e4,27.886,-1.046e-4,1.18,-0.488,0.845,0.215,0.12,NaN,NaN,NaN,NaN,NaN,NaN,NaN,NaN,1.181e-5,165,213.825,84,0,0.103,15,1013.25,340.389,0.01,0.048
0.85,-4.271e-4,-0.085,-8.542,0.086,8.589,-4.489e-5,0,4.489e-5,180,0.009,0.898,22.175,120.893,9.788,126.2,0,0,0,2.799e4,1.349e4,19.959,0.106,NaN,2019.77,NaN,3.736e-4,2.494e4,32.036,-9.967e-5,1.182,-0.471,0.846,0.215,0.12,NaN,NaN,NaN,NaN,NaN,NaN,NaN,NaN,1.161e-5,165,213.825,84,0,0.103,15,1013.25,340.389,0.01,0.048
0.86,-4.194e-4,-0.084,-8.388,0.084,8.434,-4.408e-5,0,4.408e-5,180,0.009,0.882,22.175,120.893,9.788,125.502,0,0,0,2.799e4,1.349e4,19.959,0.106,NaN,2019.756,NaN,3.719e-4,2.482e4,36.392,-9.43e-5,1.183,-0.449,0.848,0.215,0.12,NaN,NaN,NaN,NaN,NaN,NaN,NaN,NaN,1.14e-5,165,213.825,84,0,0.104,15,1013.25,340.389,0.01,0.049
0.87,-4.119e-4,-0.082,-8.239,0.083,8.284,-4.33e-5,0,4.33e-5,180,0.009,0.866,22.175,120.893,9.788,124.821,0,0,0,2.799e4,1.349e4,19.958,0.106,NaN,2019.74,NaN,3.703e-4,2.472e4,40.581,-8.927e-5,1.184,-0.429,0.849,0.215,0.12,NaN,NaN,NaN,NaN,NaN,NaN,NaN,NaN,1.12e-5,165,213.825,84,0,0.104,15,1013.25,340.389,0.01,0.049
0.88,-4.047e-4,-0.081,-8.093,0.081,8.138,-4.253e-5,0,4.253e-5,180,0.009,0.851,22.175,120.893,9.788,124.145,0,0,0,2.799e4,1.349e4,19.958,0.106,NaN,2019.723,NaN,3.688e-4,2.462e4,44.682,-8.448e-5,1.185,-0.409,0.85,0.215,0.12,NaN,NaN,NaN,NaN,NaN,NaN,NaN,NaN,1.1e-5,165,213.825,84,0,0.104,15,1013.25,340.389,0.01,0.049
0.89,-3.982e-4,-0.08,-7.965,0.08,8.008,-4.186e-5,0,4.186e-5,180,0.008,0.837,22.175,120.893,9.788,123.531,0,0,0,2.799e4,1.349e4,19.958,0.106,NaN,2019.705,NaN,3.676e-4,2.454e4,48.294,-8.033e-5,1.186,-0.392,0.851,0.215,0.12,NaN,NaN,NaN,NaN,NaN,NaN,NaN,NaN,1.083e-5,165,213.825,84,0,0.105,15,1013.25,340.389,0.01,0.05
0.9,-3.921e-4,-0.078,-7.842,0.079,7.885,-4.121e-5,0,4.121e-5,180,0.008,0.824,22.175,120.893,9.788,122.934,0,0,0,2.799e4,1.349e4,19.957,0.106,NaN,2019.685,NaN,3.666e-4,2.447e4,51.752,-7.645e-5,1.187,-0.375,0.852,0.215,0.12,NaN,NaN,NaN,NaN,NaN,NaN,NaN,NaN,1.066e-5,165,213.825,84,0,0.105,15,1013.25,340.389,0.01,0.052
0.91,-3.84e-4,-0.077,-7.679,0.077,7.722,-4.036e-5,0,4.036e-5,180,0.008,0.807,22.175,120.893,9.788,122.183,0,0,0,2.798e4,1.348e4,19.957,0.106,NaN,2019.664,NaN,3.65e-4,2.436e4,56.319,-7.159e-5,1.188,-0.354,0.853,0.215,0.12,NaN,NaN,NaN,NaN,NaN,NaN,NaN,NaN,1.044e-5,165,213.825,84,0,0.106,15,1013.25,340.389,0.01,0.053
0.92,-3.761e-4,-0.075,-7.522,0.076,7.563,-3.953e-5,0,3.953e-5,180,0.008,0.791,22.175,120.893,9.788,121.444,0,0,0,2.798e4,1.348e4,19.957,0.106,NaN,2019.641,NaN,3.635e-4,2.426e4,60.748,-6.704e-5,1.189,-0.334,0.854,0.215,0.12,NaN,NaN,NaN,NaN,NaN,NaN,NaN,NaN,1.022e-5,165,213.825,84,0,0.106,15,1013.25,340.389,0.01,0.053
0.93,-3.643e-4,-0.073,-7.286,0.073,7.326,-3.829e-5,0,3.829e-5,180,0.008,0.766,22.175,120.893,9.788,120.382,0,0,0,2.798e4,1.348e4,19.956,0.106,NaN,2019.615,NaN,3.608e-4,2.409e4,67.387,-6.067e-5,1.191,-0.307,0.856,0.215,0.12,NaN,NaN,NaN,NaN,NaN,NaN,NaN,NaN,9.903e-6,165,213.825,84,0,0.107,15,1013.25,340.389,0.01,0.054
0.94,-3.499e-4,-0.07,-6.999,0.07,7.037,-3.678e-5,0,3.678e-5,180,0.007,0.736,22.175,120.893,9.788,119.096,0,0,0,2.798e4,1.348e4,19.956,0.106,NaN,2019.586,NaN,3.576e-4,2.387e4,75.455,-5.345e-5,1.193,-0.275,0.858,0.215,0.12,NaN,NaN,NaN,NaN,NaN,NaN,NaN,NaN,9.513e-6,165,213.825,84,0,0.107,15,1013.25,340.389,0.01,0.054
0.95,-3.337e-4,-0.067,-6.674,0.067,6.71,-3.507e-5,0,3.507e-5,180,0.007,0.701,22.175,120.893,9.788,117.624,0,0,0,2.798e4,1.348e4,19.955,0.106,NaN,2019.554,NaN,3.541e-4,2.364e4,84.603,-4.591e-5,1.196,-0.241,0.861,0.215,0.12,NaN,NaN,NaN,NaN,NaN,NaN,NaN,NaN,9.071e-6,165,213.825,84,0,0.107,15,1013.25,340.389,0.01,0.054
0.96,-3.135e-4,-0.063,-6.271,0.063,6.305,-3.295e-5,0,3.295e-5,180,0.007,0.659,22.175,120.893,9.788,115.953,0,0,0,2.798e4,1.348e4,19.954,0.106,NaN,2019.517,NaN,3.481e-4,2.324e4,95.934,-3.783e-5,1.201,-0.206,0.866,0.215,0.12,NaN,NaN,NaN,NaN,NaN,NaN,NaN,NaN,8.523e-6,165,213.825,84,0,0.107,15,1013.25,340.389,0.01,0.054
0.97,-2.933e-4,-0.059,-5.865,0.059,5.898,-3.082e-5,0,3.082e-5,180,0.006,0.616,22.175,120.893,9.788,114.215,0,0,0,2.798e4,1.348e4,19.954,0.106,NaN,2019.476,NaN,3.424e-4,2.286e4,107.326,-3.057e-5,1.205,-0.172,0.87,0.215,0.12,NaN,NaN,NaN,NaN,NaN,NaN,NaN,NaN,7.972e-6,165,213.825,84,0,0.107,15,1013.25,340.389,0.01,0.055
0.98,-2.671e-4,-0.053,-5.342,0.054,5.372,-2.808e-5,0,2.808e-5,180,0.006,0.561,22.175,120.893,9.788,111.871,0,0,0,2.797e4,1.347e4,19.953,0.106,NaN,2019.43,NaN,3.357e-4,2.241e4,122.033,-2.245e-5,1.211,-0.131,0.876,0.215,0.12,NaN,NaN,NaN,NaN,NaN,NaN,NaN,NaN,7.261e-6,165,213.825,84,0,0.107,15,1013.25,340.389,0.01,0.055
0.99,-2.333e-4,-0.047,-4.667,0.047,4.692,-2.453e-5,0,2.453e-5,180,0.005,0.49,22.175,120.893,9.788,108.695,0,0,0,2.797e4,1.347e4,19.952,0.106,NaN,2019.376,NaN,3.282e-4,2.191e4,141.022,-1.403e-5,1.217,-0.086,0.882,0.215,0.12,NaN,NaN,NaN,NaN,NaN,NaN,NaN,NaN,6.343e-6,165,213.825,84,0,0.106,15,1013.25,340.389,0.01,0.055
1,-1.839e-4,-0.037,-3.678,0.037,3.699,-1.933e-5,0,1.933e-5,180,0.004,0.387,22.175,120.893,9.788,103.782,0,0,0,2.797e4,1.347e4,19.951,0.106,NaN,2019.312,NaN,3.193e-4,2.132e4,168.795,-5.692e-6,1.225,-0.037,0.89,0.215,0.12,NaN,NaN,NaN,NaN,NaN,NaN,NaN,NaN,5e-6,165,213.825,84,0,0.106,15,1013.25,340.389,0.01,0.056
1.01,-1.138e-4,-0.023,-2.275,0.023,2.288,-1.196e-5,0,1.196e-5,180,0.002,0.239,22.175,120.893,9.788,96.294,0,0,0,2.796e4,1.346e4,19.949,0.106,NaN,2019.232,NaN,3.14e-4,2.096e4,208.221,-5.735e-7,1.229,-0.004,0.894,0.215,0.12,NaN,NaN,NaN,NaN,NaN,NaN,NaN,NaN,3.094e-6,165,213.825,84,0,0.107,15,1013.25,340.389,0.01,0.056
1.02,-4.855e-5,-0.01,-0.97,0.01,0.975,-5.103e-6,0,5.103e-6,180,0.001,0.102,22.175,120.893,9.788,89.209,0,0,0,2.796e4,1.346e4,19.948,0.106,NaN,2019.139,NaN,3.142e-4,2.097e4,244.886,0,1.229,8.073e-6,0.894,0.215,0.12,NaN,NaN,NaN,NaN,NaN,NaN,NaN,NaN,1.32e-6,165,213.825,84,0,0.108,15,1013.25,340.389,0.01,0.056
1.03,2.205e-5,0.004,0.442,0.004,0.445,2.317e-6,0,2.317e-6,0,4.638e-4,0.046,22.175,120.893,9.788,81.675,0,0,0,2.795e4,1.345e4,19.946,0.106,NaN,2019.03,NaN,3.195e-4,2.133e4,284.538,1.338e-6,1.225,0.009,0.89,0.215,0.12,NaN,NaN,NaN,NaN,NaN,NaN,NaN,NaN,5.998e-7,165,213.825,84,0,0.108,15,1013.25,340.389,0.01,0.057
1.04,1.641e-4,0.024,1.96,0.024,1.971,1.725e-5,0,1.725e-5,0,0.003,0.206,22.175,120.893,9.788,71.84,0,0,0,2.795e4,1.345e4,19.943,0.106,NaN,2018.905,NaN,3.348e-4,2.235e4,327.142,1.342e-5,1.211,0.079,0.876,0.215,0.12,NaN,NaN,NaN,NaN,NaN,NaN,NaN,NaN,3.263e-6,165,213.825,84,0,0.109,15,1013.25,340.389,0.01,0.057
1.05,5.833e-4,0.06,3.585,0.06,3.604,6.13e-5,0,6.13e-5,0,0.006,0.377,22.175,120.893,9.788,56.684,0,0,0,2.794e4,1.344e4,19.941,0.106,NaN,2018.763,NaN,3.83e-4,2.557e4,372.693,8.505e-5,1.175,0.382,0.84,0.215,0.12,NaN,NaN,NaN,NaN,NaN,NaN,NaN,NaN,8.133e-6,165,213.825,84,0,0.11,15,1013.25,340.389,0.01,0.058
1.06,0.001,0.115,5.563,0.116,5.594,1.534e-4,0,1.534e-4,0,0.012,0.585,22.175,120.893,9.788,40.469,0,0,0,2.793e4,1.343e4,19.938,0.106,NaN,2018.599,NaN,4.924e-4,3.287e4,428.171,3.267e-4,1.113,0.888,0.778,0.215,0.12,NaN,NaN,NaN,NaN,NaN,NaN,NaN,NaN,1.569e-5,165,213.825,84,0,0.109,15,1013.25,340.389,0.01,0.058
1.07,0.003,0.191,7.517,0.192,7.558,3.142e-4,0,3.142e-4,0,0.02,0.79,22.175,120.893,9.788,28.144,0,0,0,2.792e4,1.342e4,19.935,0.106,NaN,2018.415,NaN,6.765e-4,4.516e4,482.882,8.358e-4,1.044,1.204,0.709,0.215,0.12,NaN,NaN,NaN,NaN,NaN,NaN,NaN,NaN,2.59e-5,165,213.825,84,0,0.109,15,1013.25,340.389,0.01,0.058
1.08,0.005,0.288,9.758,0.29,9.812,5.658e-4,0,5.658e-4,0,0.03,1.026,22.175,120.893,9.788,19.808,0,0,0,2.791e4,1.341e4,19.931,0.106,NaN,2018.206,NaN,9.402e-4,6.277e4,545.617,0.002,0.981,1.265,0.646,0.215,0.12,NaN,NaN,NaN,NaN,NaN,NaN,NaN,NaN,3.916e-5,165,213.825,84,0,0.109,15,1013.249,340.389,0.01,0.059
1.09,0.009,0.411,12.305,0.413,12.372,9.333e-4,0,9.333e-4,0,0.043,1.293,22.175,120.893,9.788,14.301,0,0,0,2.79e4,1.34e4,19.927,0.106,NaN,2017.969,NaN,0.001,8.597e4,616.859,0.003,0.929,1.189,0.594,0.215,0.12,NaN,NaN,NaN,NaN,NaN,NaN,NaN,NaN,5.588e-5,165,213.825,84,0,0.109,15,1013.249,340.389,0.01,0.059
1.1,0.014,0.563,15.219,0.566,15.303,0.001,0,0.001,0,0.059,1.6,22.175,120.893,9.788,10.6,0,0,0,2.789e4,1.339e4,19.922,0.106,NaN,2017.702,NaN,0.002,1.153e5,698.307,0.005,0.886,1.067,0.551,0.215,0.12,NaN,NaN,NaN,NaN,NaN,NaN,NaN,NaN,7.656e-5,165,213.825,84,0,0.109,15,1013.248,340.389,0.01,0.059
1.11,0.02,0.746,18.289,0.75,18.39,0.002,0,0.002,0,0.078,1.922,22.175,120.893,9.788,8.036,0,0,0,2.788e4,1.338e4,19.917,0.106,NaN,2017.401,NaN,0.002,1.508e5,784.022,0.007,0.85,0.968,0.515,0.215,0.12,NaN,NaN,NaN,NaN,NaN,NaN,NaN,NaN,1.014e-4,165,213.825,84,0,0.108,15,1013.248,340.389,0.01,0.059
1.12,0.029,0.96,21.44,0.966,21.558,0.003,0,0.003,0,0.101,2.253,22.175,120.893,9.788,6.244,0,0,0,2.786e4,1.336e4,19.911,0.106,NaN,2017.066,NaN,0.003,1.927e5,871.849,0.011,0.821,0.896,0.486,0.215,0.12,NaN,NaN,NaN,NaN,NaN,NaN,NaN,NaN,1.305e-4,165,213.825,84,0,0.107,15,1013.247,340.389,0.01,0.06
1.13,0.04,1.207,24.646,1.213,24.781,0.004,0,0.004,0,0.127,2.59,22.175,120.893,9.788,4.96,0,0,0,2.784e4,1.334e4,19.904,0.106,NaN,2016.696,NaN,0.004,2.411e5,961.049,0.017,0.796,0.845,0.461,0.215,0.12,NaN,NaN,NaN,NaN,NaN,NaN,NaN,NaN,1.64e-4,165,213.825,84,0,0.107,15,1013.245,340.389,0.01,0.06
1.14,0.053,1.482,27.565,1.49,27.717,0.006,0,0.006,0,0.156,2.897,22.175,120.893,9.788,4.025,0,0,0,2.782e4,1.332e4,19.897,0.106,NaN,2016.295,NaN,0.004,2.952e5,1042.073,0.024,0.775,0.808,0.44,0.215,0.12,NaN,NaN,NaN,NaN,NaN,NaN,NaN,NaN,2.015e-4,165,213.825,84,0,0.106,15,1013.244,340.389,0.01,0.06
1.15,0.069,1.783,30.094,1.793,30.26,0.007,0,0.007,0,0.187,3.163,22.175,120.893,9.788,3.333,0,0,0,2.78e4,1.33e4,19.889,0.106,NaN,2015.866,NaN,0.005,3.544e5,1112.029,0.033,0.758,0.78,0.423,0.215,0.12,NaN,NaN,NaN,NaN,NaN,NaN,NaN,NaN,2.424e-4,165,213.825,84,0,0.106,15,1013.242,340.389,0.01,0.061
1.16,0.089,2.106,32.29,2.117,32.468,0.009,0,0.009,0,0.221,3.394,22.175,120.893,9.788,2.804,0,0,0,2.778e4,1.328e4,19.881,0.106,NaN,2015.413,NaN,0.006,4.179e5,1172.553,0.045,0.743,0.759,0.408,0.215,0.12,NaN,NaN,NaN,NaN,NaN,NaN,NaN,NaN,2.862e-4,165,213.825,84,0,0.105,14.999,1013.24,340.389,0.01,0.061
1.17,0.112,2.446,34.03,2.459,34.217,0.012,0,0.012,0,0.257,3.577,22.175,120.893,9.788,2.397,0,0,0,2.776e4,1.326e4,19.873,0.105,NaN,2014.941,NaN,0.007,4.849e5,1220.187,0.059,0.73,0.742,0.395,0.215,0.12,NaN,NaN,NaN,NaN,NaN,NaN,NaN,NaN,3.325e-4,165,213.825,84,0,0.104,14.999,1013.237,340.388,0.01,0.061
1.18,0.138,2.799,35.307,2.814,35.501,0.014,0,0.014,0,0.294,3.711,22.175,120.893,9.788,2.08,0,0,0,2.774e4,1.324e4,19.864,0.105,NaN,2014.455,NaN,0.008,5.544e5,1254.818,0.076,0.719,0.728,0.384,0.215,0.12,NaN,NaN,NaN,NaN,NaN,NaN,NaN,NaN,3.804e-4,165,213.825,84,0,0.103,14.999,1013.234,340.388,0.01,0.062
1.19,0.168,3.16,36.109,3.177,36.308,0.018,0,0.018,0,0.332,3.795,22.175,120.893,9.788,1.828,0,0,0,2.771e4,1.321e4,19.855,0.105,NaN,2013.959,NaN,0.009,6.255e5,1276.135,0.095,0.709,0.716,0.374,0.215,0.12,NaN,NaN,NaN,NaN,NaN,NaN,NaN,NaN,4.295e-4,165,213.825,84,0,0.102,14.999,1013.23,340.388,0.01,0.064
1.2,0.201,3.526,36.662,3.546,36.864,0.021,0,0.021,0,0.371,3.853,22.175,120.893,9.788,1.626,0,0,0,2.769e4,1.319e4,19.846,0.105,NaN,2013.458,NaN,0.01,6.977e5,1290.479,0.117,0.701,0.706,0.366,0.215,0.12,NaN,NaN,NaN,NaN,NaN,NaN,NaN,NaN,4.793e-4,165,213.825,84,0,0.101,14.999,1013.226,340.388,0.01,0.065
1.21,0.238,3.896,36.969,3.917,37.172,0.025,0,0.025,0,0.409,3.886,22.175,120.893,9.788,1.458,0,0,0,2.767e4,1.317e4,19.837,0.105,NaN,2012.952,NaN,0.012,7.705e5,1297.933,0.141,0.694,0.698,0.358,0.215,0.12,NaN,NaN,NaN,NaN,NaN,NaN,NaN,NaN,5.295e-4,165,213.825,84,0,0.101,14.998,1013.222,340.388,0.01,0.065
1.22,0.279,4.266,37.028,4.289,37.232,0.029,0,0.029,0,0.448,3.892,22.175,120.893,9.788,1.32,0,0,0,2.764e4,1.314e4,19.828,0.105,NaN,2012.446,NaN,0.013,8.434e5,1298.512,0.167,0.687,0.691,0.352,0.215,0.12,NaN,NaN,NaN,NaN,NaN,NaN,NaN,NaN,5.798e-4,165,213.825,84,0,0.1,14.998,1013.217,340.388,0.01,0.065
1.23,0.324,4.636,37.072,4.662,37.276,0.034,0,0.034,0,0.487,3.896,22.175,120.893,9.788,1.203,0,0,0,2.762e4,1.312e4,19.819,0.105,NaN,2011.938,NaN,0.014,9.165e5,1298.633,0.196,0.681,0.684,0.346,0.215,0.12,NaN,NaN,NaN,NaN,NaN,NaN,NaN,NaN,6.302e-4,165,213.825,84,0,0.099,14.998,1013.212,340.388,0.01,0.066
1.24,0.372,5.006,36.978,5.033,37.182,0.039,0,0.039,0,0.526,3.887,22.175,120.893,9.788,1.103,0,0,0,2.76e4,1.31e4,19.81,0.105,NaN,2011.431,NaN,0.015,9.893e5,1294.965,0.226,0.676,0.678,0.341,0.215,0.12,NaN,NaN,NaN,NaN,NaN,NaN,NaN,NaN,6.804e-4,165,213.825,84,0,0.098,14.998,1013.206,340.387,0.01,0.066
1.25,0.424,5.375,36.893,5.404,37.096,0.045,0,0.045,0,0.565,3.878,22.175,120.893,9.788,1.018,0,0,0,2.757e4,1.307e4,19.801,0.105,NaN,2010.925,NaN,0.016,1.062e6,1291.53,0.259,0.671,0.673,0.336,0.215,0.12,NaN,NaN,NaN,NaN,NaN,NaN,NaN,NaN,7.305e-4,165,213.825,84,0,0.097,14.997,1013.2,340.387,0.01,0.068
1.26,0.479,5.742,36.806,5.774,37.008,0.05,0,0.05,0,0.604,3.868,22.175,120.893,9.788,0.958,0,0,0,2.755e4,1.305e4,19.792,0.105,NaN,2010.419,NaN,0.017,1.135e6,1288.052,0.293,0.667,0.669,0.332,0.215,0.12,NaN,NaN,NaN,NaN,NaN,NaN,NaN,NaN,7.805e-4,165,213.825,84,0,0.097,14.997,1013.194,340.387,0.01,0.068
1.27,0.538,6.109,36.694,6.143,36.896,0.057,0,0.057,0,0.642,3.857,22.175,120.893,9.788,0.906,0,0,0,2.753e4,1.303e4,19.783,0.105,NaN,2009.914,NaN,0.018,1.207e6,1283.912,0.33,0.663,0.665,0.328,0.215,0.12,NaN,NaN,NaN,NaN,NaN,NaN,NaN,NaN,8.304e-4,165,213.825,84,0,0.098,14.996,1013.187,340.387,0.01,0.069
1.28,0.601,6.476,36.662,6.511,36.864,0.063,0,0.063,0,0.681,3.853,22.175,120.893,9.788,0.86,0,0,0,2.75e4,1.3e4,19.774,0.105,NaN,2009.409,NaN,0.019,1.279e6,1281.967,0.368,0.659,0.661,0.324,0.215,0.12,NaN,NaN,NaN,NaN,NaN,NaN,NaN,NaN,8.802e-4,165,213.825,84,0,0.098,14.996,1013.179,340.387,0.01,0.069
1.29,0.668,6.841,36.579,6.879,36.781,0.07,0,0.07,0,0.719,3.845,22.175,120.893,9.788,0.818,0,0,0,2.748e4,1.298e4,19.765,0.105,NaN,2008.904,NaN,0.02,1.351e6,1278.651,0.409,0.656,0.657,0.321,0.215,0.12,NaN,NaN,NaN,NaN,NaN,NaN,NaN,NaN,9.299e-4,165,213.825,84,0,0.099,14.996,1013.172,340.386,0.01,0.069
1.3,0.738,7.206,36.539,7.246,36.74,0.078,0,0.078,0,0.757,3.84,22.175,120.893,9.788,0.781,0,0,0,2.746e4,1.296e4,19.756,0.105,NaN,2008.399,NaN,0.021,1.423e6,1276.485,0.451,0.653,0.654,0.317,0.215,0.12,NaN,NaN,NaN,NaN,NaN,NaN,NaN,NaN,9.795e-4,165,213.825,84,0,0.099,14.995,1013.163,340.386,0.01,0.07
1.31,0.812,7.572,36.534,7.613,36.735,0.085,0,0.085,0,0.796,3.84,22.175,120.893,9.788,0.746,0,0,0,2.743e4,1.293e4,19.747,0.105,NaN,2007.894,NaN,0.022,1.495e6,1275.318,0.495,0.65,0.651,0.315,0.215,0.12,NaN,NaN,NaN,NaN,NaN,NaN,NaN,NaN,0.001,165,213.825,84,0,0.1,14.995,1013.155,340.386,0.01,0.071
1.32,0.89,7.936,36.506,7.98,36.707,0.094,0,0.094,0,0.834,3.837,22.175,120.893,9.788,0.713,0,0,0,2.741e4,1.291e4,19.738,0.105,NaN,2007.388,NaN,0.023,1.567e6,1273.528,0.542,0.647,0.648,0.312,0.215,0.12,NaN,NaN,NaN,NaN,NaN,NaN,NaN,NaN,0.001,165,213.825,84,0,0.1,14.994,1013.146,340.385,0.01,0.071
1.33,0.971,8.302,36.557,8.348,36.758,0.102,0,0.102,0,0.873,3.842,22.175,120.893,9.788,0.684,0,0,0,2.739e4,1.289e4,19.729,0.105,NaN,2006.882,NaN,0.025,1.639e6,1273.891,0.59,0.644,0.645,0.309,0.215,0.12,NaN,NaN,NaN,NaN,NaN,NaN,NaN,NaN,0.001,165,213.825,84,0,0.1,14.994,1013.136,340.385,0.01,0.073
1.34,1.056,8.667,36.534,8.715,36.735,0.111,0,0.111,0,0.911,3.84,22.175,120.893,9.788,0.657,0,0,0,2.736e4,1.286e4,19.72,0.105,NaN,2006.376,NaN,0.026,1.711e6,1272.247,0.641,0.642,0.643,0.307,0.215,0.12,NaN,NaN,NaN,NaN,NaN,NaN,NaN,NaN,0.001,165,213.825,84,0,0.101,14.993,1013.126,340.385,0.01,0.073
1.35,1.144,9.032,36.545,9.082,36.746,0.12,0,0.12,0,0.949,3.841,22.175,120.893,9.788,0.632,0,0,0,2.734e4,1.284e4,19.711,0.105,NaN,2005.868,NaN,0.027,1.783e6,1271.517,0.693,0.639,0.64,0.304,0.215,0.12,NaN,NaN,NaN,NaN,NaN,NaN,NaN,NaN,0.001,165,213.825,84,0,0.101,14.993,1013.116,340.384,0.01,0.074
1.36,1.236,9.398,36.583,9.45,36.784,0.13,0,0.13,0,0.988,3.845,22.175,120.893,9.788,0.605,0,0,0,2.732e4,1.282e4,19.702,0.105,NaN,2005.361,NaN,0.028,1.855e6,1271.539,0.748,0.637,0.638,0.302,0.215,0.12,NaN,NaN,NaN,NaN,NaN,NaN,NaN,NaN,0.001,165,213.825,84,0,0.101,14.992,1013.105,340.384,0.01,0.074
1.37,1.332,9.764,36.599,9.817,36.801,0.14,0,0.14,0,1.026,3.847,22.175,120.893,9.788,0.581,0,0,0,2.729e4,1.279e4,19.693,0.105,NaN,2004.852,NaN,0.029,1.927e6,1270.983,0.804,0.635,0.636,0.3,0.215,0.12,NaN,NaN,NaN,NaN,NaN,NaN,NaN,NaN,0.001,165,213.825,84,0,0.1,14.991,1013.094,340.384,0.01,0.075
1.38,1.432,10.131,36.716,10.186,36.918,0.15,0,0.15,0,1.065,3.859,22.175,120.893,9.788,0.558,0,0,0,2.727e4,1.277e4,19.684,0.105,NaN,2004.342,NaN,0.03,2e6,1273.167,0.863,0.633,0.634,0.298,0.215,0.12,NaN,NaN,NaN,NaN,NaN,NaN,NaN,NaN,0.001,165,213.825,84,0,0.1,14.991,1013.082,340.383,0.01,0.075
1.39,1.535,10.498,36.758,10.556,36.96,0.161,0,0.161,0,1.103,3.863,22.175,120.893,9.788,0.537,0,0,0,2.725e4,1.275e4,19.675,0.105,NaN,2003.83,NaN,0.031,2.072e6,1273.278,0.924,0.631,0.632,0.296,0.215,0.12,NaN,NaN,NaN,NaN,NaN,NaN,NaN,NaN,0.001,165,213.825,84,0,0.1,14.99,1013.07,340.383,0.01,0.075
1.4,1.642,10.866,36.845,10.926,37.048,0.173,0,0.173,0,1.142,3.873,22.175,120.893,9.788,0.517,0,0,0,2.723e4,1.273e4,19.666,0.105,NaN,2003.318,NaN,0.032,2.145e6,1274.663,0.986,0.629,0.63,0.294,0.215,0.12,NaN,NaN,NaN,NaN,NaN,NaN,NaN,NaN,0.001,165,213.825,84,0,0.099,14.989,1013.057,340.382,0.01,0.075
1.41,1.752,11.236,36.953,11.298,37.157,0.184,0,0.184,0,1.181,3.884,22.175,120.893,9.788,0.5,0,0,0,2.72e4,1.27e4,19.657,0.105,NaN,2002.803,NaN,0.033,2.217e6,1276.588,1.052,0.627,0.628,0.292,0.215,0.12,NaN,NaN,NaN,NaN,NaN,NaN,NaN,NaN,0.002,165,213.825,84,0,0.099,14.989,1013.045,340.382,0.01,0.076
1.42,1.866,11.606,37.022,11.67,37.226,0.196,0,0.196,0,1.22,3.891,22.175,120.893,9.788,0.485,0,0,0,2.718e4,1.268e4,19.648,0.105,NaN,2002.288,NaN,0.034,2.29e6,1277.444,1.119,0.626,0.626,0.29,0.215,0.12,NaN,NaN,NaN,NaN,NaN,NaN,NaN,NaN,0.002,165,213.825,84,0,0.099,14.988,1013.031,340.382,0.01,0.076
1.43,1.984,11.977,37.158,12.043,37.363,0.209,0,0.209,0,1.259,3.905,22.175,120.893,9.788,0.47,0,0,0,2.716e4,1.266e4,19.639,0.105,NaN,2001.77,NaN,0.035,2.364e6,1280.14,1.188,0.624,0.625,0.289,0.215,0.12,NaN,NaN,NaN,NaN,NaN,NaN,NaN,NaN,0.002,165,213.825,84,0,0.099,14.987,1013.017,340.381,0.01,0.076
1.44,2.106,12.349,37.215,12.417,37.42,0.221,0,0.221,0,1.298,3.911,22.175,120.893,9.788,0.456,0,0,0,2.713e4,1.263e4,19.629,0.105,NaN,2001.252,NaN,0.037,2.437e6,1280.681,1.261,0.623,0.624,0.288,0.215,0.12,NaN,NaN,NaN,NaN,NaN,NaN,NaN,NaN,0.002,165,213.825,84,0,0.1,14.986,1013.003,340.381,0.01,0.077
1.45,2.231,12.722,37.325,12.792,37.531,0.235,0,0.235,0,1.337,3.923,22.175,120.893,9.788,0.443,0,0,0,2.711e4,1.261e4,19.62,0.105,NaN,2000.731,NaN,0.038,2.51e6,1282.653,1.338,0.623,0.624,0.288,0.215,0.12,NaN,NaN,NaN,NaN,NaN,NaN,NaN,NaN,0.002,165,213.825,84,0,0.1,14.985,1012.988,340.38,0.01,0.093
1.46,2.36,13.096,37.444,13.168,37.65,0.248,0,0.248,0,1.376,3.936,22.175,120.893,9.788,0.425,0,0,0,2.709e4,1.259e4,19.611,0.104,NaN,2000.209,NaN,0.039,2.584e6,1284.861,1.418,0.623,0.624,0.288,0.215,0.12,NaN,NaN,NaN,NaN,NaN,NaN,NaN,NaN,0.002,165,213.825,84,0,0.098,14.985,1012.973,340.38,0.01,0.094
1.47,2.493,13.471,37.497,13.545,37.704,0.262,0,0.262,0,1.416,3.941,22.175,120.893,9.788,0.407,0,0,0,2.706e4,1.256e4,19.602,0.104,NaN,1999.686,NaN,0.04,2.658e6,1285.292,1.5,0.623,0.624,0.288,0.215,0.12,NaN,NaN,NaN,NaN,NaN,NaN,NaN,NaN,0.002,165,213.825,84,0,0.097,14.984,1012.958,340.379,0.01,0.095
1.48,2.63,13.847,37.619,13.923,37.827,0.276,0,0.276,0,1.455,3.954,22.175,120.893,9.788,0.39,0,0,0,2.704e4,1.254e4,19.592,0.104,NaN,1999.161,NaN,0.041,2.732e6,1287.587,1.585,0.623,0.624,0.288,0.215,0.12,NaN,NaN,NaN,NaN,NaN,NaN,NaN,NaN,0.002,165,213.825,84,0,0.095,14.983,1012.942,340.379,0.01,0.095
1.49,2.77,14.224,37.666,14.302,37.874,0.291,0,0.291,0,1.495,3.959,22.175,120.893,9.788,0.374,0,0,0,2.702e4,1.252e4,19.583,0.104,NaN,1998.635,NaN,0.042,2.806e6,1287.832,1.672,0.623,0.624,0.288,0.215,0.12,NaN,NaN,NaN,NaN,NaN,NaN,NaN,NaN,0.002,165,213.825,84,0,0.094,14.982,1012.925,340.378,0.01,0.096
1.5,2.914,14.601,37.737,14.681,37.945,0.306,0,0.306,0,1.535,3.966,22.175,120.893,9.788,0.359,0,0,0,2.699e4,1.249e4,19.574,0.104,NaN,1998.108,NaN,0.043,2.881e6,1288.735,1.762,0.623,0.624,0.288,0.215,0.12,NaN,NaN,NaN,NaN,NaN,NaN,NaN,NaN,0.002,165,213.825,84,0,0.093,14.981,1012.908,340.377,0.01,0.096
1.51,3.062,14.979,37.82,15.061,38.028,0.322,0,0.322,0,1.574,3.975,22.175,120.893,9.788,0.349,0,0,0,2.697e4,1.247e4,19.564,0.104,NaN,1997.579,NaN,0.044,2.955e6,1289.948,1.855,0.623,0.624,0.288,0.215,0.12,NaN,NaN,NaN,NaN,NaN,NaN,NaN,NaN,0.002,165,213.825,84,0,0.092,14.98,1012.891,340.377,0.01,0.097
1.52,3.214,15.357,37.837,15.442,38.045,0.338,0,0.338,0,1.614,3.977,22.175,120.893,9.788,0.339,0,0,0,2.695e4,1.244e4,19.555,0.104,NaN,1997.049,NaN,0.045,3.03e6,1289.376,1.949,0.623,0.624,0.288,0.215,0.12,NaN,NaN,NaN,NaN,NaN,NaN,NaN,NaN,0.002,165,213.825,84,0,0.092,14.979,1012.873,340.376,0.01,0.098
1.53,3.369,15.737,37.977,15.823,38.187,0.354,0,0.354,0,1.654,3.992,22.175,120.893,9.788,0.33,0,0,0,2.692e4,1.242e4,19.546,0.104,NaN,1996.518,NaN,0.047,3.104e6,1292.164,2.047,0.623,0.624,0.288,0.215,0.12,NaN,NaN,NaN,NaN,NaN,NaN,NaN,NaN,0.002,165,213.825,84,0,0.092,14.978,1012.855,340.376,0.01,0.098
1.54,3.528,16.117,38.048,16.206,38.258,0.371,0,0.371,0,1.694,3.999,22.175,120.893,9.788,0.321,0,0,0,2.69e4,1.24e4,19.536,0.104,NaN,1995.985,NaN,0.048,3.179e6,1293.051,2.147,0.623,0.624,0.288,0.215,0.12,NaN,NaN,NaN,NaN,NaN,NaN,NaN,NaN,0.002,165,213.825,84,0,0.091,14.977,1012.836,340.375,0.01,0.099
1.55,3.692,16.498,38.154,16.589,38.364,0.388,0,0.388,0,1.734,4.01,22.175,120.893,9.788,0.313,0,0,0,2.687e4,1.237e4,19.527,0.104,NaN,1995.451,NaN,0.049,3.254e6,1294.89,2.25,0.623,0.624,0.288,0.215,0.12,NaN,NaN,NaN,NaN,NaN,NaN,NaN,NaN,0.002,165,213.825,84,0,0.091,14.976,1012.817,340.374,0.01,0.099
1.56,3.858,16.881,38.28,16.974,38.491,0.406,0,0.406,0,1.774,4.023,22.175,120.893,9.788,0.307,0,0,0,2.685e4,1.235e4,19.517,0.104,NaN,1994.914,NaN,0.05,3.33e6,1297.251,2.355,0.623,0.624,0.288,0.215,0.12,NaN,NaN,NaN,NaN,NaN,NaN,NaN,NaN,0.002,165,213.825,84,0,0.092,14.975,1012.797,340.374,0.01,0.1
1.57,4.029,17.264,38.3,17.359,38.511,0.423,0,0.423,0,1.814,4.026,22.175,120.893,9.788,0.302,0,0,0,2.683e4,1.233e4,19.508,0.104,NaN,1994.377,NaN,0.051,3.405e6,1296.778,2.463,0.623,0.624,0.288,0.215,0.12,NaN,NaN,NaN,NaN,NaN,NaN,NaN,NaN,0.002,165,213.825,84,0,0.092,14.974,1012.777,340.373,0.01,0.101
1.585,4.292,17.838,38.322,17.938,38.652,0.451,1.139e-8,0.451,1.446e-6,1.89,5.044,22.175,120.893,9.788,0.342,0,0.003,1.47e-5,2.679e4,1.229e4,19.493,0.104,2268.705,1993.568,1.667,0.053,3.519e6,1298.654,2.63,0.624,0.624,0.288,0.215,0.12,0.064,0.106,-4.188e-4,0,0,0,0,3.131e-8,0.002,165,213.825,84,0,0.092,14.972,1012.747,340.372,0.015,0.101
1.608,4.704,18.704,38.525,18.811,38.856,0.495,7.257e-8,0.495,8.399e-6,2.004,5.063,22.175,120.893,9.788,0.399,0,0.009,1.136e-5,2.674e4,1.224e4,19.472,0.104,2267.188,1992.348,1.666,0.055,3.69e6,1301.804,2.893,0.624,0.624,0.288,0.215,0.12,0.074,0.124,-2.956e-4,0,0,0,0,2.358e-7,0.003,165,213.825,84,-2.624e-6,0.094,14.969,1012.698,340.37,0.023,0.102
1.641,5.357,20.013,38.864,20.131,39.196,0.566,2.694e-7,0.566,2.729e-5,2.176,5.094,22.175,120.893,9.788,0.476,0,0.02,4.203e-5,2.666e4,1.216e4,19.439,0.104,2265.134,1990.501,1.664,0.059,3.949e6,1307.398,3.314,0.624,0.624,0.288,0.215,0.12,0.089,0.148,9.85e-5,0,0,0,0,1.096e-6,0.003,165,213.825,83.999,-9.024e-6,0.096,14.965,1012.622,340.368,0.034,0.102
1.691,6.406,21.972,39.288,22.106,39.622,0.681,8.109e-7,0.681,6.824e-5,2.432,5.132,22.175,120.893,9.788,0.553,0,0.043,1.943e-5,2.654e4,1.204e4,19.39,0.104,2263.111,1987.731,1.669,0.065,4.335e6,1313.533,3.997,0.624,0.624,0.288,0.215,0.121,0.104,0.173,8.733e-5,0,0,0,0,4.287e-6,0.003,165,213.825,83.998,-1.791e-5,0.093,14.958,1012.499,340.364,0.05,0.102
1.741,7.555,23.961,39.869,24.111,40.205,0.809,1.679e-6,0.809,1.189e-4,2.691,5.187,22.175,120.893,9.788,0.619,0,0.074,-2.293e-5,2.642e4,1.192e4,19.34,0.104,2261.382,1984.915,1.676,0.071,4.728e6,1323.765,4.757,0.624,0.625,0.288,0.216,0.121,0.116,0.195,1.742e-5,0,0,0,0,1.088e-5,0.003,165,213.825,83.995,-1.784e-5,0.092,14.951,1012.364,340.359,0.05,0.103
1.791,8.803,25.981,40.499,26.148,40.837,0.95,2.906e-6,0.95,1.753e-4,2.953,5.246,22.175,120.893,9.788,0.693,0,0.116,-3.36e-5,2.63e4,1.18e4,19.29,0.103,2259.479,1982.048,1.681,0.077,5.127e6,1335.184,5.597,0.624,0.625,0.288,0.216,0.121,0.131,0.22,-3.026e-4,0,0,0,0,2.269e-5,0.004,165,213.825,83.99,-1.77e-5,0.1,14.943,1012.218,340.354,0.05,0.103
1.841,10.154,28.034,41.174,28.218,41.515,1.104,4.525e-6,1.104,2.348e-4,3.218,5.312,22.175,120.893,9.788,0.741,0,0.171,-1.464e-6,2.617e4,1.167e4,19.238,0.103,2258.272,1979.127,1.692,0.083,5.532e6,1347.677,6.52,0.624,0.625,0.288,0.216,0.121,0.14,0.237,2.396e-4,0,0,0,0,4.198e-5,0.004,165,213.825,83.983,-8.16e-6,0.104,14.934,1012.059,340.349,0.05,0.104
1.891,11.608,30.128,41.981,30.329,42.326,1.272,6.571e-6,1.272,2.96e-4,3.487,5.394,22.175,120.893,9.788,0.768,0,0.238,-6.647e-5,2.605e4,1.155e4,19.185,0.103,2257.601,1976.143,1.706,0.089,5.945e6,1363.475,7.534,0.624,0.626,0.288,0.216,0.121,0.145,0.248,-1.932e-4,0,0,0,0,7.059e-5,0.004,165,213.825,83.973,4.455e-6,0.103,14.925,1011.889,340.343,0.05,0.105
1.941,13.167,32.255,42.644,32.473,42.993,1.453,9.079e-6,1.453,3.58e-4,3.76,5.464,22.175,120.893,9.788,0.795,0,0.319,-4.037e-5,2.593e4,1.143e4,19.132,0.103,2256.968,1973.105,1.72,0.095,6.365e6,1375.364,8.64,0.625,0.626,0.288,0.216,0.121,0.15,0.259,2.01e-5,0,0,0,0,1.104e-4,0.004,165,213.825,83.959,1.834e-5,0.107,14.914,1011.706,340.337,0.05,0.105
1.991,14.834,34.419,43.396,34.655,43.749,1.648,1.208e-5,1.648,4.201e-4,4.036,5.549,22.175,120.893,9.788,0.794,0,0.414,1.129e-4,2.58e4,1.13e4,19.077,0.103,2257.051,1970.006,1.74,0.102,6.791e6,1389.417,9.841,0.625,0.626,0.288,0.216,0.121,0.15,0.261,2.849e-5,0,0,0,0,1.635e-4,0.005,165,213.825,83.941,2.228e-5,0.1,14.904,1011.51,340.33,0.05,0.106
2.041,16.61,36.634,44.396,36.888,44.756,1.857,1.562e-5,1.857,4.82e-4,4.319,5.663,22.175,120.893,9.788,0.8,0,0.523,1.395e-5,2.567e4,1.117e4,19.021,0.102,2256.952,1966.831,1.758,0.108,7.228e6,1409.711,11.152,0.625,0.626,0.288,0.216,0.122,0.152,0.266,4.977e-4,0,0,0,0,2.309e-4,0.005,165,213.825,83.918,3.579e-5,0.103,14.892,1011.302,340.323,0.05,0.106
2.091,18.498,38.892,45.277,39.164,45.644,2.08,1.972e-5,2.08,5.434e-4,4.606,5.773,22.175,120.893,9.788,0.786,0,0.649,8.842e-5,2.554e4,1.104e4,18.964,0.102,2257.406,1963.584,1.781,0.115,7.672e6,1426.753,12.572,0.625,0.627,0.287,0.216,0.122,0.149,0.265,1.952e-5,0,0,0,0,3.15e-4,0.005,165,213.825,83.888,9.378e-5,0.099,14.88,1011.08,340.316,0.05,0.107
2.141,20.5,41.181,45.882,41.471,46.255,2.318,2.444e-5,2.318,6.043e-4,4.898,5.861,22.175,120.893,9.788,0.77,0,0.789,6.297e-5,2.541e4,1.091e4,18.906,0.102,2257.909,1960.282,1.804,0.122,8.123e6,1436.554,14.1,0.626,0.627,0.287,0.216,0.122,0.146,0.263,-3.032e-4,0,0,0,0,4.151e-4,0.006,165,213.825,83.852,1.553e-4,0.098,14.867,1010.846,340.308,0.05,0.108
2.191,22.617,43.504,46.57,43.813,46.951,2.57,2.983e-5,2.57,6.65e-4,5.195,5.966,22.175,120.893,9.788,0.749,0,0.944,-2.597e-4,2.528e4,1.078e4,18.847,0.102,2258.546,1956.918,1.828,0.129,8.58e6,1448.404,15.74,0.626,0.627,0.287,0.216,0.122,0.142,0.258,-9.223e-5,0,0,0,0,5.331e-4,0.006,165,213.825,83.809,2.356e-4,0.1,14.853,1010.597,340.3,0.05,0.108
2.241,24.851,45.863,47.299,46.191,47.689,2.837,3.593e-5,2.837,7.256e-4,5.498,6.088,22.175,120.893,9.788,0.712,0,1.113,1.781e-4,2.515e4,1.065e4,18.787,0.102,2259.613,1953.489,1.855,0.136,9.044e6,1461.178,17.497,0.626,0.627,0.287,0.217,0.122,0.135,0.25,-4.969e-4,0,0,0,0,6.669e-4,0.006,165,213.825,83.758,3.118e-4,0.097,14.838,1010.335,340.291,0.05,0.109
2.291,27.204,48.247,47.806,48.596,48.206,3.12,4.28e-5,3.12,7.861e-4,5.806,6.197,22.175,120.893,9.788,0.671,3.528e-7,1.293,5.182e-4,2.501e4,1.051e4,18.726,0.101,2260.811,1950.006,1.884,0.143,9.513e6,1468.288,19.369,0.627,0.628,0.287,0.217,0.123,0.127,0.237,-5.94e-5,0,0,0,0,8.128e-4,0.007,165,213.825,83.698,3.05e-4,0.095,14.823,1010.059,340.282,0.05,0.109
2.341,29.676,50.636,47.885,51.004,48.294,3.418,5.048e-5,3.418,8.463e-4,6.117,6.273,22.175,120.893,9.788,0.619,0,1.482,2.781e-4,2.488e4,1.038e4,18.664,0.101,2262.288,1946.495,1.914,0.15,9.983e6,1464.702,21.34,0.627,0.628,0.287,0.217,0.123,0.117,0.223,1.107e-4,0,0,0,0,9.696e-4,0.007,165,213.825,83.628,3.162e-4,0.092,14.807,1009.769,340.272,0.05,0.11
2.391,32.268,53.028,47.936,53.416,48.356,3.731,5.9e-5,3.731,9.06e-4,6.432,6.359,22.175,120.893,9.788,0.562,5.018e-7,1.675,6.445e-4,2.475e4,1.025e4,18.602,0.101,2263.929,1942.956,1.945,0.157,1.045e7,1460.577,23.409,0.627,0.628,0.287,0.217,0.123,0.106,0.204,-1.434e-4,0,0,0,0,0.001,0.007,165,213.825,83.549,3.916e-4,0.09,14.79,1009.466,340.262,0.05,0.11
2.441,34.979,55.424,48.034,55.834,48.467,4.061,6.842e-5,4.061,9.653e-4,6.753,6.464,22.175,120.893,9.788,0.5,0,1.867,1.132e-4,2.461e4,1.011e4,18.539,0.101,2265.698,1939.385,1.978,0.164,1.092e7,1457.734,25.581,0.628,0.628,0.287,0.217,0.124,0.094,0.184,4.434e-4,0,0,0,0,0.001,0.008,165,213.825,83.461,5.129e-4,0.091,14.773,1009.148,340.251,0.05,0.111
2.491,37.809,57.805,47.712,58.236,48.158,4.407,7.88e-5,4.407,0.001,7.076,6.534,22.175,120.893,9.788,0.436,5.939e-7,2.056,2.875e-4,2.448e4,9982.7,18.477,0.101,2267.531,1935.809,2.01,0.171,1.139e7,1444.705,27.836,0.628,0.629,0.287,0.217,0.124,0.082,0.163,4.798e-4,0,0,0,0,0.001,0.008,165,213.825,83.363,7.47e-4,0.097,14.754,1008.816,340.24,0.05,0.112
2.541,40.759,60.182,47.652,60.636,48.114,4.769,9.028e-5,4.769,0.001,7.405,6.652,22.175,120.893,9.788,0.358,0,2.232,3.522e-5,2.435e4,9851.919,18.414,0.1,2269.776,1932.21,2.046,0.178,1.186e7,1438.362,30.184,0.629,0.629,0.287,0.218,0.124,0.067,0.135,4.694e-5,0,0,0,0,0.002,0.008,165,213.825,83.255,0.001,0.094,14.735,1008.47,340.228,0.05,0.112
2.591,43.827,62.551,47.466,63.028,47.946,5.147,1.03e-4,5.147,0.001,7.739,6.769,22.175,120.893,9.788,0.276,0,2.386,3.878e-4,2.422e4,9721.977,18.351,0.1,2272.135,1928.595,2.082,0.185,1.232e7,1429.136,32.621,0.629,0.629,0.287,0.218,0.124,0.051,0.105,3.669e-5,0,0,0,0,0.002,0.009,165,213.825,83.14,0.001,0.091,14.715,1008.11,340.216,0.05,0.113
2.641,47.014,64.933,47.739,65.434,48.243,5.543,1.17e-4,5.543,0.001,8.082,6.953,22.175,120.893,9.788,0.194,8.516e-7,2.51,7.639e-4,2.409e4,9591.843,18.287,0.1,2274.495,1924.936,2.119,0.192,1.279e7,1431.244,35.172,0.63,0.63,0.287,0.218,0.125,0.036,0.075,-4.457e-5,0,0,0,0,0.002,0.009,165,213.825,83.017,0.001,0.094,14.694,1007.736,340.204,0.05,0.113
2.691,50.321,67.324,47.904,67.85,48.432,5.956,1.326e-4,5.956,0.001,8.434,7.134,22.175,120.893,9.788,0.114,0,2.599,4.545e-4,2.396e4,9461.748,18.222,0.1,2276.847,1921.238,2.155,0.199,1.326e7,1430.823,37.833,0.63,0.63,0.287,0.218,0.125,0.021,0.044,-3.044e-4,0,0,0,0,0.002,0.009,165,213.825,82.889,0.002,0.1,14.673,1007.348,340.191,0.05,0.114
2.741,53.747,69.73,48.215,70.283,48.771,6.386,1.498e-4,6.386,0.001,8.797,7.346,22.175,120.893,9.788,0.029,0,2.643,0.004,2.383e4,9331.363,18.157,0.1,2279.333,1917.492,2.193,0.207,1.373e7,1433.995,40.613,0.631,0.631,0.287,0.219,0.126,0.005,0.01,2.935e-5,0,0,0,0,0.002,0.01,165,213.825,82.758,0.002,0.1,14.651,1006.946,340.177,0.05,0.114
2.791,57.294,72.161,48.701,72.741,49.289,6.836,1.687e-4,6.836,0.001,9.171,7.59,22.175,120.893,9.788,0.057,5.348e-7,-2.631,0.001,2.37e4,9200.305,18.091,0.099,2278.733,1913.685,2.212,0.214,1.421e7,1441.415,43.526,0.631,0.631,0.287,0.219,0.126,0.011,0.024,-1.71e-4,0,0,0,0,-0.002,0.01,165,213.825,82.626,0.002,0.094,14.628,1006.53,340.163,0.05,0.114
2.841,60.964,74.613,49.125,75.222,49.745,7.304,1.897e-4,7.304,0.001,9.558,7.827,22.175,120.893,9.788,0.133,-1.283e-6,-2.553,0.002,2.357e4,9068.707,18.023,0.099,2276.796,1909.819,2.224,0.221,1.469e7,1447.346,46.573,0.632,0.632,0.286,0.219,0.126,0.025,0.056,2.668e-4,0,0,0,0,-0.001,0.01,165,213.825,82.496,0.003,0.094,14.604,1006.1,340.149,0.05,0.114
2.891,64.756,77.064,49.119,77.704,49.767,7.791,2.13e-4,7.791,0.002,9.953,8.005,22.175,120.893,9.787,0.202,0,-2.412,-2.215e-5,2.344e4,8937.495,17.955,0.099,2275.085,1905.922,2.237,0.228,1.517e7,1443.113,49.729,0.632,0.632,0.286,0.219,0.127,0.038,0.085,4.988e-4,0,0,0,0,-0.001,0.011,165,213.825,82.372,0.003,0.092,14.579,1005.655,340.134,0.05,0.115
2.941,68.67,79.508,48.953,80.179,49.626,8.299,2.385e-4,8.299,0.002,10.356,8.148,22.175,120.893,9.787,0.254,0,-2.203,7.943e-4,2.331e4,8806.998,17.887,0.099,2273.835,1902.002,2.254,0.236,1.565e7,1435.232,52.983,0.633,0.633,0.286,0.22,0.127,0.047,0.107,-4.129e-4,0,0,0,0,-8.67e-4,0.011,165,213.825,82.256,0.003,0.097,14.554,1005.196,340.118,0.05,0.115
2.991,72.707,81.965,49.226,82.669,49.927,8.827,2.665e-4,8.827,0.002,10.768,8.338,22.175,120.893,9.787,0.297,-1.145e-6,-1.935,0.001,2.318e4,8676.274,17.818,0.099,2272.829,1898.031,2.272,0.243,1.613e7,1437.734,56.363,0.634,0.634,0.286,0.22,0.128,0.056,0.127,-3.368e-4,0,0,0,0,-6.292e-4,0.011,165,213.825,82.153,0.003,0.095,14.527,1004.723,340.103,0.05,0.115
