# Time (s),Altitude (m),Vertical velocity (m/s),Vertical acceleration (m/s²),Total velocity (m/s),Total acceleration (m/s²),Position East of launch (m),Position North of launch (m),Lateral distance (m),Lateral direction (°),Lateral velocity (m/s),Lateral acceleration (m/s²),Latitude (°),Longitude (°),Gravitational acceleration (m/s²),Angle of attack (°),Roll rate (°/s),Pitch rate (°/s),Yaw rate (°/s),Mass (g),Motor mass (g),Longitudinal moment of inertia (kg·m²),Rotational moment of inertia (kg·m²),CP location (mm),CG location (mm),Stability margin calibers (​),Mach number (​),Reynolds number (​),Thrust (N),Drag force (N),Drag coefficient (​),Axial drag coefficient (​),Friction drag coefficient (​),Pressure drag coefficient (​),Base drag coefficient (​),Normal force coefficient (​),Pitch moment coefficient (​),Yaw moment coefficient (​),Side force coefficient (​),Roll moment coefficient (​),Roll forcing coefficient (​),Roll damping coefficient (​),Pitch damping coefficient (​),Coriolis acceleration (m/s²),Reference length (mm),Reference area (cm²),Vertical orientation (zenith) (°),Lateral orientation (azimuth) (°),Wind velocity (m/s),Air temperature (°C),Air pressure (mbar),Speed of sound (m/s),Simulation time step (s),Computation time (s)
0.01,-4.757e-4,-0.095,-9.511,0.096,9.563,-5e-5,0,5e-5,180,0.01,1,22.175,120.893,9.788,130.598,0,0,0,2.8e4,1.35e4,19.963,0.106,NaN,2019.994,NaN,3.846e-4,2.567e4,4.784,-1.374e-4,1.174,-0.612,0.839,0.215,0.12,NaN,NaN,NaN,NaN,NaN,NaN,NaN,NaN,1.293e-5,165,213.825,84,0,0.1,15,1013.25,340.389,0.01,0.002
0.02,-4.761e-4,-0.095,-9.522,0.096,9.575,-5.004e-5,0,5.004e-5,180,0.01,1.001,22.175,120.893,9.788,130.618,0,0,0,2.8e4,1.35e4,19.963,0.106,NaN,2019.992,NaN,3.849e-4,2.57e4,4.461,-1.377e-4,1.174,-0.613,0.839,0.215,0.12,NaN,NaN,NaN,NaN,NaN,NaN,NaN,NaN,1.294e-5,165,213.825,84,0,0.1,15,1013.25,340.389,0.01,0.003
0.03,-4.763e-4,-0.095,-9.526,0.096,9.579,-5.006e-5,0,5.006e-5,180,0.01,1.001,22.175,120.893,9.788,130.613,0,0,0,2.8e4,1.35e4,19.963,0.106,NaN,2019.991,NaN,3.851e-4,2.571e4,4.343,-1.378e-4,1.174,-0.612,0.838,0.215,0.12,NaN,NaN,NaN,NaN,NaN,NaN,NaN,NaN,1.295e-5,165,213.825,84,0,0.1,15,1013.25,340.389,0.01,0.004
0.04,-4.765e-4,-0.095,-9.53,0.096,9.582,-5.008e-5,0,5.008e-5,180,0.01,1.002,22.175,120.893,9.788,130.605,0,0,0,2.8e4,1.35e4,19.963,0.106,NaN,2019.989,NaN,3.853e-4,2.572e4,4.249,-1.379e-4,1.173,-0.612,0.838,0.215,0.12,NaN,NaN,NaN,NaN,NaN,NaN,NaN,NaN,1.295e-5,165,213.825,84,0,0.1,15,1013.25,340.389,0.01,0.005
0.05,-4.761e-4,-0.095,-9.523,0.096,9.575,-5.005e-5,0,5.005e-5,180,0.01,1.001,22.175,120.893,9.788,130.563,0,0,0,2.8e4,1.35e4,19.963,0.106,NaN,2019.988,NaN,3.853e-4,2.572e4,4.443,-1.375e-4,1.173,-0.611,0.838,0.215,0.12,NaN,NaN,NaN,NaN,NaN,NaN,NaN,NaN,1.294e-5,165,213.825,84,0,0.1,15,1013.25,340.389,0.01,0.006
0.06,-4.757e-4,-0.095,-9.514,0.096,9.567,-5e-5,0,5e-5,180,0.01,1,22.175,120.893,9.788,130.404,0,0,0,2.8e4,1.35e4,19.963,0.106,NaN,2019.986,NaN,3.86e-4,2.576e4,4.681,-1.367e-4,1.173,-0.605,0.838,0.215,0.12,NaN,NaN,NaN,NaN,NaN,NaN,NaN,NaN,1.293e-5,165,213.825,84,0,0.101,15,1013.25,340.389,0.01,0.007
0.07,-4.762e-4,-0.095,-9.523,0.096,9.576,-5.005e-5,0,5.005e-5,180,0.01,1.001,22.175,120.893,9.788,130.303,0,0,0,2.8e4,1.35e4,19.963,0.106,NaN,2019.984,NaN,3.87e-4,2.583e4,4.438,-1.366e-4,1.172,-0.601,0.837,0.215,0.12,NaN,NaN,NaN,NaN,NaN,NaN,NaN,NaN,1.294e-5,165,213.825,84,0,0.101,15,1013.25,340.389,0.01,0.007
0.08,-4.761e-4,-0.095,-9.522,0.096,9.574,-5.004e-5,0,5.004e-5,180,0.01,1.001,22.175,120.893,9.788,130.169,0,0,0,2.8e4,1.35e4,19.963,0.106,NaN,2019.982,NaN,3.878e-4,2.589e4,4.479,-1.36e-4,1.172,-0.596,0.837,0.215,0.12,NaN,NaN,NaN,NaN,NaN,NaN,NaN,NaN,1.294e-5,165,213.825,84,0,0.101,15,1013.25,340.389,0.01,0.008
0.09,-4.759e-4,-0.095,-9.517,0.096,9.57,-5.002e-5,0,5.002e-5,180,0.01,1,22.175,120.893,9.788,130.026,0,0,0,2.8e4,1.35e4,19.963,0.106,NaN,2019.981,NaN,3.885e-4,2.594e4,4.603,-1.354e-4,1.171,-0.591,0.836,0.215,0.12,NaN,NaN,NaN,NaN,NaN,NaN,NaN,NaN,1.294e-5,165,213.825,84,0,0.102,15,1013.25,340.389,0.01,0.008
0.1,-4.764e-4,-0.095,-9.527,0.096,9.58,-5.007e-5,0,5.007e-5,180,0.01,1.001,22.175,120.893,9.788,129.931,0,0,0,2.8e4,1.35e4,19.963,0.106,NaN,2019.979,NaN,3.896e-4,2.601e4,4.315,-1.353e-4,1.171,-0.588,0.836,0.215,0.12,NaN,NaN,NaN,NaN,NaN,NaN,NaN,NaN,1.295e-5,165,213.825,84,0,0.102,15,1013.25,340.389,0.01,0.009
0.11,-4.762e-4,-0.095,-9.523,0.096,9.576,-5.005e-5,0,5.005e-5,180,0.01,1.001,22.175,120.893,9.788,130.242,0,0,0,2.8e4,1.35e4,19.963,0.106,NaN,2019.977,NaN,3.874e-4,2.586e4,4.431,-1.364e-4,1.172,-0.599,0.837,0.215,0.12,NaN,NaN,NaN,NaN,NaN,NaN,NaN,NaN,1.294e-5,165,213.825,84,0,0.101,15,1013.25,340.389,0.01,0.01
0.12,-4.762e-4,-0.095,-9.523,0.096,9.576,-5.005e-5,0,5.005e-5,180,0.01,1.001,22.175,120.893,9.788,130.569,0,0,0,2.8e4,1.35e4,19.962,0.106,NaN,2019.976,NaN,3.853e-4,2.572e4,4.436,-1.376e-4,1.173,-0.611,0.838,0.215,0.12,NaN,NaN,NaN,NaN,NaN,NaN,NaN,NaN,1.294e-5,165,213.825,84,0,0.1,15,1013.25,340.389,0.01,0.01
0.13,-4.758e-4,-0.095,-9.517,0.096,9.569,-5.001e-5,0,5.001e-5,180,0.01,1,22.175,120.893,9.788,130.878,0,0,0,2.8e4,1.35e4,19.962,0.106,NaN,2019.974,NaN,3.83e-4,2.557e4,4.62,-1.385e-4,1.175,-0.622,0.84,0.215,0.12,NaN,NaN,NaN,NaN,NaN,NaN,NaN,NaN,1.294e-5,165,213.825,84,0,0.099,15,1013.25,340.389,0.01,0.011
0.14,-4.762e-4,-0.095,-9.524,0.096,9.577,-5.005e-5,0,5.005e-5,180,0.01,1.001,22.175,120.893,9.788,131.239,0,0,0,2.8e4,1.35e4,19.962,0.106,NaN,2019.972,NaN,3.811e-4,2.544e4,4.404,-1.401e-4,1.176,-0.636,0.841,0.215,0.12,NaN,NaN,NaN,NaN,NaN,NaN,NaN,NaN,1.295e-5,165,213.825,84,0,0.098,15,1013.25,340.389,0.01,0.013
0.15,-4.761e-4,-0.095,-9.523,0.096,9.575,-5.004e-5,0,5.004e-5,180,0.01,1.001,22.175,120.893,9.788,131.573,0,0,0,2.8e4,1.35e4,19.962,0.106,NaN,2019.97,NaN,3.79e-4,2.53e4,4.444,-1.413e-4,1.178,-0.648,0.843,0.215,0.12,NaN,NaN,NaN,NaN,NaN,NaN,NaN,NaN,1.294e-5,165,213.825,84,0,0.097,15,1013.25,340.389,0.01,0.014
0.16,-4.758e-4,-0.095,-9.516,0.096,9.568,-5.001e-5,0,5.001e-5,180,0.01,1,22.175,120.893,9.788,131.73,0,0,0,2.8e4,1.35e4,19.962,0.106,NaN,2019.969,NaN,3.778e-4,2.522e4,4.651,-1.416e-4,1.179,-0.654,0.844,0.215,0.12,NaN,NaN,NaN,NaN,NaN,NaN,NaN,NaN,1.293e-5,165,213.825,84,0,0.096,15,1013.25,340.389,0.01,0.014
0.17,-4.765e-4,-0.095,-9.531,0.096,9.583,-5.009e-5,0,5.009e-5,180,0.01,1.002,22.175,120.893,9.788,131.963,0,0,0,2.8e4,1.35e4,19.962,0.106,NaN,2019.967,NaN,3.77e-4,2.517e4,4.218,-1.429e-4,1.179,-0.663,0.844,0.215,0.12,NaN,NaN,NaN,NaN,NaN,NaN,NaN,NaN,1.295e-5,165,213.825,84,0,0.096,15,1013.25,340.389,0.01,0.015
0.18,-4.765e-4,-0.095,-9.531,0.096,9.583,-5.009e-5,0,5.009e-5,180,0.01,1.002,22.175,120.893,9.788,132.146,0,0,0,2.8e4,1.35e4,19.962,0.106,NaN,2019.965,NaN,3.759e-4,2.509e4,4.225,-1.435e-4,1.18,-0.669,0.845,0.215,0.12,NaN,NaN,NaN,NaN,NaN,NaN,NaN,NaN,1.295e-5,165,213.825,84,0,0.095,15,1013.25,340.389,0.01,0.016
0.19,-4.764e-4,-0.095,-9.527,0.096,9.58,-5.007e-5,0,5.007e-5,180,0.01,1.001,22.175,120.893,9.788,132.319,0,0,0,2.8e4,1.35e4,19.962,0.106,NaN,2019.964,NaN,3.748e-4,2.502e4,4.321,-1.441e-4,1.181,-0.676,0.846,0.215,0.12,NaN,NaN,NaN,NaN,NaN,NaN,NaN,NaN,1.295e-5,165,213.825,84,0,0.095,15,1013.25,340.389,0.01,0.017
0.2,-4.766e-4,-0.095,-9.532,0.096,9.585,-5.01e-5,0,5.01e-5,180,0.01,1.002,22.175,120.893,9.788,132.522,0,0,0,2.8e4,1.35e4,19.962,0.106,NaN,2019.962,NaN,3.738e-4,2.495e4,4.174,-1.45e-4,1.181,-0.684,0.846,0.215,0.12,NaN,NaN,NaN,NaN,NaN,NaN,NaN,NaN,1.296e-5,165,213.825,84,0,0.094,15,1013.25,340.389,0.01,0.017
0.21,-4.763e-4,-0.095,-9.525,0.096,9.578,-5.006e-5,0,5.006e-5,180,0.01,1.001,22.175,120.893,9.788,132.916,0,0,0,2.8e4,1.35e4,19.962,0.106,NaN,2019.961,NaN,3.713e-4,2.478e4,4.381,-1.462e-4,1.183,-0.699,0.848,0.215,0.12,NaN,NaN,NaN,NaN,NaN,NaN,NaN,NaN,1.295e-5,165,213.825,84,0,0.093,15,1013.25,340.389,0.01,0.018
0.22,-4.758e-4,-0.095,-9.515,0.096,9.568,-5.001e-5,0,5.001e-5,180,0.01,1,22.175,120.893,9.788,133.307,0,0,0,2.8e4,1.35e4,19.962,0.106,NaN,2019.959,NaN,3.687e-4,2.461e4,4.657,-1.473e-4,1.185,-0.714,0.85,0.215,0.12,NaN,NaN,NaN,NaN,NaN,NaN,NaN,NaN,1.293e-5,165,213.825,84,0,0.092,15,1013.25,340.389,0.01,0.019
0.23,-4.762e-4,-0.095,-9.525,0.096,9.577,-5.005e-5,0,5.005e-5,180,0.01,1.001,22.175,120.893,9.788,133.768,0,0,0,2.8e4,1.35e4,19.962,0.106,NaN,2019.957,NaN,3.665e-4,2.447e4,4.392,-1.492e-4,1.187,-0.732,0.852,0.215,0.12,NaN,NaN,NaN,NaN,NaN,NaN,NaN,NaN,1.295e-5,165,213.825,84,0,0.091,15,1013.25,340.389,0.01,0.02
0.24,-4.76e-4,-0.095,-9.52,0.096,9.573,-5.003e-5,0,5.003e-5,180,0.01,1.001,22.175,120.893,9.788,134.188,0,0,0,2.8e4,1.35e4,19.962,0.106,NaN,2019.955,NaN,3.641e-4,2.431e4,4.513,-1.506e-4,1.188,-0.748,0.853,0.215,0.12,NaN,NaN,NaN,NaN,NaN,NaN,NaN,NaN,1.294e-5,165,213.825,84,0,0.089,15,1013.25,340.389,0.01,0.02
0.25,-4.759e-4,-0.095,-9.518,0.096,9.57,-5.002e-5,0,5.002e-5,180,0.01,1,22.175,120.893,9.788,134.62,0,0,0,2.8e4,1.35e4,19.962,0.106,NaN,2019.954,NaN,3.617e-4,2.415e4,4.587,-1.52e-4,1.19,-0.765,0.855,0.215,0.12,NaN,NaN,NaN,NaN,NaN,NaN,NaN,NaN,1.294e-5,165,213.825,84,0,0.088,15,1013.25,340.389,0.01,0.021
0.26,-4.762e-4,-0.095,-9.523,0.096,9.576,-5.005e-5,0,5.005e-5,180,0.01,1.001,22.175,120.893,9.788,134.511,0,0,0,2.8e4,1.35e4,19.962,0.106,NaN,2019.952,NaN,3.625e-4,2.42e4,4.429,-1.518e-4,1.19,-0.761,0.854,0.215,0.12,NaN,NaN,NaN,NaN,NaN,NaN,NaN,NaN,1.294e-5,165,213.825,84,0,0.088,15,1013.25,340.389,0.01,0.023
0.27,-4.76e-4,-0.095,-9.52,0.096,9.572,-5.003e-5,0,5.003e-5,180,0.01,1.001,22.175,120.893,9.788,134.372,0,0,0,2.8e4,1.35e4,19.962,0.106,NaN,2019.95,NaN,3.631e-4,2.424e4,4.527,-1.512e-4,1.189,-0.756,0.854,0.215,0.12,NaN,NaN,NaN,NaN,NaN,NaN,NaN,NaN,1.294e-5,165,213.825,84,0,0.089,15,1013.25,340.389,0.01,0.024
0.28,-4.761e-4,-0.095,-9.521,0.096,9.574,-5.004e-5,0,5.004e-5,180,0.01,1.001,22.175,120.893,9.788,134.25,0,0,0,2.8e4,1.35e4,19.962,0.106,NaN,2019.949,NaN,3.638e-4,2.429e4,4.488,-1.508e-4,1.189,-0.751,0.854,0.215,0.12,NaN,NaN,NaN,NaN,NaN,NaN,NaN,NaN,1.294e-5,165,213.825,84,0,0.089,15,1013.25,340.389,0.01,0.025
0.29,-4.758e-4,-0.095,-9.517,0.096,9.569,-5.001e-5,0,5.001e-5,180,0.01,1,22.175,120.893,9.788,134.109,0,0,0,2.8e4,1.35e4,19.962,0.106,NaN,2019.947,NaN,3.644e-4,2.433e4,4.616,-1.502e-4,1.188,-0.745,0.853,0.215,0.12,NaN,NaN,NaN,NaN,NaN,NaN,NaN,NaN,1.294e-5,165,213.825,84,0,0.09,15,1013.25,340.389,0.01,0.025
0.3,-4.76e-4,-0.095,-9.519,0.096,9.572,-5.003e-5,0,5.003e-5,180,0.01,1.001,22.175,120.893,9.788,133.991,0,0,0,2.8e4,1.35e4,19.962,0.106,NaN,2019.945,NaN,3.651e-4,2.437e4,4.548,-1.498e-4,1.188,-0.741,0.853,0.215,0.12,NaN,NaN,NaN,NaN,NaN,NaN,NaN,NaN,1.294e-5,165,213.825,84,0,0.09,15,1013.25,340.389,0.01,0.026
0.31,-4.757e-4,-0.095,-9.514,0.096,9.566,-5e-5,0,5e-5,180,0.01,1,22.175,120.893,9.788,134.131,0,0,0,2.8e4,1.35e4,19.962,0.106,NaN,2019.943,NaN,3.642e-4,2.431e4,4.706,-1.502e-4,1.188,-0.746,0.853,0.215,0.12,NaN,NaN,NaN,NaN,NaN,NaN,NaN,NaN,1.293e-5,165,213.825,84,0,0.089,15,1013.25,340.389,0.01,0.027
0.32,-4.763e-4,-0.095,-9.527,0.096,9.579,-5.007e-5,0,5.007e-5,180,0.01,1.001,22.175,120.893,9.788,134.334,0,0,0,2.8e4,1.35e4,19.962,0.106,NaN,2019.942,NaN,3.636e-4,2.427e4,4.332,-1.512e-4,1.189,-0.754,0.854,0.215,0.12,NaN,NaN,NaN,NaN,NaN,NaN,NaN,NaN,1.295e-5,165,213.825,84,0,0.089,15,1013.25,340.389,0.01,0.027
0.33,-4.761e-4,-0.095,-9.521,0.096,9.574,-5.004e-5,0,5.004e-5,180,0.01,1.001,22.175,120.893,9.788,134.475,0,0,0,2.8e4,1.35e4,19.962,0.106,NaN,2019.94,NaN,3.626e-4,2.421e4,4.483,-1.516e-4,1.189,-0.76,0.854,0.215,0.12,NaN,NaN,NaN,NaN,NaN,NaN,NaN,NaN,1.294e-5,165,213.825,84,0,0.089,15,1013.25,340.389,0.01,0.027
0.34,-4.759e-4,-0.095,-9.518,0.096,9.571,-5.002e-5,0,5.002e-5,180,0.01,1,22.175,120.893,9.788,134.625,0,0,0,2.8e4,1.35e4,19.962,0.106,NaN,2019.938,NaN,3.617e-4,2.415e4,4.57,-1.52e-4,1.19,-0.766,0.855,0.215,0.12,NaN,NaN,NaN,NaN,NaN,NaN,NaN,NaN,1.294e-5,165,213.825,84,0,0.088,15,1013.25,340.389,0.01,0.028
0.35,-4.762e-4,-0.095,-9.524,0.096,9.576,-5.005e-5,0,5.005e-5,180,0.01,1.001,22.175,120.893,9.788,134.804,0,0,0,2.8e4,1.35e4,19.962,0.106,NaN,2019.936,NaN,3.61e-4,2.41e4,4.419,-1.528e-4,1.191,-0.773,0.856,0.215,0.12,NaN,NaN,NaN,NaN,NaN,NaN,NaN,NaN,1.294e-5,165,213.825,84,0,0.088,15,1013.25,340.389,0.01,0.028
0.36,-4.764e-4,-0.095,-9.527,0.096,9.58,-5.007e-5,0,5.007e-5,180,0.01,1.001,22.175,120.893,9.788,134.973,0,0,0,2.8e4,1.35e4,19.962,0.106,NaN,2019.935,NaN,3.603e-4,2.405e4,4.317,-1.535e-4,1.191,-0.779,0.856,0.215,0.12,NaN,NaN,NaN,NaN,NaN,NaN,NaN,NaN,1.295e-5,165,213.825,84,0,0.087,15,1013.25,340.389,0.01,0.029
0.37,-4.76e-4,-0.095,-9.52,0.096,9.573,-5.003e-5,0,5.003e-5,180,0.01,1.001,22.175,120.893,9.788,135.106,0,0,0,2.8e4,1.35e4,19.962,0.106,NaN,2019.933,NaN,3.593e-4,2.399e4,4.522,-1.537e-4,1.192,-0.785,0.857,0.215,0.12,NaN,NaN,NaN,NaN,NaN,NaN,NaN,NaN,1.294e-5,165,213.825,84,0,0.087,15,1013.25,340.389,0.01,0.029
0.38,-4.762e-4,-0.095,-9.523,0.096,9.576,-5.005e-5,0,5.005e-5,180,0.01,1.001,22.175,120.893,9.788,135.275,0,0,0,2.8e4,1.35e4,19.962,0.106,NaN,2019.931,NaN,3.586e-4,2.394e4,4.433,-1.544e-4,1.192,-0.791,0.857,0.215,0.12,NaN,NaN,NaN,NaN,NaN,NaN,NaN,NaN,1.294e-5,165,213.825,84,0,0.086,15,1013.25,340.389,0.01,0.029
0.39,-4.757e-4,-0.095,-9.515,0.096,9.567,-5e-5,0,5e-5,180,0.01,1,22.175,120.893,9.788,135.406,0,0,0,2.8e4,1.35e4,19.962,0.106,NaN,2019.93,NaN,3.576e-4,2.387e4,4.673,-1.546e-4,1.193,-0.797,0.858,0.215,0.12,NaN,NaN,NaN,NaN,NaN,NaN,NaN,NaN,1.293e-5,165,213.825,84,0,0.086,15,1013.25,340.389,0.01,0.03
0.4,-4.755e-4,-0.095,-9.51,0.096,9.562,-4.998e-5,0,4.998e-5,180,0.01,1,22.175,120.893,9.788,135.549,0,0,0,2.8e4,1.35e4,19.962,0.106,NaN,2019.928,NaN,3.567e-4,2.381e4,4.812,-1.55e-4,1.194,-0.802,0.859,0.215,0.12,NaN,NaN,NaN,NaN,NaN,NaN,NaN,NaN,1.293e-5,165,213.825,84,0,0.086,15,1013.25,340.389,0.01,0.03
0.41,-4.759e-4,-0.095,-9.518,0.096,9.57,-5.002e-5,0,5.002e-5,180,0.01,1,22.175,120.893,9.788,135.718,0,0,0,2.8e4,1.35e4,19.962,0.106,NaN,2019.926,NaN,3.562e-4,2.378e4,4.595,-1.558e-4,1.194,-0.809,0.859,0.215,0.12,NaN,NaN,NaN,NaN,NaN,NaN,NaN,NaN,1.294e-5,165,213.825,84,0,0.085,15,1013.25,340.389,0.01,0.03
0.42,-4.758e-4,-0.095,-9.516,0.096,9.568,-5.001e-5,0,5.001e-5,180,0.01,1,22.175,120.893,9.788,135.857,0,0,0,2.8e4,1.35e4,19.962,0.106,NaN,2019.924,NaN,3.555e-4,2.373e4,4.638,-1.562e-4,1.195,-0.815,0.86,0.215,0.12,NaN,NaN,NaN,NaN,NaN,NaN,NaN,NaN,1.293e-5,165,213.825,84,0,0.085,15,1013.25,340.389,0.01,0.031
0.43,-4.755e-4,-0.095,-9.51,0.096,9.562,-4.998e-5,0,4.998e-5,180,0.01,1,22.175,120.893,9.788,135.981,0,0,0,2.8e4,1.35e4,19.962,0.106,NaN,2019.922,NaN,3.546e-4,2.367e4,4.811,-1.564e-4,1.196,-0.82,0.86,0.215,0.12,NaN,NaN,NaN,NaN,NaN,NaN,NaN,NaN,1.293e-5,165,213.825,84,0,0.084,15,1013.25,340.389,0.01,0.031
0.44,-4.753e-4,-0.095,-9.506,0.096,9.558,-4.996e-5,0,4.996e-5,180,0.01,0.999,22.175,120.893,9.788,136.113,0,0,0,2.8e4,1.35e4,19.962,0.106,NaN,2019.921,NaN,3.539e-4,2.362e4,4.919,-1.568e-4,1.196,-0.825,0.861,0.215,0.12,NaN,NaN,NaN,NaN,NaN,NaN,NaN,NaN,1.292e-5,165,213.825,84,0,0.084,15,1013.25,340.389,0.01,0.031
0.45,-4.759e-4,-0.095,-9.518,0.096,9.57,-5.002e-5,0,5.002e-5,180,0.01,1,22.175,120.893,9.788,136.299,0,0,0,2.8e4,1.35e4,19.961,0.106,NaN,2019.919,NaN,3.534e-4,2.359e4,4.583,-1.577e-4,1.196,-0.832,0.861,0.215,0.12,NaN,NaN,NaN,NaN,NaN,NaN,NaN,NaN,1.294e-5,165,213.825,84,0,0.084,15,1013.25,340.389,0.01,0.032
0.46,-4.762e-4,-0.095,-9.523,0.096,9.576,-5.005e-5,0,5.005e-5,180,0.01,1.001,22.175,120.893,9.788,136.088,0,0,0,2.8e4,1.35e4,19.961,0.106,NaN,2019.917,NaN,3.546e-4,2.367e4,4.429,-1.572e-4,1.196,-0.824,0.86,0.215,0.12,NaN,NaN,NaN,NaN,NaN,NaN,NaN,NaN,1.294e-5,165,213.825,84,0,0.084,15,1013.25,340.389,0.01,0.032
0.47,-4.761e-4,-0.095,-9.523,0.096,9.575,-5.004e-5,0,5.004e-5,180,0.01,1.001,22.175,120.893,9.788,135.859,0,0,0,2.8e4,1.35e4,19.961,0.106,NaN,2019.915,NaN,3.557e-4,2.375e4,4.45,-1.564e-4,1.195,-0.815,0.86,0.215,0.12,NaN,NaN,NaN,NaN,NaN,NaN,NaN,NaN,1.294e-5,165,213.825,84,0,0.085,15,1013.25,340.389,0.01,0.032
0.48,-4.753e-4,-0.095,-9.507,0.096,9.559,-4.996e-5,0,4.996e-5,180,0.01,0.999,22.175,120.893,9.788,135.58,0,0,0,2.8e4,1.35e4,19.961,0.106,NaN,2019.914,NaN,3.565e-4,2.38e4,4.905,-1.55e-4,1.194,-0.804,0.859,0.215,0.12,NaN,NaN,NaN,NaN,NaN,NaN,NaN,NaN,1.292e-5,165,213.825,84,0,0.085,15,1013.25,340.389,0.01,0.032
0.49,-4.756e-4,-0.095,-9.512,0.096,9.565,-4.999e-5,0,4.999e-5,180,0.01,1,22.175,120.893,9.788,135.375,0,0,0,2.8e4,1.35e4,19.961,0.106,NaN,2019.912,NaN,3.577e-4,2.388e4,4.746,-1.544e-4,1.193,-0.795,0.858,0.215,0.12,NaN,NaN,NaN,NaN,NaN,NaN,NaN,NaN,1.293e-5,165,213.825,84,0,0.086,15,1013.25,340.389,0.01,0.033
0.5,-4.761e-4,-0.095,-9.522,0.096,9.574,-5.004e-5,0,5.004e-5,180,0.01,1.001,22.175,120.893,9.788,135.185,0,0,0,2.8e4,1.35e4,19.961,0.106,NaN,2019.91,NaN,3.59e-4,2.397e4,4.47,-1.541e-4,1.192,-0.788,0.857,0.215,0.12,NaN,NaN,NaN,NaN,NaN,NaN,NaN,NaN,1.294e-5,165,213.825,84,0,0.087,15,1013.25,340.389,0.01,0.033
0.51,-4.758e-4,-0.095,-9.515,0.096,9.568,-5.001e-5,0,5.001e-5,180,0.01,1,22.175,120.893,9.788,135.677,0,0,0,2.8e4,1.35e4,19.961,0.106,NaN,2019.908,NaN,3.563e-4,2.379e4,4.657,-1.555e-4,1.194,-0.807,0.859,0.215,0.12,NaN,NaN,NaN,NaN,NaN,NaN,NaN,NaN,1.293e-5,165,213.825,84,0,0.085,15,1013.25,340.389,0.01,0.033
0.52,-4.75e-4,-0.095,-9.499,0.096,9.551,-4.992e-5,0,4.992e-5,180,0.01,0.998,22.175,120.893,9.788,136.145,0,0,0,2.8e4,1.35e4,19.961,0.106,NaN,2019.906,NaN,3.534e-4,2.359e4,5.115,-1.567e-4,1.196,-0.826,0.861,0.215,0.12,NaN,NaN,NaN,NaN,NaN,NaN,NaN,NaN,1.291e-5,165,213.825,84,0,0.084,15,1013.25,340.389,0.01,0.033
0.53,-4.746e-4,-0.095,-9.491,0.095,9.543,-4.988e-5,0,4.988e-5,180,0.01,0.998,22.175,120.893,9.788,136.648,0,0,0,2.8e4,1.35e4,19.961,0.106,NaN,2019.904,NaN,3.508e-4,2.342e4,5.339,-1.581e-4,1.198,-0.847,0.863,0.215,0.12,NaN,NaN,NaN,NaN,NaN,NaN,NaN,NaN,1.29e-5,165,213.825,84,0,0.082,15,1013.25,340.389,0.01,0.034
0.54,-4.758e-4,-0.095,-9.516,0.096,9.568,-5.001e-5,0,5.001e-5,180,0.01,1,22.175,120.893,9.788,137.267,0,0,0,2.8e4,1.35e4,19.961,0.106,NaN,2019.903,NaN,3.488e-4,2.329e4,4.638,-1.609e-4,1.2,-0.871,0.865,0.215,0.12,NaN,NaN,NaN,NaN,NaN,NaN,NaN,NaN,1.293e-5,165,213.825,84,0,0.081,15,1013.25,340.389,0.01,0.034
0.55,-4.755e-4,-0.095,-9.509,0.096,9.562,-4.997e-5,0,4.997e-5,180,0.01,0.999,22.175,120.893,9.788,137.79,0,0,0,2.8e4,1.35e4,19.961,0.106,NaN,2019.901,NaN,3.462e-4,2.311e4,4.82,-1.624e-4,1.202,-0.893,0.867,0.215,0.12,NaN,NaN,NaN,NaN,NaN,NaN,NaN,NaN,1.293e-5,165,213.825,84,0,0.08,15,1013.25,340.389,0.01,0.034
0.56,-4.749e-4,-0.095,-9.498,0.096,9.55,-4.991e-5,0,4.991e-5,180,0.01,0.998,22.175,120.893,9.788,137.562,0,0,0,2.8e4,1.35e4,19.961,0.106,NaN,2019.899,NaN,3.468e-4,2.315e4,5.14,-1.613e-4,1.202,-0.884,0.867,0.215,0.12,NaN,NaN,NaN,NaN,NaN,NaN,NaN,NaN,1.291e-5,165,213.825,84,0,0.08,15,1013.25,340.389,0.01,0.034
0.57,-4.749e-4,-0.095,-9.497,0.095,9.55,-4.991e-5,0,4.991e-5,180,0.01,0.998,22.175,120.893,9.788,137.37,0,0,0,2.8e4,1.35e4,19.961,0.106,NaN,2019.897,NaN,3.477e-4,2.321e4,5.164,-1.607e-4,1.201,-0.876,0.866,0.215,0.12,NaN,NaN,NaN,NaN,NaN,NaN,NaN,NaN,1.291e-5,165,213.825,84,0,0.081,15,1013.25,340.389,0.01,0.035
0.58,-4.749e-4,-0.095,-9.499,0.096,9.551,-4.992e-5,0,4.992e-5,180,0.01,0.998,22.175,120.893,9.788,137.186,0,0,0,2.8e4,1.35e4,19.961,0.106,NaN,2019.895,NaN,3.486e-4,2.327e4,5.125,-1.601e-4,1.2,-0.868,0.865,0.215,0.12,NaN,NaN,NaN,NaN,NaN,NaN,NaN,NaN,1.291e-5,165,213.825,84,0,0.081,15,1013.25,340.389,0.01,0.035
0.59,-4.746e-4,-0.095,-9.493,0.095,9.545,-4.989e-5,0,4.989e-5,180,0.01,0.998,22.175,120.893,9.788,136.979,0,0,0,2.8e4,1.35e4,19.961,0.106,NaN,2019.893,NaN,3.493e-4,2.332e4,5.296,-1.592e-4,1.2,-0.86,0.865,0.215,0.12,NaN,NaN,NaN,NaN,NaN,NaN,NaN,NaN,1.29e-5,165,213.825,84,0,0.082,15,1013.25,340.389,0.01,0.035
0.6,-4.741e-4,-0.095,-9.483,0.095,9.535,-4.984e-5,0,4.984e-5,180,0.01,0.997,22.175,120.893,9.788,136.76,0,0,0,2.8e4,1.349e4,19.961,0.106,NaN,2019.891,NaN,3.499e-4,2.336e4,5.567,-1.582e-4,1.199,-0.852,0.864,0.215,0.12,NaN,NaN,NaN,NaN,NaN,NaN,NaN,NaN,1.289e-5,165,213.825,84,0,0.082,15,1013.25,340.389,0.01,0.036
0.61,-4.739e-4,-0.095,-9.478,0.095,9.53,-4.981e-5,0,4.981e-5,180,0.01,0.996,22.175,120.893,9.788,136.964,0,0,0,2.8e4,1.349e4,19.961,0.106,NaN,2019.889,NaN,3.488e-4,2.328e4,5.717,-1.587e-4,1.2,-0.86,0.865,0.215,0.12,NaN,NaN,NaN,NaN,NaN,NaN,NaN,NaN,1.288e-5,165,213.825,84,0,0.081,15,1013.25,340.389,0.01,0.036
0.62,-4.745e-4,-0.095,-9.49,0.095,9.542,-4.987e-5,0,4.987e-5,180,0.01,0.997,22.175,120.893,9.788,137.228,0,0,0,2.8e4,1.349e4,19.961,0.106,NaN,2019.887,NaN,3.481e-4,2.323e4,5.366,-1.6e-4,1.201,-0.87,0.866,0.215,0.12,NaN,NaN,NaN,NaN,NaN,NaN,NaN,NaN,1.29e-5,165,213.825,84,0,0.081,15,1013.25,340.389,0.01,0.036
0.63,-4.737e-4,-0.095,-9.473,0.095,9.525,-4.978e-5,0,4.978e-5,180,0.01,0.996,22.175,120.893,9.788,137.396,0,0,0,2.799e4,1.349e4,19.961,0.106,NaN,2019.884,NaN,3.467e-4,2.314e4,5.844,-1.6e-4,1.202,-0.877,0.867,0.215,0.12,NaN,NaN,NaN,NaN,NaN,NaN,NaN,NaN,1.288e-5,165,213.825,84,0,0.08,15,1013.25,340.389,0.01,0.037
0.64,-4.738e-4,-0.095,-9.475,0.095,9.527,-4.979e-5,0,4.979e-5,180,0.01,0.996,22.175,120.893,9.788,137.628,0,0,0,2.799e4,1.349e4,19.961,0.106,NaN,2019.882,NaN,3.457e-4,2.308e4,5.786,-1.608e-4,1.202,-0.887,0.867,0.215,0.12,NaN,NaN,NaN,NaN,NaN,NaN,NaN,NaN,1.288e-5,165,213.825,84,0,0.08,15,1013.25,340.389,0.01,0.037
0.65,-4.734e-4,-0.095,-9.469,0.095,9.521,-4.976e-5,0,4.976e-5,180,0.01,0.995,22.175,120.893,9.788,137.833,0,0,0,2.799e4,1.349e4,19.961,0.106,NaN,2019.88,NaN,3.446e-4,2.3e4,5.968,-1.613e-4,1.203,-0.895,0.868,0.215,0.12,NaN,NaN,NaN,NaN,NaN,NaN,NaN,NaN,1.287e-5,165,213.825,84,0,0.079,15,1013.25,340.389,0.01,0.037
0.66,-4.724e-4,-0.094,-9.448,0.095,9.5,-4.965e-5,0,4.965e-5,180,0.01,0.993,22.175,120.893,9.788,137.647,0,0,0,2.799e4,1.349e4,19.961,0.106,NaN,2019.877,NaN,3.446e-4,2.301e4,6.551,-1.601e-4,1.203,-0.888,0.868,0.215,0.12,NaN,NaN,NaN,NaN,NaN,NaN,NaN,NaN,1.284e-5,165,213.825,84,0,0.079,15,1013.25,340.389,0.01,0.038
0.67,-4.721e-4,-0.094,-9.442,0.095,9.494,-4.962e-5,0,4.962e-5,180,0.01,0.992,22.175,120.893,9.788,137.51,0,0,0,2.799e4,1.349e4,19.961,0.106,NaN,2019.875,NaN,3.45e-4,2.303e4,6.72,-1.595e-4,1.203,-0.883,0.868,0.215,0.12,NaN,NaN,NaN,NaN,NaN,NaN,NaN,NaN,1.283e-5,165,213.825,84,0,0.08,15,1013.25,340.389,0.01,0.038
0.68,-4.711e-4,-0.094,-9.421,0.095,9.473,-4.951e-5,0,4.951e-5,180,0.01,0.99,22.175,120.893,9.788,137.326,0,0,0,2.799e4,1.349e4,19.961,0.106,NaN,2019.872,NaN,3.451e-4,2.304e4,7.299,-1.583e-4,1.203,-0.876,0.868,0.215,0.12,NaN,NaN,NaN,NaN,NaN,NaN,NaN,NaN,1.281e-5,165,213.825,84,0,0.08,15,1013.25,340.389,0.01,0.038
0.69,-4.708e-4,-0.094,-9.415,0.095,9.467,-4.948e-5,0,4.948e-5,180,0.01,0.99,22.175,120.893,9.788,137.189,0,0,0,2.799e4,1.349e4,19.961,0.106,NaN,2019.869,NaN,3.455e-4,2.306e4,7.467,-1.576e-4,1.203,-0.87,0.868,0.215,0.12,NaN,NaN,NaN,NaN,NaN,NaN,NaN,NaN,1.28e-5,165,213.825,84,0,0.08,15,1013.25,340.389,0.01,0.039
0.7,-4.699e-4,-0.094,-9.398,0.095,9.45,-4.939e-5,0,4.939e-5,180,0.01,0.988,22.175,120.893,9.788,137.016,0,0,0,2.799e4,1.349e4,19.961,0.106,NaN,2019.866,NaN,3.456e-4,2.307e4,7.951,-1.566e-4,1.203,-0.864,0.867,0.215,0.12,NaN,NaN,NaN,NaN,NaN,NaN,NaN,NaN,1.277e-5,165,213.825,84,0,0.081,15,1013.25,340.389,0.01,0.039
0.71,-4.682e-4,-0.094,-9.363,0.094,9.415,-4.921e-5,0,4.921e-5,180,0.01,0.984,22.175,120.893,9.788,136.229,0,0,0,2.799e4,1.349e4,19.96,0.106,NaN,2019.863,NaN,3.48e-4,2.323e4,8.938,-1.53e-4,1.201,-0.833,0.866,0.215,0.12,NaN,NaN,NaN,NaN,NaN,NaN,NaN,NaN,1.273e-5,165,213.825,84,0,0.082,15,1013.25,340.389,0.01,0.04
0.72,-4.676e-4,-0.094,-9.352,0.094,9.403,-4.915e-5,0,4.915e-5,180,0.01,0.983,22.175,120.893,9.788,135.533,0,0,0,2.799e4,1.349e4,19.96,0.106,NaN,2019.859,NaN,3.509e-4,2.342e4,9.255,-1.504e-4,1.198,-0.805,0.863,0.215,0.12,NaN,NaN,NaN,NaN,NaN,NaN,NaN,NaN,1.271e-5,165,213.825,84,0,0.084,15,1013.25,340.389,0.01,0.04
0.73,-4.659e-4,-0.093,-9.319,0.094,9.37,-4.897e-5,0,4.897e-5,180,0.01,0.979,22.175,120.893,9.788,134.775,0,0,0,2.799e4,1.349e4,19.96,0.106,NaN,2019.855,NaN,3.534e-4,2.359e4,10.185,-1.469e-4,1.196,-0.775,0.861,0.215,0.12,NaN,NaN,NaN,NaN,NaN,NaN,NaN,NaN,1.267e-5,165,213.825,84,0,0.086,15,1013.25,340.389,0.01,0.04
0.74,-4.64e-4,-0.093,-9.28,0.093,9.331,-4.877e-5,0,4.877e-5,180,0.01,0.975,22.175,120.893,9.788,134.008,0,0,0,2.799e4,1.349e4,19.96,0.106,NaN,2019.851,NaN,3.559e-4,2.376e4,11.275,-1.433e-4,1.195,-0.746,0.86,0.215,0.12,NaN,NaN,NaN,NaN,NaN,NaN,NaN,NaN,1.261e-5,165,213.825,84,0,0.088,15,1013.25,340.389,0.01,0.04
0.75,-4.621e-4,-0.092,-9.243,0.093,9.294,-4.857e-5,0,4.857e-5,180,0.01,0.971,22.175,120.893,9.788,133.257,0,0,0,2.799e4,1.349e4,19.96,0.106,NaN,2019.846,NaN,3.584e-4,2.393e4,12.322,-1.397e-4,1.193,-0.717,0.858,0.215,0.12,NaN,NaN,NaN,NaN,NaN,NaN,NaN,NaN,1.256e-5,165,213.825,84,0,0.089,15,1013.25,340.389,0.01,0.041
0.76,-4.598e-4,-0.092,-9.195,0.092,9.246,-4.832e-5,0,4.832e-5,180,0.01,0.966,22.175,120.893,9.788,132.975,0,0,0,2.799e4,1.349e4,19.96,0.106,NaN,2019.841,NaN,3.581e-4,2.39e4,13.663,-1.375e-4,1.193,-0.707,0.858,0.215,0.12,NaN,NaN,NaN,NaN,NaN,NaN,NaN,NaN,1.25e-5,165,213.825,84,0,0.09,15,1013.25,340.389,0.01,0.041
0.77,-4.586e-4,-0.092,-9.173,0.092,9.223,-4.82e-5,0,4.82e-5,180,0.01,0.964,22.175,120.893,9.788,132.78,0,0,0,2.799e4,1.349e4,19.96,0.106,NaN,2019.836,NaN,3.583e-4,2.392e4,14.302,-1.363e-4,1.193,-0.7,0.858,0.215,0.12,NaN,NaN,NaN,NaN,NaN,NaN,NaN,NaN,1.247e-5,165,213.825,84,0,0.09,15,1013.25,340.389,0.01,0.041
0.78,-4.56e-4,-0.091,-9.12,0.092,9.171,-4.793e-5,0,4.793e-5,180,0.01,0.959,22.175,120.893,9.788,132.482,0,0,0,2.799e4,1.349e4,19.96,0.106,NaN,2019.83,NaN,3.579e-4,2.389e4,15.77,-1.339e-4,1.193,-0.689,0.858,0.215,0.12,NaN,NaN,NaN,NaN,NaN,NaN,NaN,NaN,1.24e-5,165,213.825,84,0,0.09,15,1013.25,340.389,0.01,0.042
0.79,-4.54e-4,-0.091,-9.079,0.091,9.129,-4.771e-5,0,4.771e-5,180,0.01,0.954,22.175,120.893,9.788,132.222,0,0,0,2.799e4,1.349e4,19.96,0.106,NaN,2019.823,NaN,3.577e-4,2.388e4,16.927,-1.32e-4,1.193,-0.68,0.858,0.215,0.12,NaN,NaN,NaN,NaN,NaN,NaN,NaN,NaN,1.234e-5,165,213.825,84,0,0.091,15,1013.25,340.389,0.01,0.043
0.8,-4.518e-4,-0.09,-9.037,0.091,9.087,-4.749e-5,0,4.749e-5,180,0.009,0.95,22.175,120.893,9.788,131.958,0,0,0,2.799e4,1.349e4,19.96,0.106,NaN,2019.816,NaN,3.575e-4,2.386e4,18.121,-1.3e-4,1.193,-0.67,0.858,0.215,0.12,NaN,NaN,NaN,NaN,NaN,NaN,NaN,NaN,1.228e-5,165,213.825,84,0,0.091,15,1013.25,340.389,0.01,0.043
0.81,-4.495e-4,-0.09,-8.99,0.09,9.04,-4.725e-5,0,4.725e-5,180,0.009,0.945,22.175,120.893,9.788,131.699,0,0,0,2.799e4,1.349e4,19.96,0.106,NaN,2019.809,NaN,3.571e-4,2.384e4,19.438,-1.28e-4,1.194,-0.661,0.859,0.215,0.12,NaN,NaN,NaN,NaN,NaN,NaN,NaN,NaN,1.222e-5,165,213.825,84,0,0.091,15,1013.25,340.389,0.01,0.045
0.82,-4.482e-4,-0.09,-8.965,0.09,9.014,-4.711e-5,0,4.711e-5,180,0.009,0.942,22.175,120.893,9.788,131.516,0,0,0,2.799e4,1.349e4,19.959,0.106,NaN,2019.801,NaN,3.571e-4,2.384e4,20.155,-1.267e-4,1.194,-0.655,0.859,0.215,0.12,NaN,NaN,NaN,NaN,NaN,NaN,NaN,NaN,1.218e-5,165,213.825,84,0,0.092,15,1013.25,340.389,0.01,0.045
0.83,-4.434e-4,-0.089,-8.867,0.089,8.916,-4.66e-5,0,4.66e-5,180,0.009,0.932,22.175,120.893,9.788,131.075,0,0,0,2.799e4,1.349e4,19.959,0.106,NaN,2019.793,NaN,3.558e-4,2.375e4,22.899,-1.228e-4,1.195,-0.64,0.86,0.215,0.12,NaN,NaN,NaN,NaN,NaN,NaN,NaN,NaN,1.205e-5,165,213.825,84,0,0.092,15,1013.25,340.389,0.01,0.046
0.84,-4.345e-4,-0.087,-8.69,0.087,8.738,-4.567e-5,0,4.567e-5,180,0.009,0.913,22.175,120.893,9.788,130.341,0,0,0,2.799e4,1.349e4,19.959,0.106,NaN,2019.782,NaN,3.529e-4,2.356e4,27.886,-1.162e-4,1.197,-0.615,0.862,0.215,0.12,NaN,NaN,NaN,NaN,NaN,NaN,NaN,NaN,1.181e-5,165,213.825,84,0,0.092,15,1013.25,340.389,0.01,0.046
0.85,-4.271e-4,-0.085,-8.542,0.086,8.589,-4.489e-5,0,4.489e-5,180,0.009,0.898,22.175,120.893,9.788,129.706,0,0,0,2.799e4,1.349e4,19.959,0.106,NaN,2019.77,NaN,3.506e-4,2.341e4,32.036,-1.108e-4,1.199,-0.594,0.864,0.215,0.12,NaN,NaN,NaN,NaN,NaN,NaN,NaN,NaN,1.161e-5,165,213.825,84,0,0.092,15,1013.25,340.389,0.01,0.046
0.86,-4.194e-4,-0.084,-8.388,0.084,8.434,-4.408e-5,0,4.408e-5,180,0.009,0.882,22.175,120.893,9.788,129.27,0,0,0,2.799e4,1.349e4,19.959,0.106,NaN,2019.756,NaN,3.469e-4,2.315e4,36.392,-1.059e-4,1.202,-0.58,0.866,0.215,0.12,NaN,NaN,NaN,NaN,NaN,NaN,NaN,NaN,1.14e-5,165,213.825,84,0,0.092,15,1013.25,340.389,0.01,0.047
0.87,-4.119e-4,-0.082,-8.239,0.083,8.284,-4.33e-5,0,4.33e-5,180,0.009,0.866,22.175,120.893,9.788,128.847,0,0,0,2.799e4,1.349e4,19.958,0.106,NaN,2019.74,NaN,3.432e-4,2.291e4,40.581,-1.014e-4,1.204,-0.567,0.869,0.215,0.12,NaN,NaN,NaN,NaN,NaN,NaN,NaN,NaN,1.12e-5,165,213.825,84,0,0.091,15,1013.25,340.389,0.01,0.047
0.88,-4.047e-4,-0.081,-8.093,0.081,8.138,-4.253e-5,0,4.253e-5,180,0.009,0.851,22.175,120.893,9.788,128.427,0,0,0,2.799e4,1.349e4,19.958,0.106,NaN,2019.723,NaN,3.397e-4,2.267e4,44.682,-9.702e-5,1.207,-0.554,0.872,0.215,0.12,NaN,NaN,NaN,NaN,NaN,NaN,NaN,NaN,1.1e-5,165,213.825,84,0,0.091,15,1013.25,340.389,0.01,0.047
0.89,-3.982e-4,-0.08,-7.965,0.08,8.008,-4.186e-5,0,4.186e-5,180,0.008,0.837,22.175,120.893,9.788,128.067,0,0,0,2.799e4,1.349e4,19.958,0.106,NaN,2019.705,NaN,3.364e-4,2.246e4,48.294,-9.33e-5,1.21,-0.543,0.875,0.215,0.12,NaN,NaN,NaN,NaN,NaN,NaN,NaN,NaN,1.083e-5,165,213.825,84,0,0.091,15,1013.25,340.389,0.01,0.048
0.9,-3.921e-4,-0.078,-7.842,0.079,7.885,-4.121e-5,0,4.121e-5,180,0.008,0.824,22.175,120.893,9.788,127.722,0,0,0,2.799e4,1.349e4,19.957,0.106,NaN,2019.685,NaN,3.333e-4,2.225e4,51.752,-8.983e-5,1.213,-0.533,0.878,0.215,0.12,NaN,NaN,NaN,NaN,NaN,NaN,NaN,NaN,1.066e-5,165,213.825,84,0,0.09,15,1013.25,340.389,0.01,0.048
0.91,-3.84e-4,-0.077,-7.679,0.077,7.722,-4.036e-5,0,4.036e-5,180,0.008,0.807,22.175,120.893,9.788,127.195,0,0,0,2.798e4,1.348e4,19.957,0.106,NaN,2019.664,NaN,3.296e-4,2.2e4,56.319,-8.517e-5,1.216,-0.517,0.881,0.215,0.12,NaN,NaN,NaN,NaN,NaN,NaN,NaN,NaN,1.044e-5,165,213.825,84,0,0.09,15,1013.25,340.389,0.01,0.049
0.92,-3.761e-4,-0.075,-7.522,0.076,7.563,-3.953e-5,0,3.953e-5,180,0.008,0.791,22.175,120.893,9.788,126.677,0,0,0,2.798e4,1.348e4,19.957,0.106,NaN,2019.641,NaN,3.26e-4,2.176e4,60.748,-8.078e-5,1.219,-0.501,0.884,0.215,0.12,NaN,NaN,NaN,NaN,NaN,NaN,NaN,NaN,1.022e-5,165,213.825,84,0,0.089,15,1013.25,340.389,0.01,0.049
0.93,-3.643e-4,-0.073,-7.286,0.073,7.326,-3.829e-5,0,3.829e-5,180,0.008,0.766,22.175,120.893,9.788,125.812,0,0,0,2.798e4,1.348e4,19.956,0.106,NaN,2019.615,NaN,3.211e-4,2.143e4,67.387,-7.424e-5,1.223,-0.475,0.888,0.215,0.12,NaN,NaN,NaN,NaN,NaN,NaN,NaN,NaN,9.903e-6,165,213.825,84,0,0.089,15,1013.25,340.389,0.01,0.049
0.94,-3.499e-4,-0.07,-6.999,0.07,7.037,-3.678e-5,0,3.678e-5,180,0.007,0.736,22.175,120.893,9.788,124.698,0,0,0,2.798e4,1.348e4,19.956,0.106,NaN,2019.586,NaN,3.153e-4,2.105e4,75.455,-6.659e-5,1.228,-0.441,0.893,0.215,0.12,NaN,NaN,NaN,NaN,NaN,NaN,NaN,NaN,9.513e-6,165,213.825,84,0,0.089,15,1013.25,340.389,0.01,0.049
0.95,-3.337e-4,-0.067,-6.674,0.067,6.71,-3.507e-5,0,3.507e-5,180,0.007,0.701,22.175,120.893,9.788,123.366,0,0,0,2.798e4,1.348e4,19.955,0.106,NaN,2019.554,NaN,3.091e-4,2.063e4,84.603,-5.839e-5,1.234,-0.403,0.899,0.215,0.12,NaN,NaN,NaN,NaN,NaN,NaN,NaN,NaN,9.071e-6,165,213.825,84,0,0.088,15,1013.25,340.389,0.01,0.05
0.96,-3.135e-4,-0.063,-6.271,0.063,6.305,-3.295e-5,0,3.295e-5,180,0.007,0.659,22.175,120.893,9.788,121.581,0,0,0,2.798e4,1.348e4,19.954,0.106,NaN,2019.517,NaN,3.021e-4,2.016e4,95.934,-4.886e-5,1.241,-0.353,0.906,0.215,0.12,NaN,NaN,NaN,NaN,NaN,NaN,NaN,NaN,8.523e-6,165,213.825,84,0,0.088,15,1013.25,340.389,0.01,0.05
0.97,-2.933e-4,-0.059,-5.865,0.059,5.898,-3.082e-5,0,3.082e-5,180,0.006,0.616,22.175,120.893,9.788,119.7,0,0,0,2.798e4,1.348e4,19.954,0.106,NaN,2019.476,NaN,2.953e-4,1.971e4,107.326,-4.017e-5,1.247,-0.304,0.912,0.215,0.12,NaN,NaN,NaN,NaN,NaN,NaN,NaN,NaN,7.972e-6,165,213.825,84,0,0.088,15,1013.25,340.389,0.01,0.05
0.98,-2.671e-4,-0.053,-5.342,0.054,5.372,-2.808e-5,0,2.808e-5,180,0.006,0.561,22.175,120.893,9.788,117.119,0,0,0,2.797e4,1.347e4,19.953,0.106,NaN,2019.43,NaN,2.873e-4,1.918e4,122.033,-3.024e-5,1.256,-0.241,0.921,0.215,0.12,NaN,NaN,NaN,NaN,NaN,NaN,NaN,NaN,7.261e-6,165,213.825,84,0,0.088,15,1013.25,340.389,0.01,0.05
0.99,-2.333e-4,-0.047,-4.667,0.047,4.692,-2.453e-5,0,2.453e-5,180,0.005,0.49,22.175,120.893,9.788,113.55,0,0,0,2.797e4,1.347e4,19.952,0.106,NaN,2019.376,NaN,2.78e-4,1.856e4,141.022,-1.964e-5,1.266,-0.167,0.931,0.215,0.12,NaN,NaN,NaN,NaN,NaN,NaN,NaN,NaN,6.343e-6,165,213.825,84,0,0.087,15,1013.25,340.389,0.01,0.05
1,-1.839e-4,-0.037,-3.678,0.037,3.699,-1.933e-5,0,1.933e-5,180,0.004,0.387,22.175,120.893,9.788,107.885,0,0,0,2.797e4,1.347e4,19.951,0.106,NaN,2019.312,NaN,2.669e-4,1.782e4,168.795,-8.625e-6,1.278,-0.08,0.943,0.215,0.12,NaN,NaN,NaN,NaN,NaN,NaN,NaN,NaN,5e-6,165,213.825,84,0,0.087,15,1013.25,340.389,0.01,0.051
1.01,-1.138e-4,-0.023,-2.275,0.023,2.288,-1.196e-5,0,1.196e-5,180,0.002,0.239,22.175,120.893,9.788,99.077,0,0,0,2.796e4,1.346e4,19.949,0.106,NaN,2019.232,NaN,2.571e-4,1.716e4,208.221,-1.172e-6,1.29,-0.012,0.955,0.215,0.12,NaN,NaN,NaN,NaN,NaN,NaN,NaN,NaN,3.094e-6,165,213.825,84,0,0.087,15,1013.25,340.389,0.01,0.051
1.02,-4.855e-5,-0.01,-0.97,0.01,0.975,-5.103e-6,0,5.103e-6,180,0.001,0.102,22.175,120.893,9.788,90.455,0,0,0,2.796e4,1.346e4,19.948,0.106,NaN,2019.139,NaN,2.537e-4,1.693e4,244.886,0,1.294,-1.626e-6,0.959,0.215,0.12,NaN,NaN,NaN,NaN,NaN,NaN,NaN,NaN,1.32e-6,165,213.825,84,0,0.087,15,1013.25,340.389,0.01,0.051
1.03,2.205e-5,0.004,0.442,0.004,0.445,2.317e-6,0,2.317e-6,0,4.638e-4,0.046,22.175,120.893,9.788,81.104,0,0,0,2.795e4,1.345e4,19.946,0.106,NaN,2019.03,NaN,2.566e-4,1.713e4,284.538,1.102e-6,1.291,0.011,0.956,0.215,0.12,NaN,NaN,NaN,NaN,NaN,NaN,NaN,NaN,5.998e-7,165,213.825,84,0,0.087,15,1013.25,340.389,0.01,0.051
1.04,1.641e-4,0.024,1.96,0.024,1.971,1.725e-5,0,1.725e-5,0,0.003,0.206,22.175,120.893,9.788,68.942,0,0,0,2.795e4,1.345e4,19.943,0.106,NaN,2018.905,NaN,2.714e-4,1.812e4,327.142,1.392e-5,1.273,0.125,0.938,0.215,0.12,NaN,NaN,NaN,NaN,NaN,NaN,NaN,NaN,3.263e-6,165,213.825,84,0,0.087,15,1013.25,340.389,0.01,0.053
1.05,5.833e-4,0.06,3.585,0.06,3.604,6.13e-5,0,6.13e-5,0,0.006,0.377,22.175,120.893,9.788,51.224,0,0,0,2.794e4,1.344e4,19.941,0.106,NaN,2018.763,NaN,3.247e-4,2.168e4,372.693,9.151e-5,1.22,0.572,0.885,0.215,0.12,NaN,NaN,NaN,NaN,NaN,NaN,NaN,NaN,8.133e-6,165,213.825,84,0,0.087,15,1013.25,340.389,0.01,0.053
1.06,0.001,0.115,5.563,0.116,5.594,1.534e-4,0,1.534e-4,0,0.012,0.585,22.175,120.893,9.788,34.487,0,0,0,2.793e4,1.343e4,19.938,0.106,NaN,2018.599,NaN,4.459e-4,2.977e4,428.171,3.37e-4,1.137,1.117,0.801,0.215,0.12,NaN,NaN,NaN,NaN,NaN,NaN,NaN,NaN,1.569e-5,165,213.825,84,0,0.086,15,1013.25,340.389,0.01,0.054
1.07,0.003,0.191,7.517,0.192,7.558,3.142e-4,0,3.142e-4,0,0.02,0.79,22.175,120.893,9.788,23.135,0,0,0,2.792e4,1.342e4,19.935,0.106,NaN,2018.415,NaN,6.41e-4,4.279e4,482.882,8.227e-4,1.055,1.319,0.72,0.215,0.12,NaN,NaN,NaN,NaN,NaN,NaN,NaN,NaN,2.59e-5,165,213.825,84,0,0.086,15,1013.25,340.389,0.01,0.054
1.08,0.005,0.288,9.758,0.29,9.812,5.658e-4,0,5.658e-4,0,0.03,1.026,22.175,120.893,9.788,15.974,0,0,0,2.791e4,1.341e4,19.931,0.106,NaN,2018.206,NaN,9.128e-4,6.093e4,545.617,0.002,0.987,1.28,0.652,0.215,0.12,NaN,NaN,NaN,NaN,NaN,NaN,NaN,NaN,3.916e-5,165,213.825,84,0,0.086,15,1013.249,340.389,0.01,0.054
1.09,0.009,0.411,12.305,0.413,12.372,9.333e-4,0,9.333e-4,0,0.043,1.293,22.175,120.893,9.788,11.416,0,0,0,2.79e4,1.34e4,19.927,0.106,NaN,2017.969,NaN,0.001,8.45e4,616.859,0.003,0.932,1.141,0.597,0.215,0.12,NaN,NaN,NaN,NaN,NaN,NaN,NaN,NaN,5.588e-5,165,213.825,84,0,0.086,15,1013.249,340.389,0.01,0.054
1.1,0.014,0.563,15.219,0.566,15.303,0.001,0,0.001,0,0.059,1.6,22.175,120.893,9.788,8.411,0,0,0,2.789e4,1.339e4,19.922,0.106,NaN,2017.702,NaN,0.002,1.141e5,698.307,0.005,0.887,1.019,0.552,0.215,0.12,NaN,NaN,NaN,NaN,NaN,NaN,NaN,NaN,7.656e-5,165,213.825,84,0,0.086,15,1013.248,340.389,0.01,0.054
1.11,0.02,0.746,18.289,0.75,18.39,0.002,0,0.002,0,0.078,1.922,22.175,120.893,9.788,6.358,0,0,0,2.788e4,1.338e4,19.917,0.106,NaN,2017.401,NaN,0.002,1.498e5,784.022,0.007,0.851,0.932,0.516,0.215,0.12,NaN,NaN,NaN,NaN,NaN,NaN,NaN,NaN,1.014e-4,165,213.825,84,0,0.085,15,1013.248,340.389,0.01,0.055
1.12,0.029,0.96,21.44,0.966,21.558,0.003,0,0.003,0,0.101,2.253,22.175,120.893,9.788,4.933,0,0,0,2.786e4,1.336e4,19.911,0.106,NaN,2017.066,NaN,0.003,1.918e5,871.849,0.011,0.821,0.872,0.486,0.215,0.12,NaN,NaN,NaN,NaN,NaN,NaN,NaN,NaN,1.305e-4,165,213.825,84,0,0.085,15,1013.247,340.389,0.01,0.055
1.13,0.04,1.207,24.646,1.213,24.781,0.004,0,0.004,0,0.127,2.59,22.175,120.893,9.788,3.914,0,0,0,2.784e4,1.334e4,19.904,0.106,NaN,2016.696,NaN,0.004,2.402e5,961.049,0.016,0.796,0.829,0.461,0.215,0.12,NaN,NaN,NaN,NaN,NaN,NaN,NaN,NaN,1.64e-4,165,213.825,84,0,0.084,15,1013.245,340.389,0.01,0.055
1.14,0.053,1.482,27.565,1.49,27.717,0.006,0,0.006,0,0.156,2.897,22.175,120.893,9.788,3.174,0,0,0,2.782e4,1.332e4,19.897,0.106,NaN,2016.295,NaN,0.004,2.945e5,1042.073,0.024,0.776,0.797,0.44,0.215,0.12,NaN,NaN,NaN,NaN,NaN,NaN,NaN,NaN,2.015e-4,165,213.825,84,0,0.084,15,1013.244,340.389,0.01,0.055
1.15,0.069,1.783,30.094,1.793,30.26,0.007,0,0.007,0,0.187,3.163,22.175,120.893,9.788,2.627,0,0,0,2.78e4,1.33e4,19.889,0.106,NaN,2015.866,NaN,0.005,3.537e5,1112.029,0.033,0.758,0.772,0.423,0.215,0.12,NaN,NaN,NaN,NaN,NaN,NaN,NaN,NaN,2.424e-4,165,213.825,84,0,0.083,15,1013.242,340.389,0.01,0.055
1.16,0.089,2.106,32.29,2.117,32.468,0.009,0,0.009,0,0.221,3.394,22.175,120.893,9.788,2.236,0,0,0,2.778e4,1.328e4,19.881,0.106,NaN,2015.413,NaN,0.006,4.173e5,1172.553,0.045,0.743,0.753,0.408,0.215,0.12,NaN,NaN,NaN,NaN,NaN,NaN,NaN,NaN,2.862e-4,165,213.825,84,0,0.083,14.999,1013.24,340.389,0.01,0.056
1.17,0.112,2.446,34.03,2.459,34.217,0.012,0,0.012,0,0.257,3.577,22.175,120.893,9.788,1.934,0,0,0,2.776e4,1.326e4,19.873,0.105,NaN,2014.941,NaN,0.007,4.843e5,1220.187,0.059,0.73,0.738,0.395,0.215,0.12,NaN,NaN,NaN,NaN,NaN,NaN,NaN,NaN,3.325e-4,165,213.825,84,0,0.084,14.999,1013.237,340.388,0.01,0.056
1.18,0.138,2.799,35.307,2.814,35.501,0.014,0,0.014,0,0.294,3.711,22.175,120.893,9.788,1.698,0,0,0,2.774e4,1.324e4,19.864,0.105,NaN,2014.455,NaN,0.008,5.539e5,1254.818,0.076,0.719,0.725,0.384,0.215,0.12,NaN,NaN,NaN,NaN,NaN,NaN,NaN,NaN,3.804e-4,165,213.825,84,0,0.084,14.999,1013.234,340.388,0.01,0.056
1.19,0.168,3.16,36.109,3.177,36.308,0.018,0,0.018,0,0.332,3.795,22.175,120.893,9.788,1.511,0,0,0,2.771e4,1.321e4,19.855,0.105,NaN,2013.959,NaN,0.009,6.25e5,1276.135,0.095,0.709,0.714,0.374,0.215,0.12,NaN,NaN,NaN,NaN,NaN,NaN,NaN,NaN,4.295e-4,165,213.825,84,0,0.085,14.999,1013.23,340.388,0.01,0.056
1.2,0.201,3.526,36.662,3.546,36.864,0.021,0,0.021,0,0.371,3.853,22.175,120.893,9.788,1.36,0,0,0,2.769e4,1.319e4,19.846,0.105,NaN,2013.458,NaN,0.01,6.973e5,1290.479,0.117,0.701,0.705,0.366,0.215,0.12,NaN,NaN,NaN,NaN,NaN,NaN,NaN,NaN,4.793e-4,165,213.825,84,0,0.085,14.999,1013.226,340.388,0.01,0.056
1.21,0.238,3.896,36.969,3.917,37.172,0.025,0,0.025,0,0.409,3.886,22.175,120.893,9.788,1.21,0,0,0,2.767e4,1.317e4,19.837,0.105,NaN,2012.952,NaN,0.012,7.701e5,1297.933,0.141,0.694,0.697,0.358,0.215,0.12,NaN,NaN,NaN,NaN,NaN,NaN,NaN,NaN,5.295e-4,165,213.825,84,0,0.083,14.998,1013.222,340.388,0.01,0.057
1.22,0.279,4.266,37.028,4.289,37.232,0.029,0,0.029,0,0.448,3.892,22.175,120.893,9.788,1.085,0,0,0,2.764e4,1.314e4,19.828,0.105,NaN,2012.446,NaN,0.013,8.43e5,1298.512,0.167,0.687,0.689,0.352,0.215,0.12,NaN,NaN,NaN,NaN,NaN,NaN,NaN,NaN,5.798e-4,165,213.825,84,0,0.082,14.998,1013.217,340.388,0.01,0.057
1.23,0.324,4.636,37.072,4.662,37.276,0.034,0,0.034,0,0.487,3.896,22.175,120.893,9.788,0.98,0,0,0,2.762e4,1.312e4,19.819,0.105,NaN,2011.938,NaN,0.014,9.16e5,1298.633,0.195,0.681,0.683,0.346,0.215,0.12,NaN,NaN,NaN,NaN,NaN,NaN,NaN,NaN,6.302e-4,165,213.825,84,0,0.08,14.998,1013.212,340.388,0.01,0.058
1.24,0.372,5.006,36.978,5.033,37.182,0.039,0,0.039,0,0.526,3.887,22.175,120.893,9.788,0.89,0,0,0,2.76e4,1.31e4,19.81,0.105,NaN,2011.431,NaN,0.015,9.888e5,1294.965,0.226,0.676,0.678,0.341,0.215,0.12,NaN,NaN,NaN,NaN,NaN,NaN,NaN,NaN,6.804e-4,165,213.825,84,0,0.079,14.998,1013.206,340.387,0.01,0.058
1.25,0.424,5.375,36.893,5.404,37.096,0.045,0,0.045,0,0.565,3.878,22.175,120.893,9.788,0.814,0,0,0,2.757e4,1.307e4,19.801,0.105,NaN,2010.925,NaN,0.016,1.062e6,1291.53,0.258,0.671,0.673,0.336,0.215,0.12,NaN,NaN,NaN,NaN,NaN,NaN,NaN,NaN,7.305e-4,165,213.825,84,0,0.077,14.997,1013.2,340.387,0.01,0.058
1.26,0.479,5.742,36.806,5.774,37.008,0.05,0,0.05,0,0.604,3.868,22.175,120.893,9.788,0.774,0,0,0,2.755e4,1.305e4,19.792,0.105,NaN,2010.419,NaN,0.017,1.134e6,1288.052,0.293,0.667,0.668,0.332,0.215,0.12,NaN,NaN,NaN,NaN,NaN,NaN,NaN,NaN,7.805e-4,165,213.825,84,0,0.079,14.997,1013.194,340.387,0.01,0.058
1.27,0.538,6.109,36.694,6.143,36.896,0.057,0,0.057,0,0.642,3.857,22.175,120.893,9.788,0.739,0,0,0,2.753e4,1.303e4,19.783,0.105,NaN,2009.914,NaN,0.018,1.206e6,1283.912,0.329,0.663,0.664,0.328,0.215,0.12,NaN,NaN,NaN,NaN,NaN,NaN,NaN,NaN,8.304e-4,165,213.825,84,0,0.08,14.996,1013.187,340.387,0.01,0.058
1.28,0.601,6.476,36.662,6.511,36.864,0.063,0,0.063,0,0.681,3.853,22.175,120.893,9.788,0.708,0,0,0,2.75e4,1.3e4,19.774,0.105,NaN,2009.409,NaN,0.019,1.279e6,1281.967,0.368,0.659,0.66,0.324,0.215,0.12,NaN,NaN,NaN,NaN,NaN,NaN,NaN,NaN,8.802e-4,165,213.825,84,0,0.081,14.996,1013.179,340.387,0.01,0.059
1.29,0.668,6.841,36.579,6.879,36.781,0.07,0,0.07,0,0.719,3.845,22.175,120.893,9.788,0.681,0,0,0,2.748e4,1.298e4,19.765,0.105,NaN,2008.904,NaN,0.02,1.351e6,1278.651,0.408,0.656,0.657,0.321,0.215,0.12,NaN,NaN,NaN,NaN,NaN,NaN,NaN,NaN,9.299e-4,165,213.825,84,0,0.082,14.996,1013.172,340.386,0.01,0.059
1.3,0.738,7.206,36.539,7.246,36.74,0.078,0,0.078,0,0.757,3.84,22.175,120.893,9.788,0.656,0,0,0,2.746e4,1.296e4,19.756,0.105,NaN,2008.399,NaN,0.021,1.423e6,1276.485,0.451,0.653,0.654,0.318,0.215,0.12,NaN,NaN,NaN,NaN,NaN,NaN,NaN,NaN,9.795e-4,165,213.825,84,0,0.084,14.995,1013.163,340.386,0.01,0.059
1.31,0.812,7.572,36.534,7.613,36.735,0.085,0,0.085,0,0.796,3.84,22.175,120.893,9.788,0.627,0,0,0,2.743e4,1.293e4,19.747,0.105,NaN,2007.894,NaN,0.022,1.495e6,1275.318,0.495,0.65,0.651,0.315,0.215,0.12,NaN,NaN,NaN,NaN,NaN,NaN,NaN,NaN,0.001,165,213.825,84,0,0.084,14.995,1013.155,340.386,0.01,0.059
1.32,0.89,7.936,36.506,7.98,36.707,0.094,0,0.094,0,0.834,3.837,22.175,120.893,9.788,0.6,0,0,0,2.741e4,1.291e4,19.738,0.105,NaN,2007.388,NaN,0.023,1.567e6,1273.528,0.541,0.647,0.648,0.312,0.215,0.12,NaN,NaN,NaN,NaN,NaN,NaN,NaN,NaN,0.001,165,213.825,84,0,0.084,14.994,1013.146,340.385,0.01,0.06
1.33,0.971,8.302,36.557,8.348,36.758,0.102,0,0.102,0,0.873,3.842,22.175,120.893,9.788,0.576,0,0,0,2.739e4,1.289e4,19.729,0.105,NaN,2006.882,NaN,0.025,1.639e6,1273.891,0.59,0.644,0.645,0.309,0.215,0.12,NaN,NaN,NaN,NaN,NaN,NaN,NaN,NaN,0.001,165,213.825,84,0,0.084,14.994,1013.136,340.385,0.01,0.06
1.34,1.056,8.667,36.534,8.715,36.735,0.111,0,0.111,0,0.911,3.84,22.175,120.893,9.788,0.554,0,0,0,2.736e4,1.286e4,19.72,0.105,NaN,2006.376,NaN,0.026,1.711e6,1272.247,0.64,0.642,0.642,0.307,0.215,0.12,NaN,NaN,NaN,NaN,NaN,NaN,NaN,NaN,0.001,165,213.825,84,0,0.085,14.993,1013.126,340.385,0.01,0.06
1.35,1.144,9.032,36.545,9.082,36.746,0.12,0,0.12,0,0.949,3.841,22.175,120.893,9.788,0.533,0,0,0,2.734e4,1.284e4,19.711,0.105,NaN,2005.868,NaN,0.027,1.783e6,1271.517,0.693,0.639,0.64,0.304,0.215,0.12,NaN,NaN,NaN,NaN,NaN,NaN,NaN,NaN,0.001,165,213.825,84,0,0.085,14.993,1013.116,340.384,0.01,0.06
1.36,1.236,9.398,36.583,9.45,36.784,0.13,0,0.13,0,0.988,3.845,22.175,120.893,9.788,0.513,0,0,0,2.732e4,1.282e4,19.702,0.105,NaN,2005.361,NaN,0.028,1.855e6,1271.539,0.747,0.637,0.638,0.302,0.215,0.12,NaN,NaN,NaN,NaN,NaN,NaN,NaN,NaN,0.001,165,213.825,84,0,0.085,14.992,1013.105,340.384,0.01,0.06
1.37,1.332,9.764,36.599,9.817,36.801,0.14,0,0.14,0,1.026,3.847,22.175,120.893,9.788,0.495,0,0,0,2.729e4,1.279e4,19.693,0.105,NaN,2004.852,NaN,0.029,1.927e6,1270.983,0.804,0.635,0.636,0.3,0.215,0.12,NaN,NaN,NaN,NaN,NaN,NaN,NaN,NaN,0.001,165,213.825,84,0,0.085,14.991,1013.094,340.384,0.01,0.061
1.38,1.432,10.131,36.716,10.186,36.919,0.15,0,0.15,0,1.065,3.859,22.175,120.893,9.788,0.478,0,0,0,2.727e4,1.277e4,19.684,0.105,NaN,2004.342,NaN,0.03,1.999e6,1273.167,0.862,0.633,0.634,0.298,0.215,0.12,NaN,NaN,NaN,NaN,NaN,NaN,NaN,NaN,0.001,165,213.825,84,0,0.085,14.991,1013.082,340.383,0.01,0.061
1.39,1.535,10.498,36.758,10.556,36.96,0.161,0,0.161,0,1.103,3.863,22.175,120.893,9.788,0.462,0,0,0,2.725e4,1.275e4,19.675,0.105,NaN,2003.83,NaN,0.031,2.072e6,1273.278,0.923,0.631,0.632,0.296,0.215,0.12,NaN,NaN,NaN,NaN,NaN,NaN,NaN,NaN,0.001,165,213.825,84,0,0.086,14.99,1013.07,340.383,0.01,0.061
1.4,1.642,10.866,36.845,10.926,37.048,0.173,0,0.173,0,1.142,3.873,22.175,120.893,9.788,0.447,0,0,0,2.723e4,1.273e4,19.666,0.105,NaN,2003.318,NaN,0.032,2.144e6,1274.663,0.986,0.629,0.63,0.294,0.215,0.12,NaN,NaN,NaN,NaN,NaN,NaN,NaN,NaN,0.001,165,213.825,84,0,0.086,14.989,1013.057,340.382,0.01,0.061
1.41,1.752,11.236,36.953,11.298,37.157,0.184,0,0.184,0,1.181,3.884,22.175,120.893,9.788,0.429,0,0,0,2.72e4,1.27e4,19.657,0.105,NaN,2002.803,NaN,0.033,2.217e6,1276.588,1.051,0.627,0.628,0.292,0.215,0.12,NaN,NaN,NaN,NaN,NaN,NaN,NaN,NaN,0.002,165,213.825,84,0,0.085,14.989,1013.045,340.382,0.01,0.061
1.42,1.866,11.606,37.022,11.67,37.226,0.196,0,0.196,0,1.22,3.891,22.175,120.893,9.788,0.413,0,0,0,2.718e4,1.268e4,19.648,0.105,NaN,2002.288,NaN,0.034,2.29e6,1277.444,1.118,0.626,0.626,0.29,0.215,0.12,NaN,NaN,NaN,NaN,NaN,NaN,NaN,NaN,0.002,165,213.825,84,0,0.085,14.988,1013.031,340.382,0.01,0.062
1.43,1.984,11.977,37.158,12.043,37.363,0.209,0,0.209,0,1.259,3.905,22.175,120.893,9.788,0.397,0,0,0,2.716e4,1.266e4,19.639,0.105,NaN,2001.77,NaN,0.035,2.363e6,1280.14,1.188,0.624,0.624,0.289,0.215,0.12,NaN,NaN,NaN,NaN,NaN,NaN,NaN,NaN,0.002,165,213.825,84,0,0.084,14.987,1013.017,340.381,0.01,0.062
1.44,2.106,12.349,37.215,12.417,37.42,0.221,0,0.221,0,1.298,3.911,22.175,120.893,9.788,0.382,0,0,0,2.713e4,1.263e4,19.629,0.105,NaN,2001.252,NaN,0.037,2.437e6,1280.681,1.261,0.623,0.624,0.288,0.215,0.12,NaN,NaN,NaN,NaN,NaN,NaN,NaN,NaN,0.002,165,213.825,84,0,0.083,14.986,1013.003,340.381,0.01,0.062
1.45,2.231,12.722,37.325,12.792,37.531,0.235,0,0.235,0,1.337,3.923,22.175,120.893,9.788,0.369,0,0,0,2.711e4,1.261e4,19.62,0.105,NaN,2000.731,NaN,0.038,2.51e6,1282.653,1.338,0.623,0.624,0.288,0.215,0.12,NaN,NaN,NaN,NaN,NaN,NaN,NaN,NaN,0.002,165,213.825,84,0,0.083,14.985,1012.988,340.38,0.01,0.063
1.46,2.36,13.096,37.444,13.169,37.65,0.248,0,0.248,0,1.376,3.936,22.175,120.893,9.788,0.354,0,0,0,2.709e4,1.259e4,19.611,0.104,NaN,2000.209,NaN,0.039,2.584e6,1284.861,1.418,0.623,0.623,0.288,0.215,0.12,NaN,NaN,NaN,NaN,NaN,NaN,NaN,NaN,0.002,165,213.825,84,0,0.082,14.985,1012.973,340.38,0.01,0.063
1.47,2.493,13.471,37.497,13.545,37.704,0.262,0,0.262,0,1.416,3.941,22.175,120.893,9.788,0.34,0,0,0,2.706e4,1.256e4,19.602,0.104,NaN,1999.686,NaN,0.04,2.658e6,1285.292,1.5,0.623,0.623,0.288,0.215,0.12,NaN,NaN,NaN,NaN,NaN,NaN,NaN,NaN,0.002,165,213.825,84,0,0.081,14.984,1012.958,340.379,0.01,0.063
1.48,2.63,13.847,37.619,13.923,37.827,0.276,0,0.276,0,1.455,3.954,22.175,120.893,9.788,0.326,0,0,0,2.704e4,1.254e4,19.592,0.104,NaN,1999.161,NaN,0.041,2.732e6,1287.587,1.585,0.623,0.623,0.288,0.215,0.12,NaN,NaN,NaN,NaN,NaN,NaN,NaN,NaN,0.002,165,213.825,84,0,0.08,14.983,1012.942,340.379,0.01,0.064
1.49,2.77,14.224,37.666,14.302,37.874,0.291,0,0.291,0,1.495,3.959,22.175,120.893,9.788,0.314,0,0,0,2.702e4,1.252e4,19.583,0.104,NaN,1998.635,NaN,0.042,2.806e6,1287.832,1.672,0.623,0.623,0.288,0.215,0.12,NaN,NaN,NaN,NaN,NaN,NaN,NaN,NaN,0.002,165,213.825,84,0,0.079,14.982,1012.925,340.378,0.01,0.064
1.5,2.914,14.601,37.737,14.681,37.945,0.306,0,0.306,0,1.535,3.966,22.175,120.893,9.788,0.302,0,0,0,2.699e4,1.249e4,19.574,0.104,NaN,1998.108,NaN,0.043,2.88e6,1288.735,1.762,0.623,0.624,0.288,0.215,0.12,NaN,NaN,NaN,NaN,NaN,NaN,NaN,NaN,0.002,165,213.825,84,0,0.078,14.981,1012.908,340.377,0.01,0.065
1.51,3.062,14.979,37.82,15.061,38.028,0.322,0,0.322,0,1.574,3.975,22.175,120.893,9.788,0.295,0,0,0,2.697e4,1.247e4,19.564,0.104,NaN,1997.579,NaN,0.044,2.955e6,1289.948,1.854,0.623,0.624,0.288,0.215,0.12,NaN,NaN,NaN,NaN,NaN,NaN,NaN,NaN,0.002,165,213.825,84,0,0.078,14.98,1012.891,340.377,0.01,0.066
1.52,3.214,15.357,37.837,15.442,38.045,0.338,0,0.338,0,1.614,3.977,22.175,120.893,9.788,0.289,0,0,0,2.695e4,1.244e4,19.555,0.104,NaN,1997.049,NaN,0.045,3.029e6,1289.376,1.949,0.623,0.624,0.288,0.215,0.12,NaN,NaN,NaN,NaN,NaN,NaN,NaN,NaN,0.002,165,213.825,84,0,0.078,14.979,1012.873,340.376,0.01,0.066
1.53,3.369,15.737,37.978,15.823,38.187,0.354,0,0.354,0,1.654,3.992,22.175,120.893,9.788,0.283,0,0,0,2.692e4,1.242e4,19.546,0.104,NaN,1996.518,NaN,0.047,3.104e6,1292.164,2.046,0.623,0.624,0.288,0.215,0.12,NaN,NaN,NaN,NaN,NaN,NaN,NaN,NaN,0.002,165,213.825,84,0,0.079,14.978,1012.855,340.376,0.01,0.066
1.54,3.528,16.117,38.048,16.206,38.258,0.371,0,0.371,0,1.694,3.999,22.175,120.893,9.788,0.277,0,0,0,2.69e4,1.24e4,19.536,0.104,NaN,1995.985,NaN,0.048,3.179e6,1293.051,2.146,0.623,0.624,0.288,0.215,0.12,NaN,NaN,NaN,NaN,NaN,NaN,NaN,NaN,0.002,165,213.825,84,0,0.079,14.977,1012.836,340.375,0.01,0.067
1.55,3.692,16.498,38.154,16.589,38.364,0.388,0,0.388,0,1.734,4.01,22.175,120.893,9.788,0.272,0,0,0,2.687e4,1.237e4,19.527,0.104,NaN,1995.451,NaN,0.049,3.254e6,1294.89,2.249,0.623,0.624,0.288,0.215,0.12,NaN,NaN,NaN,NaN,NaN,NaN,NaN,NaN,0.002,165,213.825,84,0,0.079,14.976,1012.817,340.374,0.01,0.067
1.56,3.858,16.881,38.28,16.974,38.491,0.406,0,0.406,0,1.774,4.023,22.175,120.893,9.788,0.269,0,0,0,2.685e4,1.235e4,19.517,0.104,NaN,1994.914,NaN,0.05,3.33e6,1297.251,2.355,0.623,0.624,0.288,0.215,0.12,NaN,NaN,NaN,NaN,NaN,NaN,NaN,NaN,0.002,165,213.825,84,0,0.08,14.975,1012.797,340.374,0.01,0.068
1.57,4.029,17.264,38.3,17.359,38.511,0.423,0,0.423,0,1.814,4.026,22.175,120.893,9.788,0.267,0,0,0,2.683e4,1.233e4,19.508,0.104,NaN,1994.377,NaN,0.051,3.405e6,1296.778,2.463,0.623,0.624,0.288,0.215,0.12,NaN,NaN,NaN,NaN,NaN,NaN,NaN,NaN,0.002,165,213.825,84,0,0.081,14.974,1012.777,340.373,0.01,0.068
1.585,4.292,17.838,38.322,17.938,38.652,0.451,1.139e-8,0.451,1.446e-6,1.89,5.045,22.175,120.893,9.788,0.312,0,0.003,1.288e-5,2.679e4,1.229e4,19.493,0.104,2269.526,1993.568,1.672,0.053,3.519e6,1298.654,2.63,0.624,0.624,0.288,0.215,0.12,0.058,0.097,-4.74e-4,0,0,0,0,2.561e-8,0.002,165,213.825,84,0,0.083,14.972,1012.747,340.372,0.015,0.069
1.608,4.704,18.704,38.525,18.811,38.856,0.495,7.258e-8,0.495,8.4e-6,2.004,5.063,22.175,120.893,9.788,0.374,0,0.008,2.671e-5,2.674e4,1.224e4,19.472,0.104,2267.866,1992.348,1.67,0.055,3.69e6,1301.804,2.893,0.624,0.624,0.288,0.215,0.12,0.07,0.117,-4.384e-4,0,0,0,0,2.001e-7,0.003,165,213.825,84,-2.082e-6,0.085,14.969,1012.698,340.37,0.023,0.069
1.641,5.357,20.013,38.864,20.131,39.196,0.566,2.694e-7,0.566,2.729e-5,2.176,5.094,22.175,120.893,9.788,0.454,0,0.018,-9.011e-6,2.666e4,1.216e4,19.439,0.104,2265.709,1990.501,1.668,0.059,3.948e6,1307.398,3.314,0.624,0.624,0.288,0.215,0.12,0.085,0.142,1.171e-4,0,0,0,0,9.6e-7,0.003,165,213.825,83.999,-6.284e-6,0.089,14.965,1012.622,340.368,0.034,0.07
1.691,6.406,21.972,39.288,22.106,39.622,0.681,8.121e-7,0.681,6.835e-5,2.432,5.131,22.175,120.893,9.788,0.561,0,0.041,-4.351e-5,2.654e4,1.204e4,19.39,0.104,2262.896,1987.731,1.668,0.065,4.336e6,1313.533,3.998,0.624,0.624,0.288,0.215,0.121,0.105,0.176,7.867e-5,0,0,0,0,3.95e-6,0.003,165,213.825,83.998,-4.115e-6,0.096,14.958,1012.499,340.364,0.05,0.07
1.741,7.555,23.961,39.869,24.111,40.204,0.809,1.684e-6,0.809,1.193e-4,2.691,5.186,22.175,120.893,9.788,0.627,0,0.073,3.272e-5,2.642e4,1.192e4,19.34,0.104,2261.164,1984.915,1.674,0.071,4.728e6,1323.765,4.757,0.624,0.625,0.288,0.216,0.121,0.118,0.198,-4.47e-5,0,0,0,0,1.057e-5,0.003,165,213.825,83.995,-8.298e-6,0.095,14.951,1012.364,340.359,0.05,0.07
1.791,8.803,25.981,40.499,26.148,40.837,0.95,2.917e-6,0.95,1.759e-4,2.953,5.245,22.175,120.893,9.788,0.696,0,0.115,7.369e-5,2.63e4,1.18e4,19.29,0.103,2259.395,1982.048,1.681,0.077,5.127e6,1335.184,5.597,0.624,0.625,0.288,0.216,0.121,0.131,0.221,-2.763e-4,0,0,0,0,2.238e-5,0.004,165,213.825,83.991,-3.238e-5,0.102,14.943,1012.218,340.354,0.05,0.071
1.841,10.154,28.034,41.174,28.218,41.515,1.104,4.537e-6,1.104,2.354e-4,3.218,5.311,22.175,120.893,9.788,0.74,0,0.17,8.066e-5,2.617e4,1.167e4,19.238,0.103,2258.285,1979.127,1.692,0.083,5.532e6,1347.677,6.52,0.624,0.625,0.288,0.216,0.121,0.14,0.236,-3.18e-4,0,0,0,0,4.167e-5,0.004,165,213.825,83.983,-6.438e-5,0.103,14.934,1012.059,340.349,0.05,0.071
1.891,11.608,30.128,41.981,30.329,42.326,1.272,6.57e-6,1.272,2.96e-4,3.487,5.392,22.175,120.893,9.788,0.789,0,0.238,7.797e-5,2.605e4,1.155e4,19.185,0.103,2257.043,1976.143,1.702,0.089,5.945e6,1363.475,7.535,0.624,0.626,0.288,0.216,0.121,0.149,0.254,2.693e-4,0,0,0,0,7.048e-5,0.004,165,213.825,83.973,-1.124e-4,0.114,14.925,1011.889,340.343,0.05,0.072
1.941,13.167,32.255,42.645,32.473,42.993,1.453,9.033e-6,1.453,3.562e-4,3.76,5.462,22.175,120.893,9.788,0.806,0,0.32,1.936e-4,2.593e4,1.143e4,19.132,0.103,2256.662,1973.105,1.719,0.095,6.365e6,1375.364,8.64,0.625,0.626,0.288,0.216,0.121,0.153,0.262,5.708e-5,0,0,0,0,1.118e-4,0.004,165,213.825,83.959,-1.667e-4,0.113,14.914,1011.706,340.337,0.05,0.073
1.991,14.834,34.42,43.396,34.655,43.749,1.648,1.195e-5,1.648,4.153e-4,4.036,5.547,22.175,120.893,9.788,0.809,0,0.417,1.318e-5,2.58e4,1.13e4,19.077,0.103,2256.645,1970.006,1.737,0.102,6.791e6,1389.417,9.842,0.625,0.626,0.288,0.216,0.121,0.153,0.266,3.716e-4,0,0,0,0,1.662e-4,0.005,165,213.825,83.941,-1.984e-4,0.11,14.904,1011.51,340.33,0.05,0.073
2.041,16.61,36.634,44.396,36.888,44.756,1.857,1.533e-5,1.857,4.73e-4,4.319,5.662,22.175,120.893,9.788,0.809,0,0.528,-1.27e-4,2.567e4,1.117e4,19.021,0.102,2256.724,1966.831,1.757,0.108,7.228e6,1409.711,11.153,0.625,0.626,0.288,0.216,0.122,0.153,0.269,2.518e-4,0,0,0,0,2.352e-4,0.005,165,213.825,83.917,-1.95e-4,0.109,14.892,1011.302,340.323,0.05,0.073
2.091,18.498,38.892,45.278,39.164,45.644,2.08,1.921e-5,2.08,5.293e-4,4.606,5.77,22.175,120.893,9.788,0.809,0,0.656,1.765e-4,2.554e4,1.104e4,18.964,0.102,2256.808,1963.584,1.777,0.115,7.673e6,1426.753,12.575,0.625,0.627,0.287,0.216,0.122,0.153,0.272,-2.985e-4,0,0,0,0,3.218e-4,0.005,165,213.825,83.888,-1.465e-4,0.115,14.88,1011.08,340.316,0.05,0.074
2.141,20.5,41.181,45.882,41.471,46.254,2.317,2.365e-5,2.317,5.846e-4,4.898,5.859,22.175,120.893,9.788,0.788,0,0.8,1.572e-4,2.541e4,1.091e4,18.906,0.102,2257.428,1960.282,1.801,0.122,8.123e6,1436.554,14.102,0.626,0.627,0.287,0.216,0.122,0.149,0.268,4.429e-4,0,0,0,0,4.27e-4,0.006,165,213.825,83.852,-1.07e-4,0.113,14.867,1010.846,340.308,0.05,0.074
2.191,22.617,43.504,46.57,43.813,46.951,2.57,2.866e-5,2.57,6.391e-4,5.195,5.966,22.175,120.893,9.788,0.756,0,0.957,1.871e-4,2.528e4,1.078e4,18.847,0.102,2258.368,1956.918,1.827,0.129,8.58e6,1448.404,15.741,0.626,0.627,0.287,0.216,0.122,0.143,0.26,-3.736e-4,0,0,0,0,5.478e-4,0.006,165,213.825,83.808,-7.069e-5,0.107,14.853,1010.597,340.3,0.05,0.074
2.241,24.851,45.863,47.298,46.191,47.689,2.837,3.431e-5,2.837,6.929e-4,5.497,6.09,22.175,120.893,9.788,0.714,0,1.127,1.413e-4,2.515e4,1.065e4,18.787,0.102,2259.571,1953.489,1.855,0.136,9.044e6,1461.178,17.498,0.626,0.627,0.287,0.217,0.122,0.135,0.25,2.072e-4,0,0,0,0,6.839e-4,0.006,165,213.825,83.756,-3.75e-5,0.1,14.838,1010.335,340.291,0.05,0.075
2.291,27.204,48.248,47.805,48.596,48.206,3.12,4.062e-5,3.12,7.461e-4,5.805,6.202,22.175,120.893,9.788,0.662,0,1.307,3.805e-4,2.501e4,1.051e4,18.726,0.101,2261.038,1950.006,1.885,0.143,9.513e6,1468.288,19.368,0.627,0.628,0.287,0.217,0.123,0.125,0.234,-5.758e-5,0,0,0,0,8.302e-4,0.007,165,213.825,83.695,-6.622e-8,0.091,14.823,1010.059,340.282,0.05,0.075
2.341,29.676,50.636,47.884,51.004,48.294,3.418,4.765e-5,3.418,7.988e-4,6.117,6.278,22.175,120.893,9.788,0.615,3.172e-7,1.493,6.441e-4,2.488e4,1.038e4,18.664,0.101,2262.397,1946.495,1.915,0.15,9.983e6,1464.702,21.339,0.627,0.628,0.287,0.217,0.123,0.116,0.22,2.174e-4,0,0,0,0,9.838e-4,0.007,165,213.825,83.625,4.036e-5,0.092,14.807,1009.769,340.272,0.05,0.076
2.391,32.268,53.028,47.936,53.416,48.357,3.731,5.542e-5,3.731,8.51e-4,6.432,6.365,22.175,120.893,9.788,0.556,0,1.684,2.33e-4,2.475e4,1.025e4,18.602,0.101,2264.068,1942.956,1.946,0.157,1.045e7,1460.577,23.409,0.627,0.628,0.287,0.217,0.123,0.105,0.202,1.582e-4,0,0,0,0,0.001,0.007,165,213.825,83.545,1.585e-4,0.089,14.79,1009.466,340.262,0.05,0.076
2.441,34.979,55.424,48.034,55.834,48.468,4.061,6.402e-5,4.061,9.033e-4,6.753,6.471,22.175,120.893,9.788,0.494,-4.199e-7,1.875,-1.92e-4,2.461e4,1.011e4,18.539,0.101,2265.846,1939.385,1.979,0.164,1.092e7,1457.734,25.58,0.628,0.628,0.287,0.217,0.124,0.093,0.183,-2.625e-4,0,0,0,0,0.001,0.008,165,213.825,83.456,3.153e-4,0.09,14.773,1009.148,340.251,0.05,0.077
2.491,37.809,57.805,47.711,58.236,48.158,4.407,7.352e-5,4.407,9.56e-4,7.077,6.543,22.175,120.893,9.788,0.424,0,2.061,-2.049e-4,2.448e4,9982.7,18.477,0.101,2267.846,1935.809,2.012,0.171,1.139e7,1444.705,27.834,0.628,0.629,0.287,0.217,0.124,0.079,0.158,-1.71e-4,0,0,0,0,0.001,0.008,165,213.825,83.358,5.536e-4,0.089,14.754,1008.816,340.24,0.05,0.077
2.541,40.759,60.182,47.652,60.636,48.114,4.769,8.404e-5,4.769,0.001,7.406,6.658,22.175,120.893,9.788,0.354,7.769e-7,2.233,2.51e-4,2.435e4,9851.919,18.414,0.1,2269.866,1932.21,2.046,0.178,1.186e7,1438.362,30.184,0.629,0.629,0.287,0.218,0.124,0.066,0.133,4.208e-4,0,0,0,0,0.002,0.008,165,213.825,83.251,8.291e-4,0.094,14.735,1008.47,340.228,0.05,0.093
2.591,43.827,62.551,47.465,63.028,47.946,5.147,9.574e-5,5.147,0.001,7.741,6.774,22.175,120.893,9.788,0.275,-2.888e-7,2.386,-7.204e-4,2.422e4,9721.977,18.351,0.1,2272.146,1928.595,2.082,0.185,1.232e7,1429.136,32.622,0.629,0.629,0.287,0.218,0.124,0.051,0.105,4.413e-4,0,0,0,0,0.002,0.009,165,213.825,83.135,0.001,0.095,14.715,1008.11,340.216,0.05,0.094
2.641,47.014,64.933,47.738,65.434,48.243,5.543,1.088e-4,5.543,0.001,8.084,6.959,22.175,120.893,9.788,0.19,3.581e-7,2.511,-5.963e-4,2.409e4,9591.843,18.287,0.1,2274.615,1924.936,2.119,0.192,1.279e7,1431.244,35.171,0.63,0.63,0.287,0.218,0.125,0.035,0.073,-9.294e-5,0,0,0,0,0.002,0.009,165,213.825,83.012,0.002,0.093,14.694,1007.736,340.204,0.05,0.094
2.691,50.321,67.324,47.903,67.85,48.433,5.956,1.235e-4,5.956,0.001,8.437,7.141,22.175,120.893,9.788,0.11,-1.364e-6,2.596,-0.002,2.396e4,9461.748,18.222,0.1,2276.968,1921.238,2.156,0.199,1.326e7,1430.823,37.832,0.63,0.63,0.287,0.218,0.125,0.02,0.042,3.486e-4,0,0,0,0,0.002,0.009,165,213.825,82.885,0.002,0.098,14.673,1007.348,340.191,0.05,0.094
2.741,53.747,69.73,48.214,70.283,48.771,6.387,1.4e-4,6.387,0.001,8.799,7.353,22.175,120.893,9.788,0.024,0,2.637,-0.007,2.383e4,9331.363,18.157,0.1,2279.485,1917.492,2.194,0.207,1.373e7,1433.995,40.612,0.631,0.631,0.287,0.219,0.126,0.004,0.008,-2.787e-4,0,0,0,0,0.002,0.01,165,213.825,82.754,0.003,0.097,14.651,1006.946,340.177,0.05,0.095
2.791,57.294,72.16,48.7,72.741,49.289,6.836,1.587e-4,6.836,0.001,9.174,7.595,22.175,120.893,9.788,0.059,4.803e-7,-2.622,-0.003,2.37e4,9200.305,18.091,0.099,2278.681,1913.685,2.212,0.214,1.421e7,1441.415,43.526,0.631,0.631,0.287,0.219,0.126,0.011,0.026,2.584e-4,0,0,0,0,-0.001,0.01,165,213.825,82.622,0.003,0.095,14.628,1006.53,340.163,0.05,0.095
2.841,60.964,74.612,49.124,75.222,49.745,7.304,1.797e-4,7.304,0.001,9.56,7.832,22.175,120.893,9.788,0.134,0,-2.545,-4.167e-4,2.357e4,9068.707,18.023,0.099,2276.769,1909.819,2.224,0.221,1.469e7,1447.346,46.574,0.632,0.632,0.286,0.219,0.126,0.025,0.057,-2.667e-5,0,0,0,0,-0.001,0.01,165,213.825,82.493,0.003,0.095,14.604,1006.1,340.149,0.05,0.095
2.891,64.755,77.064,49.119,77.704,49.767,7.792,2.033e-4,7.792,0.001,9.956,8.006,22.175,120.893,9.787,0.197,-5.174e-7,-2.403,-2.887e-4,2.344e4,8937.495,17.955,0.099,2275.202,1905.922,2.238,0.228,1.517e7,1443.113,49.73,0.632,0.632,0.286,0.219,0.127,0.037,0.083,-2.314e-4,0,0,0,0,-0.001,0.011,165,213.825,82.369,0.004,0.099,14.579,1005.655,340.134,0.05,0.096
2.941,68.67,79.507,48.953,80.179,49.626,8.3,2.297e-4,8.3,0.002,10.359,8.147,22.175,120.893,9.787,0.248,-8.304e-7,-2.201,5.444e-4,2.331e4,8806.998,17.887,0.099,2274.003,1902.002,2.255,0.236,1.565e7,1435.232,52.985,0.633,0.633,0.286,0.22,0.127,0.046,0.105,3.575e-4,0,0,0,0,-8.654e-4,0.011,165,213.825,82.253,0.004,0.107,14.554,1005.196,340.118,0.05,0.096
2.991,72.706,81.964,49.226,82.669,49.927,8.828,2.591e-4,8.828,0.002,10.771,8.336,22.175,120.893,9.787,0.291,1.016e-6,-1.94,-7.297e-4,2.318e4,8676.274,17.818,0.099,2273.002,1898.031,2.273,0.243,1.613e7,1437.734,56.365,0.634,0.634,0.286,0.22,0.128,0.054,0.124,4.563e-4,0,0,0,0,-6.32e-4,0.011,165,213.825,82.15,0.004,0.106,14.527,1004.723,340.103,0.05,0.097
