# Time (s),Altitude (m),Vertical velocity (m/s),Vertical acceleration (m/s²),Total velocity (m/s),Total acceleration (m/s²),Position East of launch (m),Position North of launch (m),Lateral distance (m),Lateral direction (°),Lateral velocity (m/s),Lateral acceleration (m/s²),Latitude (°),Longitude (°),Gravitational acceleration (m/s²),Angle of attack (°),Roll rate (°/s),Pitch rate (°/s),Yaw rate (°/s),Mass (g),Motor mass (g),Longitudinal moment of inertia (kg·m²),Rotational moment of inertia (kg·m²),CP location (mm),CG location (mm),Stability margin calibers (​),Mach number (​),Reynolds number (​),Thrust (N),Drag force (N),Drag coefficient (​),Axial drag coefficient (​),Friction drag coefficient (​),Pressure drag coefficient (​),Base drag coefficient (​),Normal force coefficient (​),Pitch moment coefficient (​),Yaw moment coefficient (​),Side force coefficient (​),Roll moment coefficient (​),Roll forcing coefficient (​),Roll damping coefficient (​),Pitch damping coefficient (​),Coriolis acceleration (m/s²),Reference length (mm),Reference area (cm²),Vertical orientation (zenith) (°),Lateral orientation (azimuth) (°),Wind velocity (m/s),Air temperature (°C),Air pressure (mbar),Speed of sound (m/s),Simulation time step (s),Computation time (s)
0.01,-4.757e-4,-0.095,-9.511,0.096,9.563,-5e-5,0,5e-5,180,0.01,1,22.175,120.893,9.788,85.32,0,0,0,2.8e4,1.35e4,19.963,0.106,NaN,2019.994,NaN,0.012,8.098e5,4.784,2.01e-4,0.69,9e-4,0.355,0.215,0.12,NaN,NaN,NaN,NaN,NaN,NaN,NaN,NaN,1.293e-5,165,213.825,84,0,4.138,15,1013.25,340.389,0.01,0.001
0.02,-4.761e-4,-0.095,-9.522,0.096,9.575,-5.004e-5,0,5.004e-5,180,0.01,1.001,22.175,120.893,9.788,85.33,0,0,0,2.8e4,1.35e4,19.963,0.106,NaN,2019.992,NaN,0.012,8.043e5,4.461,1.97e-4,0.69,8.946e-4,0.355,0.215,0.12,NaN,NaN,NaN,NaN,NaN,NaN,NaN,NaN,1.294e-5,165,213.825,84,0,4.11,15,1013.25,340.389,0.01,0.001
0.03,-4.763e-4,-0.095,-9.526,0.096,9.579,-5.006e-5,0,5.006e-5,180,0.01,1.001,22.175,120.893,9.788,85.34,0,0,0,2.8e4,1.35e4,19.963,0.106,NaN,2019.991,NaN,0.012,7.987e5,4.343,1.933e-4,0.691,8.897e-4,0.356,0.215,0.12,NaN,NaN,NaN,NaN,NaN,NaN,NaN,NaN,1.295e-5,165,213.825,84,0,4.082,15,1013.25,340.389,0.01,0.002
0.04,-4.765e-4,-0.095,-9.53,0.096,9.582,-5.008e-5,0,5.008e-5,180,0.01,1.002,22.175,120.893,9.788,85.35,0,0,0,2.8e4,1.35e4,19.963,0.106,NaN,2019.989,NaN,0.012,7.932e5,4.249,1.896e-4,0.691,8.848e-4,0.356,0.215,0.12,NaN,NaN,NaN,NaN,NaN,NaN,NaN,NaN,1.295e-5,165,213.825,84,0,4.053,15,1013.25,340.389,0.01,0.002
0.05,-4.761e-4,-0.095,-9.523,0.096,9.575,-5.005e-5,0,5.005e-5,180,0.01,1.001,22.175,120.893,9.788,85.359,0,0,0,2.8e4,1.35e4,19.963,0.106,NaN,2019.988,NaN,0.012,7.877e5,4.443,1.861e-4,0.692,8.807e-4,0.357,0.215,0.12,NaN,NaN,NaN,NaN,NaN,NaN,NaN,NaN,1.294e-5,165,213.825,84,0,4.025,15,1013.25,340.389,0.01,0.002
0.06,-4.757e-4,-0.095,-9.514,0.096,9.567,-5e-5,0,5e-5,180,0.01,1,22.175,120.893,9.788,85.364,0,0,0,2.8e4,1.35e4,19.963,0.106,NaN,2019.986,NaN,0.012,7.841e5,4.681,1.839e-4,0.692,8.783e-4,0.357,0.215,0.12,NaN,NaN,NaN,NaN,NaN,NaN,NaN,NaN,1.293e-5,165,213.825,84,0,4.007,15,1013.25,340.389,0.01,0.002
0.07,-4.762e-4,-0.095,-9.523,0.096,9.576,-5.005e-5,0,5.005e-5,180,0.01,1.001,22.175,120.893,9.788,85.371,0,0,0,2.8e4,1.35e4,19.963,0.106,NaN,2019.984,NaN,0.012,7.806e5,4.438,1.815e-4,0.693,8.746e-4,0.357,0.215,0.12,NaN,NaN,NaN,NaN,NaN,NaN,NaN,NaN,1.294e-5,165,213.825,84,0,3.989,15,1013.25,340.389,0.01,0.003
0.08,-4.761e-4,-0.095,-9.522,0.096,9.574,-5.004e-5,0,5.004e-5,180,0.01,1.001,22.175,120.893,9.788,85.377,0,0,0,2.8e4,1.35e4,19.963,0.106,NaN,2019.982,NaN,0.012,7.77e5,4.479,1.792e-4,0.693,8.716e-4,0.358,0.215,0.12,NaN,NaN,NaN,NaN,NaN,NaN,NaN,NaN,1.294e-5,165,213.825,84,0,3.971,15,1013.25,340.389,0.01,0.003
0.09,-4.759e-4,-0.095,-9.517,0.096,9.57,-5.002e-5,0,5.002e-5,180,0.01,1,22.175,120.893,9.788,85.383,0,0,0,2.8e4,1.35e4,19.963,0.106,NaN,2019.981,NaN,0.012,7.735e5,4.603,1.77e-4,0.693,8.689e-4,0.358,0.215,0.12,NaN,NaN,NaN,NaN,NaN,NaN,NaN,NaN,1.294e-5,165,213.825,84,0,3.953,15,1013.25,340.389,0.01,0.003
0.1,-4.764e-4,-0.095,-9.527,0.096,9.58,-5.007e-5,0,5.007e-5,180,0.01,1.001,22.175,120.893,9.788,85.391,0,0,0,2.8e4,1.35e4,19.963,0.106,NaN,2019.979,NaN,0.012,7.699e5,4.315,1.746e-4,0.694,8.65e-4,0.358,0.215,0.12,NaN,NaN,NaN,NaN,NaN,NaN,NaN,NaN,1.295e-5,165,213.825,84,0,3.935,15,1013.25,340.389,0.01,0.003
0.11,-4.762e-4,-0.095,-9.523,0.096,9.576,-5.005e-5,0,5.005e-5,180,0.01,1.001,22.175,120.893,9.788,85.398,0,0,0,2.8e4,1.35e4,19.963,0.106,NaN,2019.977,NaN,0.011,7.653e5,4.431,1.718e-4,0.694,8.612e-4,0.359,0.215,0.12,NaN,NaN,NaN,NaN,NaN,NaN,NaN,NaN,1.294e-5,165,213.825,84,0,3.911,15,1013.25,340.389,0.01,0.003
0.12,-4.762e-4,-0.095,-9.523,0.096,9.576,-5.005e-5,0,5.005e-5,180,0.01,1.001,22.175,120.893,9.788,85.407,0,0,0,2.8e4,1.35e4,19.962,0.106,NaN,2019.976,NaN,0.011,7.607e5,4.436,1.689e-4,0.694,8.571e-4,0.359,0.215,0.12,NaN,NaN,NaN,NaN,NaN,NaN,NaN,NaN,1.294e-5,165,213.825,84,0,3.888,15,1013.25,340.389,0.01,0.004
0.13,-4.758e-4,-0.095,-9.517,0.096,9.569,-5.001e-5,0,5.001e-5,180,0.01,1,22.175,120.893,9.788,85.414,0,0,0,2.8e4,1.35e4,19.962,0.106,NaN,2019.974,NaN,0.011,7.562e5,4.62,1.662e-4,0.695,8.535e-4,0.36,0.215,0.12,NaN,NaN,NaN,NaN,NaN,NaN,NaN,NaN,1.294e-5,165,213.825,84,0,3.864,15,1013.25,340.389,0.01,0.004
0.14,-4.762e-4,-0.095,-9.524,0.096,9.577,-5.005e-5,0,5.005e-5,180,0.01,1.001,22.175,120.893,9.788,85.424,0,0,0,2.8e4,1.35e4,19.962,0.106,NaN,2019.972,NaN,0.011,7.516e5,4.404,1.632e-4,0.695,8.487e-4,0.36,0.215,0.12,NaN,NaN,NaN,NaN,NaN,NaN,NaN,NaN,1.295e-5,165,213.825,84,0,3.841,15,1013.25,340.389,0.01,0.004
0.15,-4.761e-4,-0.095,-9.523,0.096,9.575,-5.004e-5,0,5.004e-5,180,0.01,1.001,22.175,120.893,9.788,85.433,0,0,0,2.8e4,1.35e4,19.962,0.106,NaN,2019.97,NaN,0.011,7.47e5,4.444,1.605e-4,0.696,8.446e-4,0.361,0.215,0.12,NaN,NaN,NaN,NaN,NaN,NaN,NaN,NaN,1.294e-5,165,213.825,84,0,3.818,15,1013.25,340.389,0.01,0.004
0.16,-4.758e-4,-0.095,-9.516,0.096,9.568,-5.001e-5,0,5.001e-5,180,0.01,1,22.175,120.893,9.788,85.414,0,0,0,2.8e4,1.35e4,19.962,0.106,NaN,2019.969,NaN,0.011,7.56e5,4.651,1.661e-4,0.695,8.535e-4,0.36,0.215,0.12,NaN,NaN,NaN,NaN,NaN,NaN,NaN,NaN,1.293e-5,165,213.825,84,0,3.864,15,1013.25,340.389,0.01,0.005
0.17,-4.765e-4,-0.095,-9.531,0.096,9.583,-5.009e-5,0,5.009e-5,180,0.01,1.002,22.175,120.893,9.788,85.4,0,0,0,2.8e4,1.35e4,19.962,0.106,NaN,2019.967,NaN,0.011,7.65e5,4.218,1.715e-4,0.694,8.603e-4,0.359,0.215,0.12,NaN,NaN,NaN,NaN,NaN,NaN,NaN,NaN,1.295e-5,165,213.825,84,0,3.91,15,1013.25,340.389,0.01,0.005
0.18,-4.765e-4,-0.095,-9.531,0.096,9.583,-5.009e-5,0,5.009e-5,180,0.01,1.002,22.175,120.893,9.788,85.384,0,0,0,2.8e4,1.35e4,19.962,0.106,NaN,2019.965,NaN,0.012,7.741e5,4.225,1.772e-4,0.693,8.683e-4,0.358,0.215,0.12,NaN,NaN,NaN,NaN,NaN,NaN,NaN,NaN,1.295e-5,165,213.825,84,0,3.956,15,1013.25,340.389,0.01,0.005
0.19,-4.764e-4,-0.095,-9.527,0.096,9.58,-5.007e-5,0,5.007e-5,180,0.01,1.001,22.175,120.893,9.788,85.367,0,0,0,2.8e4,1.35e4,19.962,0.106,NaN,2019.964,NaN,0.012,7.831e5,4.321,1.83e-4,0.692,8.764e-4,0.357,0.215,0.12,NaN,NaN,NaN,NaN,NaN,NaN,NaN,NaN,1.295e-5,165,213.825,84,0,4.002,15,1013.25,340.389,0.01,0.005
0.2,-4.766e-4,-0.095,-9.532,0.096,9.585,-5.01e-5,0,5.01e-5,180,0.01,1.002,22.175,120.893,9.788,85.352,0,0,0,2.8e4,1.35e4,19.962,0.106,NaN,2019.962,NaN,0.012,7.921e5,4.174,1.888e-4,0.692,8.837e-4,0.356,0.215,0.12,NaN,NaN,NaN,NaN,NaN,NaN,NaN,NaN,1.296e-5,165,213.825,84,0,4.048,15,1013.25,340.389,0.01,0.005
0.21,-4.763e-4,-0.095,-9.525,0.096,9.578,-5.006e-5,0,5.006e-5,180,0.01,1.001,22.175,120.893,9.788,85.355,0,0,0,2.8e4,1.35e4,19.962,0.106,NaN,2019.961,NaN,0.012,7.899e5,4.381,1.875e-4,0.692,8.824e-4,0.357,0.215,0.12,NaN,NaN,NaN,NaN,NaN,NaN,NaN,NaN,1.295e-5,165,213.825,84,0,4.037,15,1013.25,340.389,0.01,0.005
0.22,-4.758e-4,-0.095,-9.515,0.096,9.568,-5.001e-5,0,5.001e-5,180,0.01,1,22.175,120.893,9.788,85.357,0,0,0,2.8e4,1.35e4,19.962,0.106,NaN,2019.959,NaN,0.012,7.878e5,4.657,1.862e-4,0.692,8.814e-4,0.357,0.215,0.12,NaN,NaN,NaN,NaN,NaN,NaN,NaN,NaN,1.293e-5,165,213.825,84,0,4.026,15,1013.25,340.389,0.01,0.006
0.23,-4.762e-4,-0.095,-9.525,0.096,9.577,-5.005e-5,0,5.005e-5,180,0.01,1.001,22.175,120.893,9.788,85.363,0,0,0,2.8e4,1.35e4,19.962,0.106,NaN,2019.957,NaN,0.012,7.856e5,4.392,1.847e-4,0.692,8.787e-4,0.357,0.215,0.12,NaN,NaN,NaN,NaN,NaN,NaN,NaN,NaN,1.295e-5,165,213.825,84,0,4.015,15,1013.25,340.389,0.01,0.006
0.24,-4.76e-4,-0.095,-9.52,0.096,9.573,-5.003e-5,0,5.003e-5,180,0.01,1.001,22.175,120.893,9.788,85.366,0,0,0,2.8e4,1.35e4,19.962,0.106,NaN,2019.955,NaN,0.012,7.834e5,4.513,1.833e-4,0.692,8.772e-4,0.357,0.215,0.12,NaN,NaN,NaN,NaN,NaN,NaN,NaN,NaN,1.294e-5,165,213.825,84,0,4.003,15,1013.25,340.389,0.01,0.006
0.25,-4.759e-4,-0.095,-9.518,0.096,9.57,-5.002e-5,0,5.002e-5,180,0.01,1,22.175,120.893,9.788,85.369,0,0,0,2.8e4,1.35e4,19.962,0.106,NaN,2019.954,NaN,0.012,7.812e5,4.587,1.82e-4,0.693,8.756e-4,0.357,0.215,0.12,NaN,NaN,NaN,NaN,NaN,NaN,NaN,NaN,1.294e-5,165,213.825,84,0,3.992,15,1013.25,340.389,0.01,0.006
0.26,-4.762e-4,-0.095,-9.523,0.096,9.576,-5.005e-5,0,5.005e-5,180,0.01,1.001,22.175,120.893,9.788,85.368,0,0,0,2.8e4,1.35e4,19.962,0.106,NaN,2019.952,NaN,0.012,7.823e5,4.429,1.825e-4,0.692,8.76e-4,0.357,0.215,0.12,NaN,NaN,NaN,NaN,NaN,NaN,NaN,NaN,1.294e-5,165,213.825,84,0,3.998,15,1013.25,340.389,0.01,0.006
0.27,-4.76e-4,-0.095,-9.52,0.096,9.572,-5.003e-5,0,5.003e-5,180,0.01,1.001,22.175,120.893,9.788,85.366,0,0,0,2.8e4,1.35e4,19.962,0.106,NaN,2019.95,NaN,0.012,7.833e5,4.527,1.833e-4,0.692,8.772e-4,0.357,0.215,0.12,NaN,NaN,NaN,NaN,NaN,NaN,NaN,NaN,1.294e-5,165,213.825,84,0,4.003,15,1013.25,340.389,0.01,0.007
0.28,-4.761e-4,-0.095,-9.521,0.096,9.574,-5.004e-5,0,5.004e-5,180,0.01,1.001,22.175,120.893,9.788,85.364,0,0,0,2.8e4,1.35e4,19.962,0.106,NaN,2019.949,NaN,0.012,7.843e5,4.488,1.839e-4,0.692,8.779e-4,0.357,0.215,0.12,NaN,NaN,NaN,NaN,NaN,NaN,NaN,NaN,1.294e-5,165,213.825,84,0,4.008,15,1013.25,340.389,0.01,0.007
0.29,-4.758e-4,-0.095,-9.517,0.096,9.569,-5.001e-5,0,5.001e-5,180,0.01,1,22.175,120.893,9.788,85.362,0,0,0,2.8e4,1.35e4,19.962,0.106,NaN,2019.947,NaN,0.012,7.854e5,4.616,1.847e-4,0.692,8.792e-4,0.357,0.215,0.12,NaN,NaN,NaN,NaN,NaN,NaN,NaN,NaN,1.294e-5,165,213.825,84,0,4.013,15,1013.25,340.389,0.01,0.007
0.3,-4.76e-4,-0.095,-9.519,0.096,9.572,-5.003e-5,0,5.003e-5,180,0.01,1.001,22.175,120.893,9.788,85.36,0,0,0,2.8e4,1.35e4,19.962,0.106,NaN,2019.945,NaN,0.012,7.864e5,4.548,1.853e-4,0.692,8.799e-4,0.357,0.215,0.12,NaN,NaN,NaN,NaN,NaN,NaN,NaN,NaN,1.294e-5,165,213.825,84,0,4.019,15,1013.25,340.389,0.01,0.007
0.31,-4.757e-4,-0.095,-9.514,0.096,9.566,-5e-5,0,5e-5,180,0.01,1,22.175,120.893,9.788,85.363,0,0,0,2.8e4,1.35e4,19.962,0.106,NaN,2019.943,NaN,0.012,7.846e5,4.706,1.842e-4,0.692,8.788e-4,0.357,0.215,0.12,NaN,NaN,NaN,NaN,NaN,NaN,NaN,NaN,1.293e-5,165,213.825,84,0,4.01,15,1013.25,340.389,0.01,0.007
0.32,-4.763e-4,-0.095,-9.527,0.096,9.579,-5.007e-5,0,5.007e-5,180,0.01,1.001,22.175,120.893,9.788,85.368,0,0,0,2.8e4,1.35e4,19.962,0.106,NaN,2019.942,NaN,0.012,7.829e5,4.332,1.829e-4,0.692,8.763e-4,0.357,0.215,0.12,NaN,NaN,NaN,NaN,NaN,NaN,NaN,NaN,1.295e-5,165,213.825,84,0,4.001,15,1013.25,340.389,0.01,0.007
0.33,-4.761e-4,-0.095,-9.522,0.096,9.574,-5.004e-5,0,5.004e-5,180,0.01,1.001,22.175,120.893,9.788,85.37,0,0,0,2.8e4,1.35e4,19.962,0.106,NaN,2019.94,NaN,0.012,7.811e5,4.483,1.818e-4,0.693,8.752e-4,0.357,0.215,0.12,NaN,NaN,NaN,NaN,NaN,NaN,NaN,NaN,1.294e-5,165,213.825,84,0,3.992,15,1013.25,340.389,0.01,0.008
0.34,-4.759e-4,-0.095,-9.518,0.096,9.571,-5.002e-5,0,5.002e-5,180,0.01,1,22.175,120.893,9.788,85.372,0,0,0,2.8e4,1.35e4,19.962,0.106,NaN,2019.938,NaN,0.012,7.794e5,4.57,1.808e-4,0.693,8.739e-4,0.358,0.215,0.12,NaN,NaN,NaN,NaN,NaN,NaN,NaN,NaN,1.294e-5,165,213.825,84,0,3.983,15,1013.25,340.389,0.01,0.008
0.35,-4.762e-4,-0.095,-9.524,0.096,9.576,-5.005e-5,0,5.005e-5,180,0.01,1.001,22.175,120.893,9.788,85.376,0,0,0,2.8e4,1.35e4,19.962,0.106,NaN,2019.936,NaN,0.012,7.776e5,4.419,1.795e-4,0.693,8.72e-4,0.358,0.215,0.12,NaN,NaN,NaN,NaN,NaN,NaN,NaN,NaN,1.294e-5,165,213.825,84,0,3.974,15,1013.25,340.389,0.01,0.008
0.36,-4.764e-4,-0.095,-9.527,0.096,9.58,-5.007e-5,0,5.007e-5,180,0.01,1.001,22.175,120.893,9.788,85.37,0,0,0,2.8e4,1.35e4,19.962,0.106,NaN,2019.935,NaN,0.012,7.817e5,4.317,1.821e-4,0.692,8.752e-4,0.357,0.215,0.12,NaN,NaN,NaN,NaN,NaN,NaN,NaN,NaN,1.295e-5,165,213.825,84,0,3.995,15,1013.25,340.389,0.01,0.008
0.37,-4.76e-4,-0.095,-9.52,0.096,9.573,-5.003e-5,0,5.003e-5,180,0.01,1.001,22.175,120.893,9.788,85.362,0,0,0,2.8e4,1.35e4,19.962,0.106,NaN,2019.933,NaN,0.012,7.857e5,4.522,1.848e-4,0.692,8.792e-4,0.357,0.215,0.12,NaN,NaN,NaN,NaN,NaN,NaN,NaN,NaN,1.294e-5,165,213.825,84,0,4.015,15,1013.25,340.389,0.01,0.009
0.38,-4.762e-4,-0.095,-9.523,0.096,9.576,-5.005e-5,0,5.005e-5,180,0.01,1.001,22.175,120.893,9.788,85.355,0,0,0,2.8e4,1.35e4,19.962,0.106,NaN,2019.931,NaN,0.012,7.898e5,4.433,1.874e-4,0.692,8.824e-4,0.357,0.215,0.12,NaN,NaN,NaN,NaN,NaN,NaN,NaN,NaN,1.294e-5,165,213.825,84,0,4.036,15,1013.25,340.389,0.01,0.009
0.39,-4.757e-4,-0.095,-9.515,0.096,9.567,-5e-5,0,5e-5,180,0.01,1,22.175,120.893,9.788,85.347,0,0,0,2.8e4,1.35e4,19.962,0.106,NaN,2019.93,NaN,0.012,7.938e5,4.673,1.902e-4,0.691,8.865e-4,0.356,0.215,0.12,NaN,NaN,NaN,NaN,NaN,NaN,NaN,NaN,1.293e-5,165,213.825,84,0,4.057,15,1013.25,340.389,0.01,0.009
0.4,-4.755e-4,-0.095,-9.51,0.096,9.562,-4.998e-5,0,4.998e-5,180,0.01,1,22.175,120.893,9.788,85.339,0,0,0,2.8e4,1.35e4,19.962,0.106,NaN,2019.928,NaN,0.012,7.979e5,4.812,1.93e-4,0.691,8.903e-4,0.356,0.215,0.12,NaN,NaN,NaN,NaN,NaN,NaN,NaN,NaN,1.293e-5,165,213.825,84,0,4.077,15,1013.25,340.389,0.01,0.009
0.41,-4.759e-4,-0.095,-9.518,0.096,9.57,-5.002e-5,0,5.002e-5,180,0.01,1,22.175,120.893,9.788,85.337,0,0,0,2.8e4,1.35e4,19.962,0.106,NaN,2019.926,NaN,0.012,8e5,4.595,1.943e-4,0.691,8.914e-4,0.356,0.215,0.12,NaN,NaN,NaN,NaN,NaN,NaN,NaN,NaN,1.294e-5,165,213.825,84,0,4.088,15,1013.25,340.389,0.01,0.009
0.42,-4.758e-4,-0.095,-9.516,0.096,9.568,-5.001e-5,0,5.001e-5,180,0.01,1,22.175,120.893,9.788,85.333,0,0,0,2.8e4,1.35e4,19.962,0.106,NaN,2019.924,NaN,0.012,8.021e5,4.638,1.957e-4,0.691,8.933e-4,0.355,0.215,0.12,NaN,NaN,NaN,NaN,NaN,NaN,NaN,NaN,1.293e-5,165,213.825,84,0,4.099,15,1013.25,340.389,0.01,0.009
0.43,-4.755e-4,-0.095,-9.51,0.096,9.562,-4.998e-5,0,4.998e-5,180,0.01,1,22.175,120.893,9.788,85.329,0,0,0,2.8e4,1.35e4,19.962,0.106,NaN,2019.922,NaN,0.012,8.043e5,4.811,1.973e-4,0.69,8.956e-4,0.355,0.215,0.12,NaN,NaN,NaN,NaN,NaN,NaN,NaN,NaN,1.293e-5,165,213.825,84,0,4.11,15,1013.25,340.389,0.01,0.01
0.44,-4.753e-4,-0.095,-9.506,0.096,9.558,-4.996e-5,0,4.996e-5,180,0.01,0.999,22.175,120.893,9.788,85.325,0,0,0,2.8e4,1.35e4,19.962,0.106,NaN,2019.921,NaN,0.012,8.064e5,4.919,1.988e-4,0.69,8.976e-4,0.355,0.215,0.12,NaN,NaN,NaN,NaN,NaN,NaN,NaN,NaN,1.292e-5,165,213.825,84,0,4.121,15,1013.25,340.389,0.01,0.01
0.45,-4.759e-4,-0.095,-9.518,0.096,9.57,-5.002e-5,0,5.002e-5,180,0.01,1,22.175,120.893,9.788,85.323,0,0,0,2.8e4,1.35e4,19.961,0.106,NaN,2019.919,NaN,0.012,8.086e5,4.583,2e-4,0.69,8.984e-4,0.355,0.215,0.12,NaN,NaN,NaN,NaN,NaN,NaN,NaN,NaN,1.294e-5,165,213.825,84,0,4.132,15,1013.25,340.389,0.01,0.01
0.46,-4.762e-4,-0.095,-9.523,0.096,9.576,-5.005e-5,0,5.005e-5,180,0.01,1.001,22.175,120.893,9.788,85.334,0,0,0,2.8e4,1.35e4,19.961,0.106,NaN,2019.917,NaN,0.012,8.021e5,4.429,1.955e-4,0.691,8.927e-4,0.355,0.215,0.12,NaN,NaN,NaN,NaN,NaN,NaN,NaN,NaN,1.294e-5,165,213.825,84,0,4.099,15,1013.25,340.389,0.01,0.01
0.47,-4.761e-4,-0.095,-9.523,0.096,9.575,-5.004e-5,0,5.004e-5,180,0.01,1.001,22.175,120.893,9.788,85.345,0,0,0,2.8e4,1.35e4,19.961,0.106,NaN,2019.915,NaN,0.012,7.955e5,4.45,1.912e-4,0.691,8.873e-4,0.356,0.215,0.12,NaN,NaN,NaN,NaN,NaN,NaN,NaN,NaN,1.294e-5,165,213.825,84,0,4.065,15,1013.25,340.389,0.01,0.01
0.48,-4.753e-4,-0.095,-9.507,0.096,9.559,-4.996e-5,0,4.996e-5,180,0.01,0.999,22.175,120.893,9.788,85.354,0,0,0,2.8e4,1.35e4,19.961,0.106,NaN,2019.914,NaN,0.012,7.89e5,4.905,1.872e-4,0.692,8.831e-4,0.357,0.215,0.12,NaN,NaN,NaN,NaN,NaN,NaN,NaN,NaN,1.292e-5,165,213.825,84,0,4.032,15,1013.25,340.389,0.01,0.01
0.49,-4.756e-4,-0.095,-9.512,0.096,9.565,-4.999e-5,0,4.999e-5,180,0.01,1,22.175,120.893,9.788,85.366,0,0,0,2.8e4,1.35e4,19.961,0.106,NaN,2019.912,NaN,0.012,7.825e5,4.746,1.829e-4,0.692,8.771e-4,0.357,0.215,0.12,NaN,NaN,NaN,NaN,NaN,NaN,NaN,NaN,1.293e-5,165,213.825,84,0,3.999,15,1013.25,340.389,0.01,0.011
0.5,-4.761e-4,-0.095,-9.522,0.096,9.574,-5.004e-5,0,5.004e-5,180,0.01,1.001,22.175,120.893,9.788,85.379,0,0,0,2.8e4,1.35e4,19.961,0.106,NaN,2019.91,NaN,0.012,7.76e5,4.47,1.785e-4,0.693,8.707e-4,0.358,0.215,0.12,NaN,NaN,NaN,NaN,NaN,NaN,NaN,NaN,1.294e-5,165,213.825,84,0,3.966,15,1013.25,340.389,0.01,0.011
0.51,-4.758e-4,-0.095,-9.515,0.096,9.568,-5.001e-5,0,5.001e-5,180,0.01,1,22.175,120.893,9.788,85.387,0,0,0,2.8e4,1.35e4,19.961,0.106,NaN,2019.908,NaN,0.012,7.708e5,4.657,1.753e-4,0.694,8.667e-4,0.358,0.215,0.12,NaN,NaN,NaN,NaN,NaN,NaN,NaN,NaN,1.293e-5,165,213.825,84,0,3.939,15,1013.25,340.389,0.01,0.011
0.52,-4.75e-4,-0.095,-9.499,0.096,9.551,-4.992e-5,0,4.992e-5,180,0.01,0.998,22.175,120.893,9.788,85.394,0,0,0,2.8e4,1.35e4,19.961,0.106,NaN,2019.906,NaN,0.011,7.656e5,5.115,1.723e-4,0.694,8.634e-4,0.359,0.215,0.12,NaN,NaN,NaN,NaN,NaN,NaN,NaN,NaN,1.291e-5,165,213.825,84,0,3.913,15,1013.25,340.389,0.01,0.011
0.53,-4.746e-4,-0.095,-9.491,0.095,9.543,-4.988e-5,0,4.988e-5,180,0.01,0.998,22.175,120.893,9.788,85.403,0,0,0,2.8e4,1.35e4,19.961,0.106,NaN,2019.904,NaN,0.011,7.604e5,5.339,1.692e-4,0.694,8.594e-4,0.359,0.215,0.12,NaN,NaN,NaN,NaN,NaN,NaN,NaN,NaN,1.29e-5,165,213.825,84,0,3.886,15,1013.25,340.389,0.01,0.011
0.54,-4.758e-4,-0.095,-9.516,0.096,9.568,-5.001e-5,0,5.001e-5,180,0.01,1,22.175,120.893,9.788,85.416,0,0,0,2.8e4,1.35e4,19.961,0.106,NaN,2019.903,NaN,0.011,7.552e5,4.638,1.656e-4,0.695,8.527e-4,0.36,0.215,0.12,NaN,NaN,NaN,NaN,NaN,NaN,NaN,NaN,1.293e-5,165,213.825,84,0,3.86,15,1013.25,340.389,0.01,0.012
0.55,-4.755e-4,-0.095,-9.51,0.096,9.562,-4.997e-5,0,4.997e-5,180,0.01,0.999,22.175,120.893,9.788,85.425,0,0,0,2.8e4,1.35e4,19.961,0.106,NaN,2019.901,NaN,0.011,7.5e5,4.82,1.625e-4,0.696,8.485e-4,0.36,0.215,0.12,NaN,NaN,NaN,NaN,NaN,NaN,NaN,NaN,1.293e-5,165,213.825,84,0,3.833,15,1013.25,340.389,0.01,0.012
0.56,-4.749e-4,-0.095,-9.498,0.096,9.55,-4.991e-5,0,4.991e-5,180,0.01,0.998,22.175,120.893,9.788,85.433,0,0,0,2.8e4,1.35e4,19.961,0.106,NaN,2019.899,NaN,0.011,7.451e5,5.14,1.597e-4,0.696,8.449e-4,0.361,0.215,0.12,NaN,NaN,NaN,NaN,NaN,NaN,NaN,NaN,1.291e-5,165,213.825,84,0,3.808,15,1013.25,340.389,0.01,0.012
0.57,-4.749e-4,-0.095,-9.497,0.095,9.55,-4.991e-5,0,4.991e-5,180,0.01,0.998,22.175,120.893,9.788,85.442,0,0,0,2.8e4,1.35e4,19.961,0.106,NaN,2019.897,NaN,0.011,7.401e5,5.164,1.567e-4,0.696,8.403e-4,0.361,0.215,0.12,NaN,NaN,NaN,NaN,NaN,NaN,NaN,NaN,1.291e-5,165,213.825,84,0,3.783,15,1013.25,340.389,0.01,0.012
0.58,-4.749e-4,-0.095,-9.499,0.096,9.551,-4.992e-5,0,4.992e-5,180,0.01,0.998,22.175,120.893,9.788,85.452,0,0,0,2.8e4,1.35e4,19.961,0.106,NaN,2019.895,NaN,0.011,7.352e5,5.125,1.538e-4,0.697,8.355e-4,0.362,0.215,0.12,NaN,NaN,NaN,NaN,NaN,NaN,NaN,NaN,1.291e-5,165,213.825,84,0,3.758,15,1013.25,340.389,0.01,0.012
0.59,-4.746e-4,-0.095,-9.493,0.095,9.545,-4.989e-5,0,4.989e-5,180,0.01,0.998,22.175,120.893,9.788,85.461,0,0,0,2.8e4,1.35e4,19.961,0.106,NaN,2019.893,NaN,0.011,7.303e5,5.296,1.51e-4,0.697,8.313e-4,0.362,0.215,0.12,NaN,NaN,NaN,NaN,NaN,NaN,NaN,NaN,1.29e-5,165,213.825,84,0,3.732,15,1013.25,340.389,0.01,0.013
0.6,-4.741e-4,-0.095,-9.483,0.095,9.535,-4.984e-5,0,4.984e-5,180,0.01,0.997,22.175,120.893,9.788,85.469,0,0,0,2.8e4,1.349e4,19.961,0.106,NaN,2019.891,NaN,0.011,7.253e5,5.567,1.482e-4,0.698,8.273e-4,0.363,0.215,0.12,NaN,NaN,NaN,NaN,NaN,NaN,NaN,NaN,1.289e-5,165,213.825,84,0,3.707,15,1013.25,340.389,0.01,0.013
0.61,-4.739e-4,-0.095,-9.478,0.095,9.53,-4.981e-5,0,4.981e-5,180,0.01,0.996,22.175,120.893,9.788,85.47,0,0,0,2.8e4,1.349e4,19.961,0.106,NaN,2019.889,NaN,0.011,7.245e5,5.717,1.478e-4,0.698,8.27e-4,0.363,0.215,0.12,NaN,NaN,NaN,NaN,NaN,NaN,NaN,NaN,1.288e-5,165,213.825,84,0,3.703,15,1013.25,340.389,0.01,0.013
0.62,-4.745e-4,-0.095,-9.49,0.095,9.542,-4.987e-5,0,4.987e-5,180,0.01,0.997,22.175,120.893,9.788,85.474,0,0,0,2.8e4,1.349e4,19.961,0.106,NaN,2019.887,NaN,0.011,7.236e5,5.366,1.471e-4,0.698,8.251e-4,0.363,0.215,0.12,NaN,NaN,NaN,NaN,NaN,NaN,NaN,NaN,1.29e-5,165,213.825,84,0,3.699,15,1013.25,340.389,0.01,0.013
0.63,-4.737e-4,-0.095,-9.473,0.095,9.525,-4.978e-5,0,4.978e-5,180,0.01,0.996,22.175,120.893,9.788,85.473,0,0,0,2.799e4,1.349e4,19.961,0.106,NaN,2019.884,NaN,0.011,7.228e5,5.844,1.469e-4,0.698,8.257e-4,0.363,0.215,0.12,NaN,NaN,NaN,NaN,NaN,NaN,NaN,NaN,1.288e-5,165,213.825,84,0,3.694,15,1013.25,340.389,0.01,0.013
0.64,-4.738e-4,-0.095,-9.475,0.095,9.527,-4.979e-5,0,4.979e-5,180,0.01,0.996,22.175,120.893,9.788,85.475,0,0,0,2.799e4,1.349e4,19.961,0.106,NaN,2019.882,NaN,0.011,7.219e5,5.786,1.464e-4,0.698,8.247e-4,0.363,0.215,0.12,NaN,NaN,NaN,NaN,NaN,NaN,NaN,NaN,1.288e-5,165,213.825,84,0,3.69,15,1013.25,340.389,0.01,0.014
0.65,-4.734e-4,-0.095,-9.469,0.095,9.521,-4.976e-5,0,4.976e-5,180,0.01,0.995,22.175,120.893,9.788,85.476,0,0,0,2.799e4,1.349e4,19.961,0.106,NaN,2019.88,NaN,0.011,7.211e5,5.968,1.46e-4,0.698,8.244e-4,0.363,0.215,0.12,NaN,NaN,NaN,NaN,NaN,NaN,NaN,NaN,1.287e-5,165,213.825,84,0,3.686,15,1013.25,340.389,0.01,0.014
0.66,-4.724e-4,-0.094,-9.448,0.095,9.5,-4.965e-5,0,4.965e-5,180,0.01,0.993,22.175,120.893,9.788,85.474,0,0,0,2.799e4,1.349e4,19.961,0.106,NaN,2019.877,NaN,0.011,7.205e5,6.551,1.46e-4,0.698,8.256e-4,0.363,0.215,0.12,NaN,NaN,NaN,NaN,NaN,NaN,NaN,NaN,1.284e-5,165,213.825,84,0,3.683,15,1013.25,340.389,0.01,0.014
0.67,-4.721e-4,-0.094,-9.442,0.095,9.494,-4.962e-5,0,4.962e-5,180,0.01,0.992,22.175,120.893,9.788,85.474,0,0,0,2.799e4,1.349e4,19.961,0.106,NaN,2019.875,NaN,0.011,7.2e5,6.72,1.457e-4,0.699,8.256e-4,0.363,0.215,0.12,NaN,NaN,NaN,NaN,NaN,NaN,NaN,NaN,1.283e-5,165,213.825,84,0,3.68,15,1013.25,340.389,0.01,0.014
0.68,-4.711e-4,-0.094,-9.421,0.095,9.473,-4.951e-5,0,4.951e-5,180,0.01,0.99,22.175,120.893,9.788,85.472,0,0,0,2.799e4,1.349e4,19.961,0.106,NaN,2019.872,NaN,0.011,7.194e5,7.299,1.457e-4,0.699,8.267e-4,0.363,0.215,0.12,NaN,NaN,NaN,NaN,NaN,NaN,NaN,NaN,1.281e-5,165,213.825,84,0,3.677,15,1013.25,340.389,0.01,0.014
0.69,-4.708e-4,-0.094,-9.415,0.095,9.467,-4.948e-5,0,4.948e-5,180,0.01,0.99,22.175,120.893,9.788,85.472,0,0,0,2.799e4,1.349e4,19.961,0.106,NaN,2019.869,NaN,0.011,7.189e5,7.467,1.455e-4,0.699,8.267e-4,0.364,0.215,0.12,NaN,NaN,NaN,NaN,NaN,NaN,NaN,NaN,1.28e-5,165,213.825,84,0,3.674,15,1013.25,340.389,0.01,0.014
0.7,-4.699e-4,-0.094,-9.398,0.095,9.45,-4.939e-5,0,4.939e-5,180,0.01,0.988,22.175,120.893,9.788,85.47,0,0,0,2.799e4,1.349e4,19.961,0.106,NaN,2019.866,NaN,0.011,7.183e5,7.951,1.454e-4,0.699,8.276e-4,0.364,0.215,0.12,NaN,NaN,NaN,NaN,NaN,NaN,NaN,NaN,1.277e-5,165,213.825,84,0,3.671,15,1013.25,340.389,0.01,0.015
0.71,-4.682e-4,-0.094,-9.363,0.094,9.415,-4.921e-5,0,4.921e-5,180,0.01,0.984,22.175,120.893,9.788,85.451,0,0,0,2.799e4,1.349e4,19.96,0.106,NaN,2019.863,NaN,0.011,7.254e5,8.938,1.5e-4,0.698,8.374e-4,0.363,0.215,0.12,NaN,NaN,NaN,NaN,NaN,NaN,NaN,NaN,1.273e-5,165,213.825,84,0,3.707,15,1013.25,340.389,0.01,0.015
0.72,-4.676e-4,-0.094,-9.352,0.094,9.403,-4.915e-5,0,4.915e-5,180,0.01,0.983,22.175,120.893,9.788,85.435,0,0,0,2.799e4,1.349e4,19.96,0.106,NaN,2019.859,NaN,0.011,7.324e5,9.255,1.543e-4,0.697,8.451e-4,0.362,0.215,0.12,NaN,NaN,NaN,NaN,NaN,NaN,NaN,NaN,1.271e-5,165,213.825,84,0,3.743,15,1013.25,340.389,0.01,0.015
0.73,-4.659e-4,-0.093,-9.319,0.094,9.37,-4.897e-5,0,4.897e-5,180,0.01,0.979,22.175,120.893,9.788,85.416,0,0,0,2.799e4,1.349e4,19.96,0.106,NaN,2019.855,NaN,0.011,7.394e5,10.185,1.591e-4,0.697,8.544e-4,0.361,0.215,0.12,NaN,NaN,NaN,NaN,NaN,NaN,NaN,NaN,1.267e-5,165,213.825,84,0,3.779,15,1013.25,340.389,0.01,0.015
0.74,-4.64e-4,-0.093,-9.28,0.093,9.331,-4.877e-5,0,4.877e-5,180,0.01,0.975,22.175,120.893,9.788,85.397,0,0,0,2.799e4,1.349e4,19.96,0.106,NaN,2019.851,NaN,0.011,7.464e5,11.275,1.64e-4,0.696,8.642e-4,0.361,0.215,0.12,NaN,NaN,NaN,NaN,NaN,NaN,NaN,NaN,1.261e-5,165,213.825,84,0,3.815,15,1013.25,340.389,0.01,0.015
0.75,-4.621e-4,-0.092,-9.243,0.093,9.294,-4.857e-5,0,4.857e-5,180,0.01,0.971,22.175,120.893,9.788,85.379,0,0,0,2.799e4,1.349e4,19.96,0.106,NaN,2019.846,NaN,0.011,7.535e5,12.322,1.689e-4,0.695,8.736e-4,0.36,0.215,0.12,NaN,NaN,NaN,NaN,NaN,NaN,NaN,NaN,1.256e-5,165,213.825,84,0,3.851,15,1013.25,340.389,0.01,0.015
0.76,-4.598e-4,-0.092,-9.195,0.092,9.246,-4.832e-5,0,4.832e-5,180,0.01,0.966,22.175,120.893,9.788,85.355,0,0,0,2.799e4,1.349e4,19.96,0.106,NaN,2019.841,NaN,0.011,7.627e5,13.663,1.754e-4,0.694,8.858e-4,0.359,0.215,0.12,NaN,NaN,NaN,NaN,NaN,NaN,NaN,NaN,1.25e-5,165,213.825,84,0,3.897,15,1013.25,340.389,0.01,0.016
0.77,-4.586e-4,-0.092,-9.173,0.092,9.223,-4.82e-5,0,4.82e-5,180,0.01,0.964,22.175,120.893,9.788,85.335,0,0,0,2.799e4,1.349e4,19.96,0.106,NaN,2019.836,NaN,0.012,7.719e5,14.302,1.817e-4,0.693,8.956e-4,0.358,0.215,0.12,NaN,NaN,NaN,NaN,NaN,NaN,NaN,NaN,1.247e-5,165,213.825,84,0,3.944,15,1013.25,340.389,0.01,0.016
0.78,-4.56e-4,-0.091,-9.12,0.092,9.171,-4.793e-5,0,4.793e-5,180,0.01,0.959,22.175,120.893,9.788,85.312,0,0,0,2.799e4,1.349e4,19.96,0.106,NaN,2019.83,NaN,0.012,7.811e5,15.77,1.886e-4,0.693,9.077e-4,0.357,0.215,0.12,NaN,NaN,NaN,NaN,NaN,NaN,NaN,NaN,1.24e-5,165,213.825,84,0,3.991,15,1013.25,340.389,0.01,0.016
0.79,-4.54e-4,-0.091,-9.079,0.091,9.129,-4.771e-5,0,4.771e-5,180,0.01,0.954,22.175,120.893,9.788,85.291,0,0,0,2.799e4,1.349e4,19.96,0.106,NaN,2019.823,NaN,0.012,7.903e5,16.927,1.954e-4,0.692,9.187e-4,0.357,0.215,0.12,NaN,NaN,NaN,NaN,NaN,NaN,NaN,NaN,1.234e-5,165,213.825,84,0,4.038,15,1013.25,340.389,0.01,0.016
0.8,-4.518e-4,-0.09,-9.037,0.091,9.087,-4.749e-5,0,4.749e-5,180,0.009,0.95,22.175,120.893,9.788,85.27,0,0,0,2.799e4,1.349e4,19.96,0.106,NaN,2019.816,NaN,0.012,7.995e5,18.121,2.023e-4,0.691,9.296e-4,0.356,0.215,0.12,NaN,NaN,NaN,NaN,NaN,NaN,NaN,NaN,1.228e-5,165,213.825,84,0,4.085,15,1013.25,340.389,0.01,0.016
0.81,-4.495e-4,-0.09,-8.99,0.09,9.04,-4.725e-5,0,4.725e-5,180,0.009,0.945,22.175,120.893,9.788,85.274,0,0,0,2.799e4,1.349e4,19.96,0.106,NaN,2019.809,NaN,0.012,7.927e5,19.438,1.986e-4,0.691,9.28e-4,0.356,0.215,0.12,NaN,NaN,NaN,NaN,NaN,NaN,NaN,NaN,1.222e-5,165,213.825,84,0,4.05,15,1013.25,340.389,0.01,0.017
0.82,-4.482e-4,-0.09,-8.965,0.09,9.014,-4.711e-5,0,4.711e-5,180,0.009,0.942,22.175,120.893,9.788,85.282,0,0,0,2.799e4,1.349e4,19.959,0.106,NaN,2019.801,NaN,0.012,7.859e5,20.155,1.945e-4,0.692,9.246e-4,0.357,0.215,0.12,NaN,NaN,NaN,NaN,NaN,NaN,NaN,NaN,1.218e-5,165,213.825,84,0,4.016,15,1013.25,340.389,0.01,0.017
0.83,-4.434e-4,-0.089,-8.867,0.089,8.916,-4.66e-5,0,4.66e-5,180,0.009,0.932,22.175,120.893,9.788,85.279,0,0,0,2.799e4,1.349e4,19.959,0.106,NaN,2019.793,NaN,0.012,7.791e5,22.899,1.916e-4,0.693,9.271e-4,0.358,0.215,0.12,NaN,NaN,NaN,NaN,NaN,NaN,NaN,NaN,1.205e-5,165,213.825,84,0,3.981,15,1013.25,340.389,0.01,0.017
0.84,-4.345e-4,-0.087,-8.69,0.087,8.738,-4.567e-5,0,4.567e-5,180,0.009,0.913,22.175,120.893,9.788,85.264,0,0,0,2.799e4,1.349e4,19.959,0.106,NaN,2019.782,NaN,0.012,7.724e5,27.886,1.902e-4,0.693,9.364e-4,0.358,0.215,0.12,NaN,NaN,NaN,NaN,NaN,NaN,NaN,NaN,1.181e-5,165,213.825,84,0,3.946,15,1013.25,340.389,0.01,0.017
0.85,-4.271e-4,-0.085,-8.542,0.086,8.59,-4.489e-5,0,4.489e-5,180,0.009,0.898,22.175,120.893,9.788,85.254,0,0,0,2.799e4,1.349e4,19.959,0.106,NaN,2019.77,NaN,0.011,7.656e5,32.036,1.883e-4,0.694,9.434e-4,0.359,0.215,0.12,NaN,NaN,NaN,NaN,NaN,NaN,NaN,NaN,1.161e-5,165,213.825,84,0,3.912,15,1013.25,340.389,0.01,0.017
0.86,-4.194e-4,-0.084,-8.388,0.084,8.434,-4.408e-5,0,4.408e-5,180,0.009,0.882,22.175,120.893,9.788,85.226,0,0,0,2.799e4,1.349e4,19.959,0.106,NaN,2019.756,NaN,0.012,7.69e5,36.392,1.932e-4,0.694,9.596e-4,0.359,0.215,0.12,NaN,NaN,NaN,NaN,NaN,NaN,NaN,NaN,1.14e-5,165,213.825,84,0,3.929,15,1013.25,340.389,0.01,0.017
0.87,-4.119e-4,-0.082,-8.239,0.083,8.284,-4.33e-5,0,4.33e-5,180,0.009,0.866,22.175,120.893,9.788,85.199,0,0,0,2.799e4,1.349e4,19.958,0.106,NaN,2019.74,NaN,0.012,7.724e5,40.581,1.981e-4,0.693,9.753e-4,0.358,0.215,0.12,NaN,NaN,NaN,NaN,NaN,NaN,NaN,NaN,1.12e-5,165,213.825,84,0,3.946,15,1013.25,340.389,0.01,0.018
0.88,-4.047e-4,-0.081,-8.093,0.081,8.138,-4.253e-5,0,4.253e-5,180,0.009,0.851,22.175,120.893,9.788,85.172,0,0,0,2.799e4,1.349e4,19.958,0.106,NaN,2019.723,NaN,0.012,7.758e5,44.682,2.031e-4,0.693,9.907e-4,0.358,0.215,0.12,NaN,NaN,NaN,NaN,NaN,NaN,NaN,NaN,1.1e-5,165,213.825,84,0,3.964,15,1013.25,340.389,0.01,0.018
0.89,-3.982e-4,-0.08,-7.965,0.08,8.008,-4.186e-5,0,4.186e-5,180,0.008,0.837,22.175,120.893,9.788,85.149,0,0,0,2.799e4,1.349e4,19.958,0.106,NaN,2019.705,NaN,0.012,7.793e5,48.294,2.077e-4,0.693,0.001,0.358,0.215,0.12,NaN,NaN,NaN,NaN,NaN,NaN,NaN,NaN,1.083e-5,165,213.825,84,0,3.981,15,1013.25,340.389,0.01,0.018
0.9,-3.921e-4,-0.078,-7.842,0.079,7.885,-4.121e-5,0,4.121e-5,180,0.008,0.824,22.175,120.893,9.788,85.126,0,0,0,2.799e4,1.349e4,19.957,0.106,NaN,2019.685,NaN,0.012,7.827e5,51.752,2.123e-4,0.692,0.001,0.357,0.215,0.12,NaN,NaN,NaN,NaN,NaN,NaN,NaN,NaN,1.066e-5,165,213.825,84,0,3.998,15,1013.25,340.389,0.01,0.018
0.91,-3.84e-4,-0.077,-7.679,0.077,7.722,-4.036e-5,0,4.036e-5,180,0.008,0.807,22.175,120.893,9.788,85.092,0,0,0,2.798e4,1.348e4,19.957,0.106,NaN,2019.664,NaN,0.012,7.901e5,56.319,2.206e-4,0.692,0.001,0.357,0.215,0.12,NaN,NaN,NaN,NaN,NaN,NaN,NaN,NaN,1.044e-5,165,213.825,84,0,4.036,15,1013.25,340.389,0.01,0.018
0.92,-3.761e-4,-0.075,-7.522,0.076,7.563,-3.953e-5,0,3.953e-5,180,0.008,0.791,22.175,120.893,9.788,85.06,0,0,0,2.798e4,1.348e4,19.957,0.106,NaN,2019.641,NaN,0.012,7.976e5,60.748,2.29e-4,0.691,0.001,0.356,0.215,0.12,NaN,NaN,NaN,NaN,NaN,NaN,NaN,NaN,1.022e-5,165,213.825,84,0,4.074,15,1013.25,340.389,0.01,0.019
0.93,-3.643e-4,-0.073,-7.286,0.073,7.326,-3.829e-5,0,3.829e-5,180,0.008,0.766,22.175,120.893,9.788,85.017,0,0,0,2.798e4,1.348e4,19.956,0.106,NaN,2019.615,NaN,0.012,8.051e5,67.387,2.391e-4,0.69,0.001,0.355,0.215,0.12,NaN,NaN,NaN,NaN,NaN,NaN,NaN,NaN,9.903e-6,165,213.825,84,0,4.112,15,1013.25,340.389,0.01,0.019
0.94,-3.499e-4,-0.07,-6.999,0.07,7.037,-3.678e-5,0,3.678e-5,180,0.007,0.736,22.175,120.893,9.788,84.968,0,0,0,2.798e4,1.348e4,19.956,0.106,NaN,2019.586,NaN,0.012,8.126e5,75.455,2.505e-4,0.69,0.001,0.355,0.215,0.12,NaN,NaN,NaN,NaN,NaN,NaN,NaN,NaN,9.513e-6,165,213.825,84,0,4.15,15,1013.25,340.389,0.01,0.019
0.95,-3.337e-4,-0.067,-6.674,0.067,6.71,-3.507e-5,0,3.507e-5,180,0.007,0.701,22.175,120.893,9.788,84.914,0,0,0,2.798e4,1.348e4,19.955,0.106,NaN,2019.554,NaN,0.012,8.201e5,84.603,2.629e-4,0.689,0.001,0.354,0.215,0.12,NaN,NaN,NaN,NaN,NaN,NaN,NaN,NaN,9.071e-6,165,213.825,84,0,4.188,15,1013.25,340.389,0.01,0.019
0.96,-3.135e-4,-0.063,-6.271,0.063,6.305,-3.295e-5,0,3.295e-5,180,0.007,0.659,22.175,120.893,9.788,84.86,0,0,0,2.798e4,1.348e4,19.954,0.106,NaN,2019.517,NaN,0.012,8.189e5,95.934,2.705e-4,0.689,0.001,0.354,0.215,0.12,NaN,NaN,NaN,NaN,NaN,NaN,NaN,NaN,8.523e-6,165,213.825,84,0,4.182,15,1013.25,340.389,0.01,0.019
0.97,-2.933e-4,-0.059,-5.865,0.059,5.898,-3.082e-5,0,3.082e-5,180,0.006,0.616,22.175,120.893,9.788,84.806,0,0,0,2.798e4,1.348e4,19.954,0.106,NaN,2019.476,NaN,0.012,8.178e5,107.326,2.783e-4,0.689,0.001,0.354,0.215,0.12,NaN,NaN,NaN,NaN,NaN,NaN,NaN,NaN,7.972e-6,165,213.825,84,0,4.176,15,1013.25,340.389,0.01,0.019
0.98,-2.671e-4,-0.053,-5.342,0.054,5.372,-2.808e-5,0,2.808e-5,180,0.006,0.561,22.175,120.893,9.788,84.735,0,0,0,2.797e4,1.347e4,19.953,0.106,NaN,2019.43,NaN,0.012,8.167e5,122.033,2.889e-4,0.689,0.001,0.354,0.215,0.12,NaN,NaN,NaN,NaN,NaN,NaN,NaN,NaN,7.261e-6,165,213.825,84,0,4.17,15,1013.25,340.389,0.01,0.02
0.99,-2.333e-4,-0.047,-4.667,0.047,4.692,-2.453e-5,0,2.453e-5,180,0.005,0.49,22.175,120.893,9.788,84.643,0,0,0,2.797e4,1.347e4,19.952,0.106,NaN,2019.376,NaN,0.012,8.156e5,141.022,3.033e-4,0.689,0.001,0.354,0.215,0.12,NaN,NaN,NaN,NaN,NaN,NaN,NaN,NaN,6.343e-6,165,213.825,84,0,4.163,15,1013.25,340.389,0.01,0.02
1,-1.839e-4,-0.037,-3.678,0.037,3.699,-1.933e-5,0,1.933e-5,180,0.004,0.387,22.175,120.893,9.788,84.507,0,0,0,2.797e4,1.347e4,19.951,0.106,NaN,2019.312,NaN,0.012,8.146e5,168.795,3.256e-4,0.69,0.001,0.354,0.215,0.12,NaN,NaN,NaN,NaN,NaN,NaN,NaN,NaN,5e-6,165,213.825,84,0,4.157,15,1013.25,340.389,0.01,0.02
1.01,-1.138e-4,-0.023,-2.275,0.023,2.288,-1.196e-5,0,1.196e-5,180,0.002,0.239,22.175,120.893,9.788,84.315,0,0,0,2.796e4,1.346e4,19.949,0.106,NaN,2019.232,NaN,0.012,8.12e5,208.221,3.581e-4,0.69,0.002,0.355,0.215,0.12,NaN,NaN,NaN,NaN,NaN,NaN,NaN,NaN,3.094e-6,165,213.825,84,0,4.143,15,1013.25,340.389,0.01,0.02
1.02,-4.855e-5,-0.01,-0.97,0.01,0.975,-5.103e-6,0,5.103e-6,180,0.001,0.102,22.175,120.893,9.788,84.135,0,0,0,2.796e4,1.346e4,19.948,0.106,NaN,2019.139,NaN,0.012,8.094e5,244.886,3.901e-4,0.69,0.002,0.355,0.215,0.12,NaN,NaN,NaN,NaN,NaN,NaN,NaN,NaN,1.32e-6,165,213.825,84,0,4.128,15,1013.25,340.389,0.01,0.02
1.03,2.205e-5,0.004,0.442,0.004,0.445,2.317e-6,0,2.317e-6,0,4.638e-4,0.046,22.175,120.893,9.788,83.939,0,0,0,2.795e4,1.345e4,19.946,0.106,NaN,2019.03,NaN,0.012,8.068e5,284.538,4.271e-4,0.69,0.002,0.355,0.215,0.12,NaN,NaN,NaN,NaN,NaN,NaN,NaN,NaN,5.997e-7,165,213.825,84,0,4.113,15,1013.25,340.389,0.01,0.021
1.04,1.641e-4,0.024,1.96,0.024,1.971,1.725e-5,0,1.725e-5,0,0.003,0.206,22.175,120.893,9.788,83.665,0,0,0,2.795e4,1.345e4,19.943,0.106,NaN,2018.905,NaN,0.012,8.044e5,327.142,4.834e-4,0.69,0.002,0.355,0.215,0.12,NaN,NaN,NaN,NaN,NaN,NaN,NaN,NaN,3.263e-6,165,213.825,84,0,4.099,15,1013.25,340.389,0.01,0.021
1.05,5.833e-4,0.06,3.585,0.06,3.604,6.13e-5,0,6.13e-5,0,0.006,0.377,22.175,120.893,9.788,83.162,0,0,0,2.794e4,1.344e4,19.941,0.106,NaN,2018.763,NaN,0.012,8.023e5,372.693,6.015e-4,0.691,0.003,0.355,0.215,0.12,NaN,NaN,NaN,NaN,NaN,NaN,NaN,NaN,8.133e-6,165,213.825,84,0,4.084,15,1013.25,340.389,0.01,0.021
1.06,0.001,0.115,5.563,0.116,5.594,1.534e-4,0,1.534e-4,0,0.012,0.585,22.175,120.893,9.788,82.367,0,0,0,2.793e4,1.343e4,19.938,0.106,NaN,2018.599,NaN,0.012,7.943e5,428.171,8.138e-4,0.691,0.004,0.356,0.215,0.12,NaN,NaN,NaN,NaN,NaN,NaN,NaN,NaN,1.569e-5,165,213.825,84,0,4.036,15,1013.25,340.389,0.01,0.021
1.07,0.003,0.191,7.517,0.192,7.558,3.142e-4,0,3.142e-4,0,0.02,0.79,22.175,120.893,9.788,81.278,0,0,0,2.792e4,1.342e4,19.935,0.106,NaN,2018.415,NaN,0.012,7.871e5,482.882,0.001,0.692,0.006,0.357,0.215,0.12,NaN,NaN,NaN,NaN,NaN,NaN,NaN,NaN,2.59e-5,165,213.825,84,0,3.989,15,1013.25,340.389,0.01,0.021
1.08,0.005,0.288,9.758,0.29,9.812,5.658e-4,0,5.658e-4,0,0.03,1.026,22.175,120.893,9.788,79.85,0,0,0,2.791e4,1.341e4,19.931,0.106,NaN,2018.206,NaN,0.012,7.809e5,545.617,0.002,0.693,0.009,0.357,0.215,0.12,NaN,NaN,NaN,NaN,NaN,NaN,NaN,NaN,3.916e-5,165,213.825,84,0,3.941,15,1013.249,340.389,0.01,0.021
1.09,0.009,0.411,12.305,0.413,12.372,9.333e-4,0,9.333e-4,0,0.043,1.293,22.175,120.893,9.788,78.037,0,0,0,2.79e4,1.34e4,19.927,0.106,NaN,2017.969,NaN,0.012,7.762e5,616.859,0.003,0.693,0.014,0.358,0.215,0.12,NaN,NaN,NaN,NaN,NaN,NaN,NaN,NaN,5.588e-5,165,213.825,84,0,3.893,15,1013.249,340.389,0.01,0.022
1.1,0.014,0.563,15.219,0.566,15.303,0.001,0,0.001,0,0.059,1.6,22.175,120.893,9.788,75.791,0,0,0,2.789e4,1.339e4,19.922,0.106,NaN,2017.702,NaN,0.012,7.736e5,698.307,0.005,0.693,0.023,0.358,0.215,0.12,NaN,NaN,NaN,NaN,NaN,NaN,NaN,NaN,7.656e-5,165,213.825,84,0,3.845,15,1013.248,340.389,0.01,0.022
1.11,0.02,0.746,18.289,0.75,18.39,0.002,0,0.002,0,0.078,1.922,22.175,120.893,9.788,73.178,0,0,0,2.788e4,1.338e4,19.917,0.106,NaN,2017.401,NaN,0.012,7.793e5,784.022,0.008,0.693,0.036,0.358,0.215,0.12,NaN,NaN,NaN,NaN,NaN,NaN,NaN,NaN,1.014e-4,165,213.825,84,0,3.825,15,1013.248,340.389,0.01,0.022
1.12,0.029,0.96,21.44,0.966,21.558,0.003,0,0.003,0,0.101,2.253,22.175,120.893,9.788,70.182,0,0,0,2.786e4,1.336e4,19.911,0.106,NaN,2017.066,NaN,0.012,7.886e5,871.849,0.012,0.692,0.057,0.357,0.215,0.12,NaN,NaN,NaN,NaN,NaN,NaN,NaN,NaN,1.305e-4,165,213.825,84,0,3.804,15,1013.247,340.389,0.01,0.022
1.13,0.04,1.207,24.646,1.213,24.781,0.004,0,0.004,0,0.127,2.59,22.175,120.893,9.788,66.848,0,0,0,2.784e4,1.334e4,19.904,0.106,NaN,2016.696,NaN,0.012,8.025e5,961.049,0.019,0.691,0.087,0.355,0.215,0.12,NaN,NaN,NaN,NaN,NaN,NaN,NaN,NaN,1.64e-4,165,213.825,84,0,3.783,15,1013.245,340.389,0.01,0.022
1.14,0.053,1.482,27.565,1.49,27.716,0.006,0,0.006,0,0.156,2.897,22.175,120.893,9.788,63.278,0,0,0,2.782e4,1.332e4,19.897,0.106,NaN,2016.295,NaN,0.012,8.216e5,1042.073,0.029,0.689,0.127,0.354,0.215,0.12,NaN,NaN,NaN,NaN,NaN,NaN,NaN,NaN,2.015e-4,165,213.825,84,0,3.762,15,1013.244,340.389,0.01,0.023
1.15,0.069,1.783,30.093,1.793,30.259,0.007,0,0.007,0,0.187,3.163,22.175,120.893,9.788,59.591,0,0,0,2.78e4,1.33e4,19.889,0.106,NaN,2015.866,NaN,0.013,8.462e5,1112.029,0.043,0.687,0.177,0.352,0.215,0.12,NaN,NaN,NaN,NaN,NaN,NaN,NaN,NaN,2.424e-4,165,213.825,84,0,3.742,15,1013.242,340.389,0.01,0.023
1.16,0.089,2.106,32.29,2.117,32.468,0.009,0,0.009,0,0.221,3.394,22.175,120.893,9.788,56.377,0,0,0,2.778e4,1.328e4,19.881,0.106,NaN,2015.413,NaN,0.013,8.907e5,1172.553,0.061,0.683,0.227,0.348,0.215,0.12,NaN,NaN,NaN,NaN,NaN,NaN,NaN,NaN,2.862e-4,165,213.825,84,0,3.803,14.999,1013.24,340.389,0.01,0.023
1.17,0.112,2.446,34.029,2.459,34.216,0.012,0,0.012,0,0.257,3.577,22.175,120.893,9.788,53.31,0,0,0,2.776e4,1.326e4,19.873,0.105,NaN,2014.941,NaN,0.014,9.398e5,1220.187,0.084,0.679,0.279,0.344,0.215,0.12,NaN,NaN,NaN,NaN,NaN,NaN,NaN,NaN,3.325e-4,165,213.825,84,0,3.864,14.999,1013.237,340.388,0.01,0.023
1.18,0.138,2.799,35.306,2.814,35.5,0.014,0,0.014,0,0.294,3.711,22.175,120.893,9.788,50.442,0,0,0,2.774e4,1.324e4,19.864,0.105,NaN,2014.455,NaN,0.015,9.929e5,1254.818,0.111,0.676,0.332,0.341,0.215,0.12,NaN,NaN,NaN,NaN,NaN,NaN,NaN,NaN,3.804e-4,165,213.825,84,0,3.925,14.999,1013.234,340.388,0.01,0.023
1.19,0.168,3.16,36.107,3.177,36.306,0.018,0,0.018,0,0.332,3.795,22.175,120.893,9.788,47.807,0,0,0,2.771e4,1.321e4,19.855,0.105,NaN,2013.959,NaN,0.016,1.049e6,1276.135,0.143,0.672,0.382,0.337,0.215,0.12,NaN,NaN,NaN,NaN,NaN,NaN,NaN,NaN,4.295e-4,165,213.825,84,0,3.986,14.999,1013.23,340.388,0.01,0.023
1.2,0.201,3.526,36.66,3.546,36.862,0.021,0,0.021,0,0.371,3.853,22.175,120.893,9.788,45.405,0,0,0,2.769e4,1.319e4,19.846,0.105,NaN,2013.458,NaN,0.017,1.109e6,1290.479,0.18,0.668,0.429,0.333,0.215,0.12,NaN,NaN,NaN,NaN,NaN,NaN,NaN,NaN,4.793e-4,165,213.825,84,0,4.047,14.999,1013.226,340.388,0.01,0.024
1.21,0.238,3.896,36.966,3.917,37.169,0.025,0,0.025,0,0.409,3.885,22.175,120.893,9.788,42.612,0,0,0,2.767e4,1.317e4,19.837,0.105,NaN,2012.952,NaN,0.017,1.156e6,1297.933,0.221,0.666,0.486,0.331,0.215,0.12,NaN,NaN,NaN,NaN,NaN,NaN,NaN,NaN,5.295e-4,165,213.825,84,0,4.011,14.998,1013.222,340.388,0.01,0.024
1.22,0.279,4.266,37.025,4.289,37.229,0.029,0,0.029,0,0.448,3.891,22.175,120.893,9.788,40.039,0,0,0,2.764e4,1.314e4,19.828,0.105,NaN,2012.446,NaN,0.018,1.205e6,1298.512,0.266,0.663,0.538,0.328,0.215,0.12,NaN,NaN,NaN,NaN,NaN,NaN,NaN,NaN,5.798e-4,165,213.825,84,0,3.975,14.998,1013.217,340.388,0.01,0.024
1.23,0.324,4.636,37.067,4.662,37.271,0.034,0,0.034,0,0.487,3.896,22.175,120.893,9.788,37.672,0,0,0,2.762e4,1.312e4,19.819,0.105,NaN,2011.938,NaN,0.019,1.257e6,1298.633,0.315,0.66,0.585,0.325,0.215,0.12,NaN,NaN,NaN,NaN,NaN,NaN,NaN,NaN,6.301e-4,165,213.825,84,0,3.939,14.998,1013.212,340.388,0.01,0.024
1.24,0.372,5.006,36.973,5.033,37.177,0.039,0,0.039,0,0.526,3.886,22.175,120.893,9.788,35.5,0,0,0,2.76e4,1.31e4,19.81,0.105,NaN,2011.431,NaN,0.02,1.311e6,1294.965,0.366,0.658,0.626,0.323,0.215,0.12,NaN,NaN,NaN,NaN,NaN,NaN,NaN,NaN,6.804e-4,165,213.825,84,0,3.903,14.998,1013.206,340.387,0.01,0.024
1.25,0.424,5.374,36.887,5.404,37.09,0.045,0,0.045,0,0.565,3.877,22.175,120.893,9.788,33.506,0,0,0,2.757e4,1.307e4,19.801,0.105,NaN,2010.925,NaN,0.02,1.366e6,1291.53,0.421,0.655,0.663,0.32,0.215,0.12,NaN,NaN,NaN,NaN,NaN,NaN,NaN,NaN,7.305e-4,165,213.825,84,0,3.866,14.997,1013.2,340.387,0.01,0.025
1.26,0.479,5.742,36.799,5.774,37.002,0.05,0,0.05,0,0.604,3.868,22.175,120.893,9.788,31.954,0,0,0,2.755e4,1.305e4,19.792,0.105,NaN,2010.419,NaN,0.021,1.428e6,1288.052,0.478,0.652,0.689,0.317,0.215,0.12,NaN,NaN,NaN,NaN,NaN,NaN,NaN,NaN,7.805e-4,165,213.825,84,0,3.875,14.997,1013.194,340.387,0.01,0.025
1.27,0.538,6.109,36.687,6.142,36.889,0.057,0,0.057,0,0.642,3.856,22.175,120.893,9.788,30.537,0,0,0,2.753e4,1.303e4,19.783,0.105,NaN,2009.914,NaN,0.022,1.491e6,1283.912,0.538,0.65,0.711,0.315,0.215,0.12,NaN,NaN,NaN,NaN,NaN,NaN,NaN,NaN,8.303e-4,165,213.825,84,0,3.884,14.997,1013.187,340.387,0.01,0.025
1.28,0.601,6.475,36.653,6.511,36.855,0.063,0,0.063,0,0.681,3.852,22.175,120.893,9.788,29.236,0,0,0,2.75e4,1.3e4,19.774,0.105,NaN,2009.409,NaN,0.023,1.555e6,1281.967,0.6,0.647,0.729,0.312,0.215,0.12,NaN,NaN,NaN,NaN,NaN,NaN,NaN,NaN,8.801e-4,165,213.825,84,0,3.893,14.996,1013.179,340.387,0.01,0.025
1.29,0.668,6.841,36.57,6.878,36.772,0.07,0,0.07,0,0.719,3.844,22.175,120.893,9.788,28.041,0,0,0,2.748e4,1.298e4,19.765,0.105,NaN,2008.904,NaN,0.024,1.619e6,1278.651,0.665,0.645,0.745,0.31,0.215,0.12,NaN,NaN,NaN,NaN,NaN,NaN,NaN,NaN,9.298e-4,165,213.825,84,0,3.902,14.996,1013.172,340.386,0.01,0.025
1.3,0.738,7.206,36.528,7.245,36.73,0.078,0,0.078,0,0.757,3.839,22.175,120.893,9.788,26.939,0,0,0,2.746e4,1.296e4,19.756,0.105,NaN,2008.399,NaN,0.025,1.684e6,1276.485,0.732,0.643,0.759,0.307,0.215,0.12,NaN,NaN,NaN,NaN,NaN,NaN,NaN,NaN,9.794e-4,165,213.825,84,0,3.911,14.995,1013.163,340.386,0.01,0.025
1.31,0.812,7.571,36.523,7.613,36.724,0.085,0,0.085,0,0.796,3.839,22.175,120.893,9.788,25.877,0,0,0,2.743e4,1.293e4,19.747,0.105,NaN,2007.894,NaN,0.026,1.748e6,1275.318,0.802,0.641,0.77,0.305,0.215,0.12,NaN,NaN,NaN,NaN,NaN,NaN,NaN,NaN,0.001,165,213.825,84,0,3.913,14.995,1013.155,340.386,0.01,0.026
1.32,0.89,7.936,36.494,7.979,36.695,0.093,0,0.093,0,0.834,3.836,22.175,120.893,9.788,24.892,0,0,0,2.741e4,1.291e4,19.738,0.105,NaN,2007.388,NaN,0.027,1.813e6,1273.528,0.873,0.638,0.78,0.303,0.215,0.12,NaN,NaN,NaN,NaN,NaN,NaN,NaN,NaN,0.001,165,213.825,84,0,3.914,14.994,1013.146,340.385,0.01,0.026
1.33,0.971,8.301,36.544,8.347,36.745,0.102,0,0.102,0,0.872,3.841,22.175,120.893,9.788,23.974,0,0,0,2.739e4,1.289e4,19.729,0.105,NaN,2006.882,NaN,0.028,1.879e6,1273.891,0.947,0.636,0.788,0.301,0.215,0.12,NaN,NaN,NaN,NaN,NaN,NaN,NaN,NaN,0.001,165,213.825,84,0,3.915,14.994,1013.136,340.385,0.01,0.026
1.34,1.056,8.666,36.52,8.714,36.721,0.111,0,0.111,0,0.911,3.838,22.175,120.893,9.788,23.119,0,0,0,2.736e4,1.286e4,19.72,0.105,NaN,2006.376,NaN,0.029,1.945e6,1272.247,1.023,0.635,0.794,0.299,0.215,0.12,NaN,NaN,NaN,NaN,NaN,NaN,NaN,NaN,0.001,165,213.825,84,0,3.916,14.993,1013.126,340.385,0.01,0.026
1.35,1.144,9.031,36.53,9.081,36.731,0.12,0,0.12,0,0.949,3.839,22.175,120.893,9.788,22.32,0,0,0,2.734e4,1.284e4,19.711,0.105,NaN,2005.868,NaN,0.03,2.012e6,1271.517,1.101,0.633,0.799,0.297,0.215,0.12,NaN,NaN,NaN,NaN,NaN,NaN,NaN,NaN,0.001,165,213.825,84,0,3.917,14.993,1013.116,340.384,0.01,0.026
1.36,1.236,9.396,36.567,9.448,36.768,0.13,0,0.13,0,0.988,3.843,22.175,120.893,9.788,21.574,0,0,0,2.732e4,1.282e4,19.702,0.105,NaN,2005.361,NaN,0.031,2.079e6,1271.539,1.181,0.631,0.802,0.296,0.215,0.12,NaN,NaN,NaN,NaN,NaN,NaN,NaN,NaN,0.001,165,213.825,84,0,3.919,14.992,1013.105,340.384,0.01,0.027
1.37,1.332,9.762,36.583,9.816,36.784,0.14,0,0.14,0,1.026,3.845,22.175,120.893,9.788,20.875,0,0,0,2.729e4,1.279e4,19.693,0.105,NaN,2004.852,NaN,0.032,2.146e6,1270.983,1.263,0.629,0.805,0.294,0.215,0.12,NaN,NaN,NaN,NaN,NaN,NaN,NaN,NaN,0.001,165,213.825,84,0,3.921,14.991,1013.094,340.384,0.01,0.027
1.38,1.431,10.129,36.699,10.185,36.901,0.15,0,0.15,0,1.065,3.857,22.175,120.893,9.788,20.217,0,0,0,2.727e4,1.277e4,19.684,0.105,NaN,2004.342,NaN,0.033,2.214e6,1273.167,1.347,0.628,0.807,0.292,0.215,0.12,NaN,NaN,NaN,NaN,NaN,NaN,NaN,NaN,0.001,165,213.825,84,0,3.923,14.991,1013.082,340.383,0.01,0.027
1.39,1.535,10.496,36.739,10.554,36.941,0.161,0,0.161,0,1.103,3.861,22.175,120.893,9.788,19.597,0,0,0,2.725e4,1.275e4,19.675,0.105,NaN,2003.83,NaN,0.034,2.282e6,1273.278,1.433,0.626,0.808,0.291,0.215,0.12,NaN,NaN,NaN,NaN,NaN,NaN,NaN,NaN,0.001,165,213.825,84,0,3.925,14.99,1013.07,340.383,0.01,0.027
1.4,1.641,10.864,36.826,10.924,37.029,0.173,0,0.173,0,1.142,3.871,22.175,120.893,9.788,19.012,0,0,0,2.723e4,1.273e4,19.666,0.105,NaN,2003.318,NaN,0.035,2.351e6,1274.663,1.521,0.624,0.808,0.289,0.215,0.12,NaN,NaN,NaN,NaN,NaN,NaN,NaN,NaN,0.001,165,213.825,84,0,3.927,14.989,1013.057,340.382,0.01,0.027
1.41,1.752,11.233,36.933,11.295,37.136,0.184,0,0.184,0,1.181,3.882,22.175,120.893,9.788,18.083,0,0,0,2.72e4,1.27e4,19.657,0.105,NaN,2002.803,NaN,0.036,2.413e6,1276.588,1.604,0.623,0.809,0.288,0.215,0.12,NaN,NaN,NaN,NaN,NaN,NaN,NaN,NaN,0.002,165,213.825,84,0,3.84,14.989,1013.045,340.382,0.01,0.028
1.42,1.866,11.603,37.001,11.667,37.205,0.196,0,0.196,0,1.22,3.889,22.175,120.893,9.788,17.2,0,0,0,2.718e4,1.268e4,19.648,0.105,NaN,2002.288,NaN,0.037,2.475e6,1277.444,1.691,0.623,0.81,0.288,0.215,0.12,NaN,NaN,NaN,NaN,NaN,NaN,NaN,NaN,0.002,165,213.825,84,0,3.753,14.988,1013.031,340.382,0.01,0.028
1.43,1.984,11.974,37.136,12.04,37.341,0.209,0,0.209,0,1.259,3.903,22.175,120.893,9.788,16.358,0,0,0,2.716e4,1.266e4,19.639,0.105,NaN,2001.77,NaN,0.038,2.539e6,1280.14,1.777,0.623,0.809,0.288,0.215,0.12,NaN,NaN,NaN,NaN,NaN,NaN,NaN,NaN,0.002,165,213.825,84,0,3.667,14.987,1013.017,340.381,0.01,0.028
1.44,2.106,12.346,37.193,12.414,37.398,0.221,0,0.221,0,1.298,3.909,22.175,120.893,9.788,15.558,0,0,0,2.713e4,1.263e4,19.629,0.105,NaN,2001.252,NaN,0.039,2.603e6,1280.681,1.861,0.623,0.806,0.288,0.215,0.12,NaN,NaN,NaN,NaN,NaN,NaN,NaN,NaN,0.002,165,213.825,84,0,3.58,14.986,1013.003,340.381,0.01,0.028
1.45,2.231,12.719,37.303,12.789,37.508,0.234,0,0.234,0,1.337,3.921,22.175,120.893,9.788,14.794,0,0,0,2.711e4,1.261e4,19.62,0.105,NaN,2000.731,NaN,0.04,2.668e6,1282.653,1.943,0.623,0.802,0.288,0.215,0.12,NaN,NaN,NaN,NaN,NaN,NaN,NaN,NaN,0.002,165,213.825,84,0,3.493,14.985,1012.988,340.38,0.01,0.028
1.46,2.36,13.093,37.421,13.165,37.627,0.248,0,0.248,0,1.376,3.933,22.175,120.893,9.788,14.225,0,0,0,2.709e4,1.259e4,19.611,0.104,NaN,2000.209,NaN,0.041,2.736e6,1284.861,2.032,0.623,0.797,0.288,0.215,0.12,NaN,NaN,NaN,NaN,NaN,NaN,NaN,NaN,0.002,165,213.825,84,0,3.448,14.985,1012.973,340.38,0.01,0.029
1.47,2.493,13.467,37.475,13.542,37.681,0.262,0,0.262,0,1.415,3.939,22.175,120.893,9.788,13.683,0,0,0,2.706e4,1.256e4,19.602,0.104,NaN,1999.686,NaN,0.042,2.805e6,1285.292,2.121,0.623,0.792,0.288,0.215,0.12,NaN,NaN,NaN,NaN,NaN,NaN,NaN,NaN,0.002,165,213.825,84,0,3.402,14.984,1012.958,340.379,0.01,0.029
1.48,2.629,13.843,37.596,13.92,37.804,0.276,0,0.276,0,1.455,3.952,22.175,120.893,9.788,13.166,0,0,0,2.704e4,1.254e4,19.592,0.104,NaN,1999.161,NaN,0.043,2.874e6,1287.587,2.211,0.623,0.786,0.288,0.215,0.12,NaN,NaN,NaN,NaN,NaN,NaN,NaN,NaN,0.002,165,213.825,84,0,3.357,14.983,1012.942,340.379,0.01,0.029
1.49,2.77,14.22,37.643,14.298,37.85,0.291,0,0.291,0,1.495,3.956,22.175,120.893,9.788,12.673,0,0,0,2.702e4,1.252e4,19.583,0.104,NaN,1998.635,NaN,0.044,2.943e6,1287.832,2.301,0.623,0.78,0.288,0.215,0.12,NaN,NaN,NaN,NaN,NaN,NaN,NaN,NaN,0.002,165,213.825,84,0,3.311,14.982,1012.925,340.378,0.01,0.029
1.5,2.914,14.596,37.714,14.677,37.922,0.306,0,0.306,0,1.534,3.964,22.175,120.893,9.788,12.202,0,0,0,2.699e4,1.249e4,19.574,0.104,NaN,1998.108,NaN,0.045,3.013e6,1288.735,2.393,0.623,0.774,0.288,0.215,0.12,NaN,NaN,NaN,NaN,NaN,NaN,NaN,NaN,0.002,165,213.825,84,0,3.266,14.981,1012.908,340.377,0.01,0.029
1.51,3.062,14.974,37.796,15.057,38.004,0.322,0,0.322,0,1.574,3.973,22.175,120.893,9.788,11.978,0,0,0,2.697e4,1.247e4,19.564,0.104,NaN,1997.579,NaN,0.046,3.087e6,1289.948,2.502,0.623,0.771,0.288,0.215,0.12,NaN,NaN,NaN,NaN,NaN,NaN,NaN,NaN,0.002,165,213.825,84,0,3.285,14.98,1012.891,340.377,0.01,0.029
1.52,3.213,15.352,37.812,15.437,38.02,0.338,0,0.338,0,1.614,3.974,22.175,120.893,9.788,11.764,0,0,0,2.695e4,1.244e4,19.555,0.104,NaN,1997.049,NaN,0.047,3.161e6,1289.376,2.614,0.623,0.768,0.288,0.215,0.12,NaN,NaN,NaN,NaN,NaN,NaN,NaN,NaN,0.002,165,213.825,84,0,3.305,14.979,1012.873,340.376,0.01,0.03
1.53,3.369,15.732,37.952,15.818,38.161,0.354,0,0.354,0,1.653,3.989,22.175,120.893,9.788,11.558,0,0,0,2.692e4,1.242e4,19.546,0.104,NaN,1996.518,NaN,0.048,3.235e6,1292.164,2.728,0.623,0.765,0.288,0.215,0.12,NaN,NaN,NaN,NaN,NaN,NaN,NaN,NaN,0.002,165,213.825,84,0,3.324,14.978,1012.855,340.376,0.01,0.03
1.54,3.528,16.112,38.022,16.2,38.232,0.371,0,0.371,0,1.693,3.996,22.175,120.893,9.788,11.362,0,0,0,2.69e4,1.24e4,19.536,0.104,NaN,1995.985,NaN,0.05,3.31e6,1293.051,2.844,0.623,0.762,0.288,0.215,0.12,NaN,NaN,NaN,NaN,NaN,NaN,NaN,NaN,0.002,165,213.825,84,0,3.344,14.977,1012.836,340.375,0.01,0.03
1.55,3.691,16.493,38.128,16.583,38.338,0.388,0,0.388,0,1.733,4.007,22.175,120.893,9.788,11.173,0,0,0,2.687e4,1.237e4,19.527,0.104,NaN,1995.451,NaN,0.051,3.384e6,1294.89,2.964,0.623,0.76,0.288,0.215,0.12,NaN,NaN,NaN,NaN,NaN,NaN,NaN,NaN,0.002,165,213.825,84,0,3.363,14.976,1012.817,340.374,0.01,0.03
1.56,3.858,16.875,38.253,16.968,38.463,0.405,0,0.405,0,1.774,4.021,22.175,120.893,9.788,11.049,0,0,0,2.685e4,1.235e4,19.517,0.104,NaN,1994.914,NaN,0.052,3.461e6,1297.251,3.091,0.623,0.758,0.288,0.215,0.12,NaN,NaN,NaN,NaN,NaN,NaN,NaN,NaN,0.002,165,213.825,84,0,3.401,14.975,1012.798,340.374,0.01,0.03
1.57,4.028,17.258,38.272,17.353,38.483,0.423,0,0.423,0,1.814,4.023,22.175,120.893,9.788,10.929,0,0,0,2.683e4,1.233e4,19.508,0.104,NaN,1994.377,NaN,0.053,3.537e6,1296.778,3.221,0.624,0.756,0.288,0.215,0.12,NaN,NaN,NaN,NaN,NaN,NaN,NaN,NaN,0.002,165,213.825,84,0,3.439,14.974,1012.778,340.373,0.01,0.031
1.585,4.291,17.832,38.34,17.931,38.613,0.451,1.137e-8,0.451,1.444e-6,1.883,4.582,22.175,120.893,9.788,10.784,0,0.04,5.498e-6,2.679e4,1.229e4,19.493,0.104,2068.384,1993.568,0.453,0.055,3.652e6,1298.654,3.424,0.624,0.754,0.288,0.215,0.12,2.782,1.261,1.458e-4,0,0,0,0,5.285e-6,0.002,165,213.825,84,-8.291e-8,3.496,14.972,1012.747,340.372,0.015,0.031
1.608,4.702,18.698,38.545,18.804,38.815,0.495,7.23e-8,0.495,8.375e-6,1.986,4.572,22.175,120.893,9.788,10.554,0,0.106,2.44e-5,2.674e4,1.224e4,19.472,0.104,2071.491,1992.348,0.48,0.057,3.824e6,1301.804,3.738,0.624,0.75,0.288,0.215,0.12,2.706,1.299,4.134e-4,0,0,0,0,3.421e-5,0.003,165,213.825,83.998,-1.388e-6,3.573,14.969,1012.698,340.37,0.023,0.031
1.641,5.356,20.008,38.885,20.122,39.152,0.564,2.676e-7,0.564,2.717e-5,2.14,4.566,22.175,120.893,9.788,10.173,0,0.222,4.92e-6,2.666e4,1.216e4,19.439,0.104,2076.751,1990.501,0.523,0.061,4.084e6,1307.398,4.23,0.624,0.744,0.288,0.215,0.12,2.583,1.35,-4.442e-4,0,0,0,0,1.307e-4,0.003,165,213.825,83.993,-6.711e-6,3.665,14.965,1012.622,340.368,0.034,0.031
1.691,6.405,21.969,39.312,22.096,39.569,0.677,8.023e-7,0.677,6.79e-5,2.368,4.505,22.175,120.893,9.788,10.206,0,0.431,-3.405e-5,2.654e4,1.204e4,19.39,0.104,2076.336,1987.731,0.537,0.067,4.485e6,1313.533,5.106,0.624,0.745,0.288,0.215,0.121,2.593,1.392,3.466e-4,0,0,0,0,4.081e-4,0.003,165,213.825,83.976,-8.532e-6,4.027,14.958,1012.499,340.364,0.05,0.031
1.741,7.553,23.958,39.891,24.098,40.154,0.801,1.655e-6,0.801,1.184e-4,2.596,4.596,22.175,120.893,9.788,8.886,0,0.692,-1.044e-4,2.642e4,1.192e4,19.34,0.104,2095.453,1984.915,0.67,0.073,4.86e6,1323.765,5.825,0.624,0.724,0.288,0.216,0.121,2.179,1.459,-1.44e-4,0,0,0,0,8.937e-4,0.003,165,213.825,83.949,1.316e-5,3.796,14.951,1012.364,340.359,0.05,0.032
1.791,8.802,25.979,40.52,26.133,40.784,0.937,2.86e-6,0.937,1.749e-4,2.828,4.629,22.175,120.893,9.788,8.457,0,1.006,-3.817e-5,2.63e4,1.18e4,19.29,0.103,2102.04,1982.048,0.727,0.079,5.26e6,1335.184,6.76,0.624,0.717,0.288,0.216,0.121,2.049,1.489,-4.847e-5,0,0,0,0,0.002,0.004,165,213.825,83.906,3.616e-5,3.915,14.943,1012.218,340.354,0.05,0.032
1.841,10.152,28.034,41.194,28.201,41.459,1.084,4.449e-6,1.084,2.352e-4,3.062,4.682,22.175,120.893,9.788,8.048,0,1.38,7.626e-6,2.617e4,1.167e4,19.238,0.103,2108.495,1979.127,0.784,0.085,5.667e6,1347.677,7.774,0.624,0.711,0.288,0.216,0.121,1.928,1.509,-3.791e-4,0,0,0,0,0.003,0.004,165,213.825,83.847,4.447e-5,4.033,14.934,1012.059,340.349,0.05,0.032
1.891,11.606,30.129,41.996,30.309,42.273,1.243,6.454e-6,1.243,2.975e-4,3.301,4.829,22.175,120.893,9.788,7.248,0,1.815,1.152e-4,2.605e4,1.155e4,19.185,0.103,2121.579,1976.143,0.881,0.091,6.071e6,1363.475,8.761,0.625,0.698,0.288,0.216,0.121,1.697,1.491,4.957e-4,0,0,0,0,0.004,0.004,165,213.825,83.767,3.557e-5,3.922,14.925,1011.889,340.343,0.05,0.032
1.941,13.165,32.256,42.653,32.451,42.941,1.414,8.9e-6,1.414,3.606e-4,3.547,4.958,22.175,120.893,9.788,6.709,0,2.305,1.26e-5,2.593e4,1.143e4,19.132,0.103,2130.799,1973.105,0.956,0.097,6.487e6,1375.364,9.884,0.625,0.689,0.288,0.216,0.121,1.546,1.472,2.046e-4,0,0,0,0,0.006,0.004,165,213.825,83.665,2.352e-5,3.927,14.914,1011.706,340.337,0.05,0.032
1.991,14.832,34.421,43.395,34.63,43.703,1.598,1.181e-5,1.598,4.236e-4,3.801,5.181,22.175,120.893,9.788,5.898,0,2.852,9.084e-5,2.58e4,1.13e4,19.077,0.103,2145.28,1970.006,1.062,0.104,6.903e6,1389.417,10.994,0.625,0.677,0.288,0.216,0.121,1.326,1.401,4.349e-4,0,0,0,0,0.008,0.005,165,213.825,83.536,1.581e-5,3.743,14.904,1011.51,340.33,0.05,0.033
2.041,16.609,36.635,44.378,36.86,44.72,1.795,1.522e-5,1.795,4.858e-4,4.071,5.517,22.175,120.893,9.788,4.898,0,3.425,-8.758e-5,2.567e4,1.117e4,19.021,0.102,2164.234,1966.831,1.196,0.11,7.323e6,1409.711,12.118,0.625,0.663,0.288,0.216,0.122,1.068,1.267,-1.679e-4,0,0,0,0,0.01,0.005,165,213.825,83.379,3.478e-5,3.395,14.892,1011.302,340.323,0.05,0.033
2.091,18.497,38.892,45.247,39.135,45.608,2.005,1.915e-5,2.005,5.471e-4,4.354,5.727,22.175,120.893,9.788,4.751,-4.645e-7,4.027,-2.121e-4,2.554e4,1.104e4,18.964,0.102,2167.202,1963.584,1.234,0.117,7.774e6,1426.753,13.623,0.625,0.661,0.287,0.216,0.122,1.031,1.26,1.154e-4,0,0,0,0,0.012,0.005,165,213.825,83.193,6.337e-5,3.599,14.88,1011.081,340.316,0.05,0.033
2.141,20.498,41.178,45.834,41.44,46.221,2.23,2.364e-5,2.23,6.074e-4,4.647,5.971,22.175,120.893,9.788,4.463,-3.662e-7,4.709,-9.085e-5,2.541e4,1.091e4,18.906,0.102,2173.025,1960.282,1.289,0.123,8.228e6,1436.554,15.182,0.626,0.658,0.287,0.216,0.122,0.96,1.223,3.854e-5,0,0,0,0,0.014,0.006,165,213.825,82.975,9.816e-5,3.722,14.867,1010.846,340.308,0.05,0.033
2.191,22.615,43.498,46.5,43.78,46.92,2.47,2.875e-5,2.47,6.668e-4,4.955,6.265,22.175,120.893,9.788,4.197,5.349e-7,5.443,1.138e-4,2.528e4,1.078e4,18.847,0.102,2178.528,1956.918,1.343,0.13,8.69e6,1448.404,16.859,0.626,0.655,0.287,0.216,0.122,0.895,1.184,7.491e-5,0,0,0,0,0.017,0.006,165,213.825,82.721,1.306e-4,3.876,14.853,1010.598,340.3,0.05,0.033
2.241,24.849,45.853,47.192,46.156,47.673,2.726,3.451e-5,2.726,7.254e-4,5.281,6.751,22.175,120.893,9.788,3.427,5.154e-7,6.205,1.666e-4,2.515e4,1.065e4,18.787,0.102,2194.811,1953.489,1.463,0.137,9.144e6,1461.178,18.425,0.626,0.646,0.287,0.217,0.122,0.713,1.022,-4.428e-5,0,0,0,0,0.02,0.006,165,213.825,82.43,1.638e-4,3.63,14.838,1010.336,340.291,0.05,0.033
2.291,27.201,48.232,47.662,48.559,48.198,2.999,4.098e-5,2.999,7.83e-4,5.63,7.174,22.175,120.893,9.788,3.025,8.789e-7,6.93,9.234e-5,2.501e4,1.051e4,18.726,0.101,2203.733,1950.006,1.538,0.144,9.614e6,1468.288,20.253,0.627,0.643,0.287,0.217,0.123,0.621,0.932,4.401e-4,0,0,0,0,0.023,0.007,165,213.825,82.102,2.139e-4,3.678,14.823,1010.06,340.282,0.05,0.034
2.341,29.672,50.612,47.695,50.966,48.298,3.289,4.822e-5,3.289,8.399e-4,5.999,7.607,22.175,120.893,9.788,2.581,1.358e-6,7.67,3.301e-4,2.488e4,1.038e4,18.664,0.101,2213.886,1946.495,1.621,0.151,1.008e7,1464.702,22.157,0.627,0.639,0.287,0.217,0.123,0.522,0.82,-5.361e-5,0,0,0,0,0.025,0.007,165,213.825,81.737,3.208e-4,3.696,14.807,1009.77,340.272,0.05,0.034
2.391,32.262,52.993,47.691,53.377,48.374,3.599,5.632e-5,3.599,8.966e-4,6.391,8.101,22.175,120.893,9.788,2.109,6.098e-7,8.365,-4.039e-5,2.475e4,1.025e4,18.602,0.101,2225.028,1942.956,1.71,0.159,1.055e7,1460.577,24.147,0.628,0.636,0.287,0.217,0.123,0.419,0.689,-7.745e-5,0,0,0,0,0.028,0.007,165,213.825,81.335,4.591e-4,3.692,14.79,1009.466,340.262,0.05,0.034
2.441,34.971,55.375,47.723,55.792,48.5,3.929,6.539e-5,3.929,9.536e-4,6.809,8.646,22.175,120.893,9.788,1.666,7.478e-7,8.993,3.232e-5,2.461e4,1.011e4,18.539,0.101,2235.841,1939.385,1.797,0.166,1.103e7,1457.734,26.256,0.628,0.633,0.287,0.217,0.124,0.326,0.557,8.621e-5,0,0,0,0,0.029,0.008,165,213.825,80.901,6.213e-4,3.719,14.773,1009.148,340.251,0.05,0.034
2.491,37.799,57.739,47.33,58.192,48.205,4.28,7.557e-5,4.28,0.001,7.251,9.145,22.175,120.893,9.788,1.299,1.672e-6,9.542,4.678e-4,2.448e4,9982.7,18.477,0.101,2245.09,1935.809,1.874,0.173,1.15e7,1444.705,28.488,0.628,0.632,0.287,0.218,0.124,0.251,0.441,-8.837e-5,0,0,0,0,0.03,0.008,165,213.825,80.438,7.661e-4,3.827,14.754,1008.817,340.24,0.05,0.034
2.541,40.745,60.095,47.191,60.589,48.175,4.654,8.699e-5,4.654,0.001,7.721,9.69,22.175,120.893,9.788,1.027,1.153e-6,10.015,8.233e-4,2.435e4,9851.919,18.414,0.1,2252.136,1932.21,1.939,0.18,1.197e7,1438.362,30.864,0.629,0.631,0.287,0.218,0.124,0.197,0.351,-6.543e-6,0,0,0,0,0.031,0.008,165,213.825,79.948,8.383e-4,4.046,14.735,1008.471,340.228,0.05,0.035
2.591,43.808,62.438,46.893,62.977,48.033,5.053,9.977e-5,5.053,0.001,8.221,10.404,22.175,120.893,9.788,0.374,-4.119e-6,10.341,0.002,2.422e4,9721.977,18.351,0.1,2269.487,1928.595,2.066,0.187,1.243e7,1429.136,33.209,0.629,0.63,0.287,0.218,0.125,0.07,0.114,1.659e-4,0,0,0,0,0.03,0.009,165,213.825,79.439,8.468e-4,3.842,14.715,1008.112,340.216,0.05,0.035
2.641,46.989,64.789,47.037,65.378,48.356,5.477,1.14e-4,5.477,0.001,8.762,11.218,22.175,120.893,9.788,0.225,-4.026e-6,-10.324,0.005,2.409e4,9591.843,18.287,0.1,2273.674,1924.936,2.114,0.194,1.289e7,1431.244,35.743,0.63,0.63,0.287,0.218,0.125,0.042,0.117,-4.938e-4,0,0,0,0,-0.028,0.009,165,213.825,78.921,8.597e-4,3.658,14.695,1007.739,340.204,0.05,0.035
2.691,50.287,67.141,47.069,67.788,48.569,5.93,1.297e-4,5.93,0.001,9.342,11.976,22.175,120.893,9.788,0.666,3.58e-6,-10.008,0.001,2.396e4,9461.748,18.222,0.1,2261.985,1921.238,2.065,0.201,1.336e7,1430.823,38.468,0.63,0.631,0.287,0.218,0.125,0.126,0.285,-3.986e-4,0,0,0,0,-0.025,0.009,165,213.825,78.411,9.665e-4,3.613,14.673,1007.352,340.191,0.05,0.035
2.741,53.703,69.502,47.246,70.212,48.929,6.412,1.471e-4,6.412,0.001,9.961,12.724,22.175,120.893,9.788,0.992,4.891e-6,-9.437,5.46e-4,2.383e4,9331.363,18.157,0.1,2253.622,1917.492,2.037,0.208,1.383e7,1433.995,41.354,0.631,0.633,0.287,0.219,0.126,0.19,0.408,-2.927e-4,0,0,0,0,-0.02,0.009,165,213.825,77.924,0.001,3.653,14.651,1006.951,340.177,0.05,0.035
2.791,57.238,71.881,47.593,72.66,49.469,6.926,1.664e-4,6.926,0.001,10.618,13.494,22.175,120.893,9.788,1.289,-3.19e-6,-8.618,0.002,2.37e4,9200.305,18.091,0.099,2246.225,1913.685,2.015,0.215,1.431e7,1441.415,44.391,0.631,0.634,0.287,0.219,0.126,0.249,0.519,-3.218e-4,0,0,0,0,-0.016,0.01,165,213.825,77.472,0.001,3.665,14.628,1006.537,340.163,0.05,0.036
2.841,60.892,74.273,47.866,75.13,49.95,7.474,1.879e-4,7.474,0.001,11.314,14.277,22.175,120.893,9.788,1.646,-9.691e-7,-7.511,0.002,2.357e4,9068.707,18.023,0.099,2237.493,1909.819,1.986,0.223,1.479e7,1447.346,47.578,0.632,0.637,0.286,0.219,0.126,0.323,0.653,-2.031e-4,0,0,0,0,-0.011,0.01,165,213.825,77.068,0.002,3.507,14.604,1006.108,340.149,0.05,0.036
2.891,64.665,76.659,47.736,77.599,49.995,8.058,2.117e-4,8.058,0.002,12.042,14.858,22.175,120.893,9.787,1.883,-8.365e-7,-6.084,9.232e-4,2.344e4,8937.495,17.955,0.099,2231.893,1905.922,1.976,0.23,1.526e7,1443.113,50.867,0.633,0.639,0.286,0.219,0.127,0.373,0.744,-1.162e-4,0,0,0,0,-0.007,0.011,165,213.825,76.727,0.002,3.399,14.58,1005.666,340.134,0.05,0.036
2.941,68.557,79.031,47.473,80.059,49.874,8.679,2.384e-4,8.679,0.002,12.794,15.287,22.175,120.893,9.787,2.036,-2.524e-6,-4.404,0.001,2.331e4,8806.998,17.887,0.099,2228.407,1902.002,1.978,0.237,1.573e7,1435.232,54.226,0.633,0.641,0.286,0.22,0.127,0.405,0.805,3.129e-4,0,0,0,0,-0.003,0.011,165,213.825,76.464,0.002,3.283,14.554,1005.209,340.119,0.05,0.036
2.991,72.568,81.413,47.717,82.535,50.176,9.338,2.681e-4,9.338,0.002,13.566,15.517,22.175,120.893,9.787,1.894,-2.23e-6,-2.571,0.001,2.318e4,8676.274,17.818,0.099,2232.001,1898.031,2.024,0.245,1.622e7,1437.734,57.625,0.634,0.64,0.286,0.22,0.128,0.375,0.76,-1.845e-4,0,0,0,0,-0.001,0.011,165,213.825,76.29,0.002,3.465,14.528,1004.739,340.103,0.05,0.036
3.041,76.699,83.82,48.259,85.039,50.696,10.036,3.011e-4,10.036,0.002,14.345,15.529,22.175,120.893,9.787,1.54,-9.461e-7,-0.842,0.001,2.305e4,8544.831,17.748,0.098,2240.867,1893.993,2.102,0.252,1.672e7,1445.651,61.119,0.634,0.639,0.286,0.22,0.128,0.301,0.634,1.986e-4,0,0,0,0,-1.107e-4,0.012,165,213.825,76.206,0.002,3.862,14.501,1004.254,340.087,0.05,0.037
