# Time (s),Altitude (m),Vertical velocity (m/s),Vertical acceleration (m/s²),Total velocity (m/s),Total acceleration (m/s²),Position East of launch (m),Position North of launch (m),Lateral distance (m),Lateral direction (°),Lateral velocity (m/s),Lateral acceleration (m/s²),Latitude (°),Longitude (°),Gravitational acceleration (m/s²),Angle of attack (°),Roll rate (°/s),Pitch rate (°/s),Yaw rate (°/s),Mass (g),Motor mass (g),Longitudinal moment of inertia (kg·m²),Rotational moment of inertia (kg·m²),CP location (mm),CG location (mm),Stability margin calibers (​),Mach number (​),Reynolds number (​),Thrust (N),Drag force (N),Drag coefficient (​),Axial drag coefficient (​),Friction drag coefficient (​),Pressure drag coefficient (​),Base drag coefficient (​),Normal force coefficient (​),Pitch moment coefficient (​),Yaw moment coefficient (​),Side force coefficient (​),Roll moment coefficient (​),Roll forcing coefficient (​),Roll damping coefficient (​),Pitch damping coefficient (​),Coriolis acceleration (m/s²),Reference length (mm),Reference area (cm²),Vertical orientation (zenith) (°),Lateral orientation (azimuth) (°),Wind velocity (m/s),Air temperature (°C),Air pressure (mbar),Speed of sound (m/s),Simulation time step (s),Computation time (s)
0.01,-4.757e-4,-0.095,-9.511,0.096,9.563,-5e-5,0,5e-5,180,0.01,1,22.175,120.893,9.788,85.161,0,0,0,2.8e4,1.35e4,19.963,0.106,NaN,2019.994,NaN,0.014,9.207e5,4.784,2.829e-4,0.681,9.801e-4,0.346,0.215,0.12,NaN,NaN,NaN,NaN,NaN,NaN,NaN,NaN,1.293e-5,165,213.825,84,0,4.704,15,1013.25,340.389,0.01,0.002
0.02,-4.761e-4,-0.095,-9.522,0.096,9.575,-5.004e-5,0,5.004e-5,180,0.01,1.001,22.175,120.893,9.788,85.155,0,0,0,2.8e4,1.35e4,19.963,0.106,NaN,2019.992,NaN,0.014,9.266e5,4.461,2.874e-4,0.68,9.831e-4,0.345,0.215,0.12,NaN,NaN,NaN,NaN,NaN,NaN,NaN,NaN,1.294e-5,165,213.825,84,0,4.734,15,1013.25,340.389,0.01,0.002
0.03,-4.763e-4,-0.095,-9.526,0.096,9.579,-5.006e-5,0,5.006e-5,180,0.01,1.001,22.175,120.893,9.788,85.148,0,0,0,2.8e4,1.35e4,19.963,0.106,NaN,2019.991,NaN,0.014,9.325e5,4.343,2.921e-4,0.68,9.865e-4,0.345,0.215,0.12,NaN,NaN,NaN,NaN,NaN,NaN,NaN,NaN,1.295e-5,165,213.825,84,0,4.764,15,1013.25,340.389,0.01,0.002
0.04,-4.765e-4,-0.095,-9.53,0.096,9.582,-5.008e-5,0,5.008e-5,180,0.01,1.002,22.175,120.893,9.788,85.141,0,0,0,2.8e4,1.35e4,19.963,0.106,NaN,2019.989,NaN,0.014,9.384e5,4.249,2.968e-4,0.68,9.9e-4,0.344,0.215,0.12,NaN,NaN,NaN,NaN,NaN,NaN,NaN,NaN,1.295e-5,165,213.825,84,0,4.794,15,1013.25,340.389,0.01,0.003
0.05,-4.761e-4,-0.095,-9.523,0.096,9.575,-5.005e-5,0,5.005e-5,180,0.01,1.001,22.175,120.893,9.788,85.133,0,0,0,2.8e4,1.35e4,19.963,0.106,NaN,2019.988,NaN,0.014,9.443e5,4.443,3.018e-4,0.679,9.941e-4,0.344,0.215,0.12,NaN,NaN,NaN,NaN,NaN,NaN,NaN,NaN,1.294e-5,165,213.825,84,0,4.824,15,1013.25,340.389,0.01,0.003
0.06,-4.757e-4,-0.095,-9.514,0.096,9.567,-5e-5,0,5e-5,180,0.01,1,22.175,120.893,9.788,85.144,0,0,0,2.8e4,1.35e4,19.963,0.106,NaN,2019.986,NaN,0.014,9.347e5,4.681,2.942e-4,0.68,9.888e-4,0.345,0.215,0.12,NaN,NaN,NaN,NaN,NaN,NaN,NaN,NaN,1.293e-5,165,213.825,84,0,4.775,15,1013.25,340.389,0.01,0.003
0.07,-4.762e-4,-0.095,-9.523,0.096,9.576,-5.005e-5,0,5.005e-5,180,0.01,1.001,22.175,120.893,9.788,85.157,0,0,0,2.8e4,1.35e4,19.963,0.106,NaN,2019.984,NaN,0.014,9.251e5,4.438,2.862e-4,0.681,9.821e-4,0.345,0.215,0.12,NaN,NaN,NaN,NaN,NaN,NaN,NaN,NaN,1.294e-5,165,213.825,84,0,4.726,15,1013.25,340.389,0.01,0.004
0.08,-4.761e-4,-0.095,-9.522,0.096,9.574,-5.004e-5,0,5.004e-5,180,0.01,1.001,22.175,120.893,9.788,85.169,0,0,0,2.8e4,1.35e4,19.963,0.106,NaN,2019.982,NaN,0.014,9.156e5,4.479,2.786e-4,0.681,9.76e-4,0.346,0.215,0.12,NaN,NaN,NaN,NaN,NaN,NaN,NaN,NaN,1.294e-5,165,213.825,84,0,4.677,15,1013.25,340.389,0.01,0.004
0.09,-4.759e-4,-0.095,-9.517,0.096,9.57,-5.002e-5,0,5.002e-5,180,0.01,1,22.175,120.893,9.788,85.181,0,0,0,2.8e4,1.35e4,19.963,0.106,NaN,2019.981,NaN,0.014,9.06e5,4.603,2.711e-4,0.682,9.7e-4,0.347,0.215,0.12,NaN,NaN,NaN,NaN,NaN,NaN,NaN,NaN,1.294e-5,165,213.825,84,0,4.629,15,1013.25,340.389,0.01,0.005
0.1,-4.764e-4,-0.095,-9.527,0.096,9.58,-5.007e-5,0,5.007e-5,180,0.01,1.001,22.175,120.893,9.788,85.194,0,0,0,2.8e4,1.35e4,19.963,0.106,NaN,2019.979,NaN,0.013,8.964e5,4.315,2.634e-4,0.683,9.628e-4,0.348,0.215,0.12,NaN,NaN,NaN,NaN,NaN,NaN,NaN,NaN,1.295e-5,165,213.825,84,0,4.58,15,1013.25,340.389,0.01,0.005
0.11,-4.762e-4,-0.095,-9.523,0.096,9.576,-5.005e-5,0,5.005e-5,180,0.01,1.001,22.175,120.893,9.788,85.179,0,0,0,2.8e4,1.35e4,19.963,0.106,NaN,2019.977,NaN,0.014,9.079e5,4.431,2.725e-4,0.682,9.709e-4,0.347,0.215,0.12,NaN,NaN,NaN,NaN,NaN,NaN,NaN,NaN,1.294e-5,165,213.825,84,0,4.639,15,1013.25,340.389,0.01,0.005
0.12,-4.762e-4,-0.095,-9.523,0.096,9.576,-5.005e-5,0,5.005e-5,180,0.01,1.001,22.175,120.893,9.788,85.164,0,0,0,2.8e4,1.35e4,19.962,0.106,NaN,2019.976,NaN,0.014,9.195e5,4.436,2.817e-4,0.681,9.784e-4,0.346,0.215,0.12,NaN,NaN,NaN,NaN,NaN,NaN,NaN,NaN,1.294e-5,165,213.825,84,0,4.698,15,1013.25,340.389,0.01,0.006
0.13,-4.758e-4,-0.095,-9.517,0.096,9.569,-5.001e-5,0,5.001e-5,180,0.01,1,22.175,120.893,9.788,85.149,0,0,0,2.8e4,1.35e4,19.962,0.106,NaN,2019.974,NaN,0.014,9.311e5,4.62,2.911e-4,0.68,9.863e-4,0.345,0.215,0.12,NaN,NaN,NaN,NaN,NaN,NaN,NaN,NaN,1.294e-5,165,213.825,84,0,4.757,15,1013.25,340.389,0.01,0.006
0.14,-4.762e-4,-0.095,-9.524,0.096,9.577,-5.005e-5,0,5.005e-5,180,0.01,1.001,22.175,120.893,9.788,85.135,0,0,0,2.8e4,1.35e4,19.962,0.106,NaN,2019.972,NaN,0.014,9.426e5,4.404,3.004e-4,0.679,9.93e-4,0.344,0.215,0.12,NaN,NaN,NaN,NaN,NaN,NaN,NaN,NaN,1.295e-5,165,213.825,84,0,4.815,15,1013.25,340.389,0.01,0.007
0.15,-4.761e-4,-0.095,-9.523,0.096,9.575,-5.004e-5,0,5.004e-5,180,0.01,1.001,22.175,120.893,9.788,85.122,0,0,0,2.8e4,1.35e4,19.962,0.106,NaN,2019.97,NaN,0.014,9.542e5,4.444,3.101e-4,0.678,0.001,0.343,0.215,0.12,NaN,NaN,NaN,NaN,NaN,NaN,NaN,NaN,1.294e-5,165,213.825,84,0,4.874,15,1013.25,340.389,0.01,0.007
0.16,-4.758e-4,-0.095,-9.516,0.096,9.568,-5.001e-5,0,5.001e-5,180,0.01,1,22.175,120.893,9.788,85.135,0,0,0,2.8e4,1.35e4,19.962,0.106,NaN,2019.969,NaN,0.014,9.42e5,4.651,3.001e-4,0.679,9.932e-4,0.344,0.215,0.12,NaN,NaN,NaN,NaN,NaN,NaN,NaN,NaN,1.293e-5,165,213.825,84,0,4.812,15,1013.25,340.389,0.01,0.007
0.17,-4.765e-4,-0.095,-9.531,0.096,9.583,-5.009e-5,0,5.009e-5,180,0.01,1.002,22.175,120.893,9.788,85.152,0,0,0,2.8e4,1.35e4,19.962,0.106,NaN,2019.967,NaN,0.014,9.297e5,4.218,2.898e-4,0.68,9.844e-4,0.345,0.215,0.12,NaN,NaN,NaN,NaN,NaN,NaN,NaN,NaN,1.295e-5,165,213.825,84,0,4.75,15,1013.25,340.389,0.01,0.008
0.18,-4.765e-4,-0.095,-9.531,0.096,9.583,-5.009e-5,0,5.009e-5,180,0.01,1.002,22.175,120.893,9.788,85.167,0,0,0,2.8e4,1.35e4,19.962,0.106,NaN,2019.965,NaN,0.014,9.175e5,4.225,2.8e-4,0.681,9.766e-4,0.346,0.215,0.12,NaN,NaN,NaN,NaN,NaN,NaN,NaN,NaN,1.295e-5,165,213.825,84,0,4.688,15,1013.25,340.389,0.01,0.008
0.19,-4.764e-4,-0.095,-9.527,0.096,9.58,-5.007e-5,0,5.007e-5,180,0.01,1.001,22.175,120.893,9.788,85.183,0,0,0,2.8e4,1.35e4,19.962,0.106,NaN,2019.964,NaN,0.014,9.053e5,4.321,2.704e-4,0.682,9.688e-4,0.347,0.215,0.12,NaN,NaN,NaN,NaN,NaN,NaN,NaN,NaN,1.295e-5,165,213.825,84,0,4.625,15,1013.25,340.389,0.01,0.008
0.2,-4.766e-4,-0.095,-9.532,0.096,9.585,-5.01e-5,0,5.01e-5,180,0.01,1.002,22.175,120.893,9.788,85.199,0,0,0,2.8e4,1.35e4,19.962,0.106,NaN,2019.962,NaN,0.013,8.931e5,4.174,2.608e-4,0.683,9.602e-4,0.348,0.215,0.12,NaN,NaN,NaN,NaN,NaN,NaN,NaN,NaN,1.296e-5,165,213.825,84,0,4.563,15,1013.25,340.389,0.01,0.009
0.21,-4.763e-4,-0.095,-9.525,0.096,9.578,-5.006e-5,0,5.006e-5,180,0.01,1.001,22.175,120.893,9.788,85.186,0,0,0,2.8e4,1.35e4,19.962,0.106,NaN,2019.961,NaN,0.014,9.022e5,4.381,2.68e-4,0.682,9.669e-4,0.347,0.215,0.12,NaN,NaN,NaN,NaN,NaN,NaN,NaN,NaN,1.295e-5,165,213.825,84,0,4.609,15,1013.25,340.389,0.01,0.009
0.22,-4.758e-4,-0.095,-9.515,0.096,9.568,-5.001e-5,0,5.001e-5,180,0.01,1,22.175,120.893,9.788,85.173,0,0,0,2.8e4,1.35e4,19.962,0.106,NaN,2019.959,NaN,0.014,9.113e5,4.657,2.754e-4,0.682,9.737e-4,0.346,0.215,0.12,NaN,NaN,NaN,NaN,NaN,NaN,NaN,NaN,1.293e-5,165,213.825,84,0,4.656,15,1013.25,340.389,0.01,0.01
0.23,-4.762e-4,-0.095,-9.525,0.096,9.577,-5.005e-5,0,5.005e-5,180,0.01,1.001,22.175,120.893,9.788,85.163,0,0,0,2.8e4,1.35e4,19.962,0.106,NaN,2019.957,NaN,0.014,9.204e5,4.392,2.824e-4,0.681,9.789e-4,0.346,0.215,0.12,NaN,NaN,NaN,NaN,NaN,NaN,NaN,NaN,1.295e-5,165,213.825,84,0,4.702,15,1013.25,340.389,0.01,0.01
0.24,-4.76e-4,-0.095,-9.52,0.096,9.573,-5.003e-5,0,5.003e-5,180,0.01,1.001,22.175,120.893,9.788,85.151,0,0,0,2.8e4,1.35e4,19.962,0.106,NaN,2019.955,NaN,0.014,9.295e5,4.513,2.898e-4,0.68,9.851e-4,0.345,0.215,0.12,NaN,NaN,NaN,NaN,NaN,NaN,NaN,NaN,1.294e-5,165,213.825,84,0,4.749,15,1013.25,340.389,0.01,0.01
0.25,-4.759e-4,-0.095,-9.518,0.096,9.57,-5.002e-5,0,5.002e-5,180,0.01,1,22.175,120.893,9.788,85.139,0,0,0,2.8e4,1.35e4,19.962,0.106,NaN,2019.954,NaN,0.014,9.386e5,4.587,2.973e-4,0.68,9.91e-4,0.344,0.215,0.12,NaN,NaN,NaN,NaN,NaN,NaN,NaN,NaN,1.294e-5,165,213.825,84,0,4.795,15,1013.25,340.389,0.01,0.011
0.26,-4.762e-4,-0.095,-9.523,0.096,9.576,-5.005e-5,0,5.005e-5,180,0.01,1.001,22.175,120.893,9.788,85.14,0,0,0,2.8e4,1.35e4,19.962,0.106,NaN,2019.952,NaN,0.014,9.387e5,4.429,2.972e-4,0.68,9.906e-4,0.344,0.215,0.12,NaN,NaN,NaN,NaN,NaN,NaN,NaN,NaN,1.294e-5,165,213.825,84,0,4.795,15,1013.25,340.389,0.01,0.011
0.27,-4.76e-4,-0.095,-9.52,0.096,9.572,-5.003e-5,0,5.003e-5,180,0.01,1.001,22.175,120.893,9.788,85.14,0,0,0,2.8e4,1.35e4,19.962,0.106,NaN,2019.95,NaN,0.014,9.387e5,4.527,2.973e-4,0.68,9.909e-4,0.344,0.215,0.12,NaN,NaN,NaN,NaN,NaN,NaN,NaN,NaN,1.294e-5,165,213.825,84,0,4.796,15,1013.25,340.389,0.01,0.011
0.28,-4.761e-4,-0.095,-9.521,0.096,9.574,-5.004e-5,0,5.004e-5,180,0.01,1.001,22.175,120.893,9.788,85.14,0,0,0,2.8e4,1.35e4,19.962,0.106,NaN,2019.949,NaN,0.014,9.388e5,4.488,2.973e-4,0.68,9.908e-4,0.344,0.215,0.12,NaN,NaN,NaN,NaN,NaN,NaN,NaN,NaN,1.294e-5,165,213.825,84,0,4.796,15,1013.25,340.389,0.01,0.012
0.29,-4.758e-4,-0.095,-9.517,0.096,9.569,-5.001e-5,0,5.001e-5,180,0.01,1,22.175,120.893,9.788,85.139,0,0,0,2.8e4,1.35e4,19.962,0.106,NaN,2019.947,NaN,0.014,9.388e5,4.616,2.975e-4,0.68,9.912e-4,0.344,0.215,0.12,NaN,NaN,NaN,NaN,NaN,NaN,NaN,NaN,1.294e-5,165,213.825,84,0,4.796,15,1013.25,340.389,0.01,0.012
0.3,-4.76e-4,-0.095,-9.519,0.096,9.572,-5.003e-5,0,5.003e-5,180,0.01,1.001,22.175,120.893,9.788,85.139,0,0,0,2.8e4,1.35e4,19.962,0.106,NaN,2019.945,NaN,0.014,9.389e5,4.548,2.975e-4,0.68,9.91e-4,0.344,0.215,0.12,NaN,NaN,NaN,NaN,NaN,NaN,NaN,NaN,1.294e-5,165,213.825,84,0,4.796,15,1013.25,340.389,0.01,0.012
0.31,-4.757e-4,-0.095,-9.514,0.096,9.566,-5e-5,0,5e-5,180,0.01,1,22.175,120.893,9.788,85.15,0,0,0,2.8e4,1.35e4,19.962,0.106,NaN,2019.943,NaN,0.014,9.299e5,4.706,2.903e-4,0.68,9.858e-4,0.345,0.215,0.12,NaN,NaN,NaN,NaN,NaN,NaN,NaN,NaN,1.293e-5,165,213.825,84,0,4.751,15,1013.25,340.389,0.01,0.013
0.32,-4.763e-4,-0.095,-9.527,0.096,9.579,-5.007e-5,0,5.007e-5,180,0.01,1.001,22.175,120.893,9.788,85.163,0,0,0,2.8e4,1.35e4,19.962,0.106,NaN,2019.942,NaN,0.014,9.209e5,4.332,2.828e-4,0.681,9.791e-4,0.346,0.215,0.12,NaN,NaN,NaN,NaN,NaN,NaN,NaN,NaN,1.295e-5,165,213.825,84,0,4.705,15,1013.25,340.389,0.01,0.013
0.33,-4.761e-4,-0.095,-9.522,0.096,9.574,-5.004e-5,0,5.004e-5,180,0.01,1.001,22.175,120.893,9.788,85.173,0,0,0,2.8e4,1.35e4,19.962,0.106,NaN,2019.94,NaN,0.014,9.12e5,4.483,2.757e-4,0.682,9.736e-4,0.346,0.215,0.12,NaN,NaN,NaN,NaN,NaN,NaN,NaN,NaN,1.294e-5,165,213.825,84,0,4.659,15,1013.25,340.389,0.01,0.013
0.34,-4.759e-4,-0.095,-9.518,0.096,9.571,-5.002e-5,0,5.002e-5,180,0.01,1,22.175,120.893,9.788,85.185,0,0,0,2.8e4,1.35e4,19.962,0.106,NaN,2019.938,NaN,0.014,9.03e5,4.57,2.687e-4,0.682,9.679e-4,0.347,0.215,0.12,NaN,NaN,NaN,NaN,NaN,NaN,NaN,NaN,1.294e-5,165,213.825,84,0,4.613,15,1013.25,340.389,0.01,0.013
0.35,-4.762e-4,-0.095,-9.524,0.096,9.576,-5.005e-5,0,5.005e-5,180,0.01,1.001,22.175,120.893,9.788,85.197,0,0,0,2.8e4,1.35e4,19.962,0.106,NaN,2019.936,NaN,0.013,8.94e5,4.419,2.617e-4,0.683,9.615e-4,0.348,0.215,0.12,NaN,NaN,NaN,NaN,NaN,NaN,NaN,NaN,1.294e-5,165,213.825,84,0,4.568,15,1013.25,340.389,0.01,0.014
0.36,-4.764e-4,-0.095,-9.527,0.096,9.58,-5.007e-5,0,5.007e-5,180,0.01,1.001,22.175,120.893,9.788,85.196,0,0,0,2.8e4,1.35e4,19.962,0.106,NaN,2019.935,NaN,0.013,8.953e5,4.317,2.626e-4,0.683,9.621e-4,0.348,0.215,0.12,NaN,NaN,NaN,NaN,NaN,NaN,NaN,NaN,1.295e-5,165,213.825,84,0,4.574,15,1013.25,340.389,0.01,0.014
0.37,-4.76e-4,-0.095,-9.52,0.096,9.573,-5.003e-5,0,5.003e-5,180,0.01,1.001,22.175,120.893,9.788,85.193,0,0,0,2.8e4,1.35e4,19.962,0.106,NaN,2019.933,NaN,0.013,8.966e5,4.522,2.638e-4,0.683,9.635e-4,0.348,0.215,0.12,NaN,NaN,NaN,NaN,NaN,NaN,NaN,NaN,1.294e-5,165,213.825,84,0,4.581,15,1013.25,340.389,0.01,0.014
0.38,-4.762e-4,-0.095,-9.523,0.096,9.576,-5.005e-5,0,5.005e-5,180,0.01,1.001,22.175,120.893,9.788,85.192,0,0,0,2.8e4,1.35e4,19.962,0.106,NaN,2019.931,NaN,0.013,8.979e5,4.433,2.647e-4,0.683,9.642e-4,0.347,0.215,0.12,NaN,NaN,NaN,NaN,NaN,NaN,NaN,NaN,1.294e-5,165,213.825,84,0,4.588,15,1013.25,340.389,0.01,0.015
0.39,-4.757e-4,-0.095,-9.515,0.096,9.567,-5e-5,0,5e-5,180,0.01,1,22.175,120.893,9.788,85.189,0,0,0,2.8e4,1.35e4,19.962,0.106,NaN,2019.93,NaN,0.013,8.992e5,4.673,2.659e-4,0.683,9.657e-4,0.347,0.215,0.12,NaN,NaN,NaN,NaN,NaN,NaN,NaN,NaN,1.293e-5,165,213.825,84,0,4.594,15,1013.25,340.389,0.01,0.015
0.4,-4.755e-4,-0.095,-9.51,0.096,9.562,-4.998e-5,0,4.998e-5,180,0.01,1,22.175,120.893,9.788,85.187,0,0,0,2.8e4,1.35e4,19.962,0.106,NaN,2019.928,NaN,0.013,9.005e5,4.812,2.67e-4,0.682,9.669e-4,0.347,0.215,0.12,NaN,NaN,NaN,NaN,NaN,NaN,NaN,NaN,1.293e-5,165,213.825,84,0,4.601,15,1013.25,340.389,0.01,0.015
0.41,-4.759e-4,-0.095,-9.518,0.096,9.57,-5.002e-5,0,5.002e-5,180,0.01,1,22.175,120.893,9.788,85.201,0,0,0,2.8e4,1.35e4,19.962,0.106,NaN,2019.926,NaN,0.013,8.903e5,4.595,2.59e-4,0.683,9.594e-4,0.348,0.215,0.12,NaN,NaN,NaN,NaN,NaN,NaN,NaN,NaN,1.294e-5,165,213.825,84,0,4.549,15,1013.25,340.389,0.01,0.016
0.42,-4.758e-4,-0.095,-9.516,0.096,9.568,-5.001e-5,0,5.001e-5,180,0.01,1,22.175,120.893,9.788,85.215,0,0,0,2.8e4,1.35e4,19.962,0.106,NaN,2019.924,NaN,0.013,8.801e5,4.638,2.512e-4,0.684,9.524e-4,0.349,0.215,0.12,NaN,NaN,NaN,NaN,NaN,NaN,NaN,NaN,1.293e-5,165,213.825,84,0,4.496,15,1013.25,340.389,0.01,0.016
0.43,-4.755e-4,-0.095,-9.51,0.096,9.562,-4.998e-5,0,4.998e-5,180,0.01,1,22.175,120.893,9.788,85.229,0,0,0,2.8e4,1.35e4,19.962,0.106,NaN,2019.922,NaN,0.013,8.698e5,4.811,2.436e-4,0.685,9.457e-4,0.35,0.215,0.12,NaN,NaN,NaN,NaN,NaN,NaN,NaN,NaN,1.293e-5,165,213.825,84,0,4.444,15,1013.25,340.389,0.01,0.016
0.44,-4.753e-4,-0.095,-9.506,0.096,9.558,-4.996e-5,0,4.996e-5,180,0.01,0.999,22.175,120.893,9.788,85.243,0,0,0,2.8e4,1.35e4,19.962,0.106,NaN,2019.921,NaN,0.013,8.596e5,4.919,2.362e-4,0.686,9.386e-4,0.351,0.215,0.12,NaN,NaN,NaN,NaN,NaN,NaN,NaN,NaN,1.292e-5,165,213.825,84,0,4.392,15,1013.25,340.389,0.01,0.016
0.45,-4.759e-4,-0.095,-9.518,0.096,9.57,-5.002e-5,0,5.002e-5,180,0.01,1,22.175,120.893,9.788,85.259,0,0,0,2.8e4,1.35e4,19.961,0.106,NaN,2019.919,NaN,0.013,8.494e5,4.583,2.285e-4,0.687,9.301e-4,0.351,0.215,0.12,NaN,NaN,NaN,NaN,NaN,NaN,NaN,NaN,1.294e-5,165,213.825,84,0,4.34,15,1013.25,340.389,0.01,0.017
0.46,-4.762e-4,-0.095,-9.523,0.096,9.576,-5.005e-5,0,5.005e-5,180,0.01,1.001,22.175,120.893,9.788,85.265,0,0,0,2.8e4,1.35e4,19.961,0.106,NaN,2019.917,NaN,0.013,8.461e5,4.429,2.26e-4,0.687,9.273e-4,0.352,0.215,0.12,NaN,NaN,NaN,NaN,NaN,NaN,NaN,NaN,1.294e-5,165,213.825,84,0,4.323,15,1013.25,340.389,0.01,0.017
0.47,-4.761e-4,-0.095,-9.523,0.096,9.575,-5.004e-5,0,5.004e-5,180,0.01,1.001,22.175,120.893,9.788,85.27,0,0,0,2.8e4,1.35e4,19.961,0.106,NaN,2019.915,NaN,0.013,8.429e5,4.45,2.237e-4,0.687,9.249e-4,0.352,0.215,0.12,NaN,NaN,NaN,NaN,NaN,NaN,NaN,NaN,1.294e-5,165,213.825,84,0,4.307,15,1013.25,340.389,0.01,0.017
0.48,-4.753e-4,-0.095,-9.507,0.096,9.559,-4.996e-5,0,4.996e-5,180,0.01,0.999,22.175,120.893,9.788,85.272,0,0,0,2.8e4,1.35e4,19.961,0.106,NaN,2019.914,NaN,0.013,8.396e5,4.905,2.217e-4,0.687,9.237e-4,0.352,0.215,0.12,NaN,NaN,NaN,NaN,NaN,NaN,NaN,NaN,1.292e-5,165,213.825,84,0,4.29,15,1013.25,340.389,0.01,0.018
0.49,-4.756e-4,-0.095,-9.512,0.096,9.565,-4.999e-5,0,4.999e-5,180,0.01,1,22.175,120.893,9.788,85.278,0,0,0,2.8e4,1.35e4,19.961,0.106,NaN,2019.912,NaN,0.013,8.364e5,4.746,2.193e-4,0.688,9.208e-4,0.352,0.215,0.12,NaN,NaN,NaN,NaN,NaN,NaN,NaN,NaN,1.293e-5,165,213.825,84,0,4.274,15,1013.25,340.389,0.01,0.018
0.5,-4.761e-4,-0.095,-9.522,0.096,9.574,-5.004e-5,0,5.004e-5,180,0.01,1.001,22.175,120.893,9.788,85.284,0,0,0,2.8e4,1.35e4,19.961,0.106,NaN,2019.91,NaN,0.012,8.331e5,4.47,2.168e-4,0.688,9.175e-4,0.353,0.215,0.12,NaN,NaN,NaN,NaN,NaN,NaN,NaN,NaN,1.294e-5,165,213.825,84,0,4.257,15,1013.25,340.389,0.01,0.018
0.51,-4.758e-4,-0.095,-9.515,0.096,9.568,-5.001e-5,0,5.001e-5,180,0.01,1,22.175,120.893,9.788,85.279,0,0,0,2.8e4,1.35e4,19.961,0.106,NaN,2019.908,NaN,0.013,8.363e5,4.657,2.192e-4,0.688,9.204e-4,0.353,0.215,0.12,NaN,NaN,NaN,NaN,NaN,NaN,NaN,NaN,1.293e-5,165,213.825,84,0,4.273,15,1013.25,340.389,0.01,0.018
0.52,-4.75e-4,-0.095,-9.499,0.096,9.551,-4.992e-5,0,4.992e-5,180,0.01,0.998,22.175,120.893,9.788,85.272,0,0,0,2.8e4,1.35e4,19.961,0.106,NaN,2019.906,NaN,0.013,8.395e5,5.115,2.218e-4,0.687,9.241e-4,0.352,0.215,0.12,NaN,NaN,NaN,NaN,NaN,NaN,NaN,NaN,1.291e-5,165,213.825,84,0,4.289,15,1013.25,340.389,0.01,0.019
0.53,-4.746e-4,-0.095,-9.491,0.095,9.543,-4.988e-5,0,4.988e-5,180,0.01,0.998,22.175,120.893,9.788,85.266,0,0,0,2.8e4,1.35e4,19.961,0.106,NaN,2019.904,NaN,0.013,8.426e5,5.339,2.242e-4,0.687,9.272e-4,0.352,0.215,0.12,NaN,NaN,NaN,NaN,NaN,NaN,NaN,NaN,1.29e-5,165,213.825,84,0,4.306,15,1013.25,340.389,0.01,0.019
0.54,-4.758e-4,-0.095,-9.516,0.096,9.568,-5.001e-5,0,5.001e-5,180,0.01,1,22.175,120.893,9.788,85.264,0,0,0,2.8e4,1.35e4,19.961,0.106,NaN,2019.903,NaN,0.013,8.458e5,4.638,2.26e-4,0.687,9.276e-4,0.352,0.215,0.12,NaN,NaN,NaN,NaN,NaN,NaN,NaN,NaN,1.293e-5,165,213.825,84,0,4.322,15,1013.25,340.389,0.01,0.019
0.55,-4.755e-4,-0.095,-9.51,0.096,9.562,-4.997e-5,0,4.997e-5,180,0.01,0.999,22.175,120.893,9.788,85.259,0,0,0,2.8e4,1.35e4,19.961,0.106,NaN,2019.901,NaN,0.013,8.49e5,4.82,2.284e-4,0.687,9.305e-4,0.351,0.215,0.12,NaN,NaN,NaN,NaN,NaN,NaN,NaN,NaN,1.293e-5,165,213.825,84,0,4.338,15,1013.25,340.389,0.01,0.019
0.56,-4.749e-4,-0.095,-9.498,0.096,9.55,-4.991e-5,0,4.991e-5,180,0.01,0.998,22.175,120.893,9.788,85.235,0,0,0,2.8e4,1.35e4,19.961,0.106,NaN,2019.899,NaN,0.013,8.643e5,5.14,2.398e-4,0.685,9.426e-4,0.35,0.215,0.12,NaN,NaN,NaN,NaN,NaN,NaN,NaN,NaN,1.291e-5,165,213.825,84,0,4.416,15,1013.25,340.389,0.01,0.02
0.57,-4.749e-4,-0.095,-9.497,0.095,9.55,-4.991e-5,0,4.991e-5,180,0.01,0.998,22.175,120.893,9.788,85.213,0,0,0,2.8e4,1.35e4,19.961,0.106,NaN,2019.897,NaN,0.013,8.796e5,5.164,2.512e-4,0.684,9.535e-4,0.349,0.215,0.12,NaN,NaN,NaN,NaN,NaN,NaN,NaN,NaN,1.291e-5,165,213.825,84,0,4.494,15,1013.25,340.389,0.01,0.02
0.58,-4.749e-4,-0.095,-9.499,0.096,9.551,-4.992e-5,0,4.992e-5,180,0.01,0.998,22.175,120.893,9.788,85.193,0,0,0,2.8e4,1.35e4,19.961,0.106,NaN,2019.895,NaN,0.013,8.949e5,5.125,2.628e-4,0.683,9.639e-4,0.348,0.215,0.12,NaN,NaN,NaN,NaN,NaN,NaN,NaN,NaN,1.291e-5,165,213.825,84,0,4.572,15,1013.25,340.389,0.01,0.021
0.59,-4.746e-4,-0.095,-9.493,0.095,9.545,-4.989e-5,0,4.989e-5,180,0.01,0.998,22.175,120.893,9.788,85.172,0,0,0,2.8e4,1.35e4,19.961,0.106,NaN,2019.893,NaN,0.014,9.102e5,5.296,2.749e-4,0.682,9.746e-4,0.347,0.215,0.12,NaN,NaN,NaN,NaN,NaN,NaN,NaN,NaN,1.29e-5,165,213.825,84,0,4.65,15,1013.25,340.389,0.01,0.021
0.6,-4.741e-4,-0.095,-9.483,0.095,9.535,-4.984e-5,0,4.984e-5,180,0.01,0.997,22.175,120.893,9.788,85.151,0,0,0,2.8e4,1.349e4,19.961,0.106,NaN,2019.891,NaN,0.014,9.254e5,5.567,2.873e-4,0.681,9.852e-4,0.345,0.215,0.12,NaN,NaN,NaN,NaN,NaN,NaN,NaN,NaN,1.289e-5,165,213.825,84,0,4.728,15,1013.25,340.389,0.01,0.021
0.61,-4.739e-4,-0.095,-9.478,0.095,9.53,-4.981e-5,0,4.981e-5,180,0.01,0.996,22.175,120.893,9.788,85.13,0,0,0,2.8e4,1.349e4,19.961,0.106,NaN,2019.889,NaN,0.014,9.426e5,5.717,3.015e-4,0.679,9.963e-4,0.344,0.215,0.12,NaN,NaN,NaN,NaN,NaN,NaN,NaN,NaN,1.288e-5,165,213.825,84,0,4.816,15,1013.25,340.389,0.01,0.021
0.62,-4.745e-4,-0.095,-9.49,0.095,9.542,-4.987e-5,0,4.987e-5,180,0.01,0.997,22.175,120.893,9.788,85.111,0,0,0,2.8e4,1.349e4,19.961,0.106,NaN,2019.887,NaN,0.014,9.598e5,5.366,3.156e-4,0.678,0.001,0.343,0.215,0.12,NaN,NaN,NaN,NaN,NaN,NaN,NaN,NaN,1.29e-5,165,213.825,84,0,4.903,15,1013.25,340.389,0.01,0.022
0.63,-4.737e-4,-0.095,-9.473,0.095,9.525,-4.978e-5,0,4.978e-5,180,0.01,0.996,22.175,120.893,9.788,85.09,0,0,0,2.799e4,1.349e4,19.961,0.106,NaN,2019.884,NaN,0.015,9.77e5,5.844,3.306e-4,0.677,0.001,0.342,0.215,0.12,NaN,NaN,NaN,NaN,NaN,NaN,NaN,NaN,1.288e-5,165,213.825,84,0,4.991,15,1013.25,340.389,0.01,0.022
0.64,-4.738e-4,-0.095,-9.475,0.095,9.527,-4.979e-5,0,4.979e-5,180,0.01,0.996,22.175,120.893,9.788,85.071,0,0,0,2.799e4,1.349e4,19.961,0.106,NaN,2019.882,NaN,0.015,9.942e5,5.786,3.456e-4,0.676,0.001,0.34,0.215,0.12,NaN,NaN,NaN,NaN,NaN,NaN,NaN,NaN,1.288e-5,165,213.825,84,0,5.079,15,1013.25,340.389,0.01,0.022
0.65,-4.734e-4,-0.095,-9.469,0.095,9.521,-4.976e-5,0,4.976e-5,180,0.01,0.995,22.175,120.893,9.788,85.052,0,0,0,2.799e4,1.349e4,19.961,0.106,NaN,2019.88,NaN,0.015,1.011e6,5.968,3.611e-4,0.674,0.001,0.339,0.215,0.12,NaN,NaN,NaN,NaN,NaN,NaN,NaN,NaN,1.287e-5,165,213.825,84,0,5.166,15,1013.25,340.389,0.01,0.022
0.66,-4.724e-4,-0.094,-9.448,0.095,9.5,-4.965e-5,0,4.965e-5,180,0.01,0.993,22.175,120.893,9.788,85.042,0,0,0,2.799e4,1.349e4,19.961,0.106,NaN,2019.877,NaN,0.015,1.019e6,6.551,3.68e-4,0.674,0.001,0.339,0.215,0.12,NaN,NaN,NaN,NaN,NaN,NaN,NaN,NaN,1.284e-5,165,213.825,84,0,5.202,15,1013.25,340.389,0.01,0.023
0.67,-4.721e-4,-0.094,-9.442,0.095,9.494,-4.962e-5,0,4.962e-5,180,0.01,0.992,22.175,120.893,9.788,85.035,0,0,0,2.799e4,1.349e4,19.961,0.106,NaN,2019.875,NaN,0.015,1.026e6,6.72,3.747e-4,0.674,0.001,0.338,0.215,0.12,NaN,NaN,NaN,NaN,NaN,NaN,NaN,NaN,1.283e-5,165,213.825,84,0,5.239,15,1013.25,340.389,0.01,0.023
0.68,-4.711e-4,-0.094,-9.421,0.095,9.473,-4.951e-5,0,4.951e-5,180,0.01,0.99,22.175,120.893,9.788,85.025,0,0,0,2.799e4,1.349e4,19.961,0.106,NaN,2019.872,NaN,0.015,1.033e6,7.299,3.817e-4,0.673,0.001,0.338,0.215,0.12,NaN,NaN,NaN,NaN,NaN,NaN,NaN,NaN,1.281e-5,165,213.825,84,0,5.275,15,1013.25,340.389,0.01,0.023
0.69,-4.708e-4,-0.094,-9.415,0.095,9.467,-4.948e-5,0,4.948e-5,180,0.01,0.99,22.175,120.893,9.788,85.018,0,0,0,2.799e4,1.349e4,19.961,0.106,NaN,2019.869,NaN,0.016,1.04e6,7.467,3.884e-4,0.673,0.001,0.337,0.215,0.12,NaN,NaN,NaN,NaN,NaN,NaN,NaN,NaN,1.28e-5,165,213.825,84,0,5.311,15,1013.25,340.389,0.01,0.023
0.7,-4.699e-4,-0.094,-9.398,0.095,9.45,-4.939e-5,0,4.939e-5,180,0.01,0.988,22.175,120.893,9.788,85.009,0,0,0,2.799e4,1.349e4,19.961,0.106,NaN,2019.866,NaN,0.016,1.047e6,7.951,3.955e-4,0.672,0.001,0.337,0.215,0.12,NaN,NaN,NaN,NaN,NaN,NaN,NaN,NaN,1.277e-5,165,213.825,84,0,5.347,15,1013.25,340.389,0.01,0.024
0.71,-4.682e-4,-0.094,-9.363,0.094,9.415,-4.921e-5,0,4.921e-5,180,0.01,0.984,22.175,120.893,9.788,85.009,0,0,0,2.799e4,1.349e4,19.96,0.106,NaN,2019.863,NaN,0.016,1.043e6,8.938,3.927e-4,0.672,0.001,0.337,0.215,0.12,NaN,NaN,NaN,NaN,NaN,NaN,NaN,NaN,1.273e-5,165,213.825,84,0,5.327,15,1013.25,340.389,0.01,0.024
0.72,-4.676e-4,-0.094,-9.352,0.094,9.403,-4.915e-5,0,4.915e-5,180,0.01,0.983,22.175,120.893,9.788,85.012,0,0,0,2.799e4,1.349e4,19.96,0.106,NaN,2019.859,NaN,0.016,1.039e6,9.255,3.892e-4,0.673,0.001,0.338,0.215,0.12,NaN,NaN,NaN,NaN,NaN,NaN,NaN,NaN,1.271e-5,165,213.825,84,0,5.306,15,1013.25,340.389,0.01,0.024
0.73,-4.659e-4,-0.093,-9.319,0.094,9.37,-4.897e-5,0,4.897e-5,180,0.01,0.979,22.175,120.893,9.788,85.012,0,0,0,2.799e4,1.349e4,19.96,0.106,NaN,2019.855,NaN,0.016,1.035e6,10.185,3.864e-4,0.673,0.001,0.338,0.215,0.12,NaN,NaN,NaN,NaN,NaN,NaN,NaN,NaN,1.267e-5,165,213.825,84,0,5.286,15,1013.25,340.389,0.01,0.024
0.74,-4.64e-4,-0.093,-9.28,0.093,9.331,-4.877e-5,0,4.877e-5,180,0.01,0.975,22.175,120.893,9.788,85.011,0,0,0,2.799e4,1.349e4,19.96,0.106,NaN,2019.851,NaN,0.015,1.031e6,11.275,3.836e-4,0.673,0.001,0.338,0.215,0.12,NaN,NaN,NaN,NaN,NaN,NaN,NaN,NaN,1.261e-5,165,213.825,84,0,5.266,15,1013.25,340.389,0.01,0.025
0.75,-4.621e-4,-0.092,-9.243,0.093,9.294,-4.857e-5,0,4.857e-5,180,0.01,0.971,22.175,120.893,9.788,85.011,0,0,0,2.799e4,1.349e4,19.96,0.106,NaN,2019.846,NaN,0.015,1.027e6,12.322,3.809e-4,0.673,0.001,0.338,0.215,0.12,NaN,NaN,NaN,NaN,NaN,NaN,NaN,NaN,1.256e-5,165,213.825,84,0,5.246,15,1013.25,340.389,0.01,0.025
0.76,-4.598e-4,-0.092,-9.195,0.092,9.246,-4.832e-5,0,4.832e-5,180,0.01,0.966,22.175,120.893,9.788,85.01,0,0,0,2.799e4,1.349e4,19.96,0.106,NaN,2019.841,NaN,0.015,1.023e6,13.663,3.784e-4,0.674,0.001,0.339,0.215,0.12,NaN,NaN,NaN,NaN,NaN,NaN,NaN,NaN,1.25e-5,165,213.825,84,0,5.226,15,1013.25,340.389,0.01,0.026
0.77,-4.586e-4,-0.092,-9.173,0.092,9.223,-4.82e-5,0,4.82e-5,180,0.01,0.964,22.175,120.893,9.788,85.011,0,0,0,2.799e4,1.349e4,19.96,0.106,NaN,2019.836,NaN,0.015,1.019e6,14.302,3.754e-4,0.674,0.001,0.339,0.215,0.12,NaN,NaN,NaN,NaN,NaN,NaN,NaN,NaN,1.247e-5,165,213.825,84,0,5.206,15,1013.25,340.389,0.01,0.026
0.78,-4.56e-4,-0.091,-9.12,0.092,9.171,-4.793e-5,0,4.793e-5,180,0.01,0.959,22.175,120.893,9.788,85.009,0,0,0,2.799e4,1.349e4,19.96,0.106,NaN,2019.83,NaN,0.015,1.015e6,15.77,3.73e-4,0.674,0.001,0.339,0.215,0.12,NaN,NaN,NaN,NaN,NaN,NaN,NaN,NaN,1.24e-5,165,213.825,84,0,5.186,15,1013.25,340.389,0.01,0.026
0.79,-4.54e-4,-0.091,-9.079,0.091,9.129,-4.771e-5,0,4.771e-5,180,0.01,0.954,22.175,120.893,9.788,85.009,0,0,0,2.799e4,1.349e4,19.96,0.106,NaN,2019.823,NaN,0.015,1.011e6,16.927,3.704e-4,0.674,0.001,0.339,0.215,0.12,NaN,NaN,NaN,NaN,NaN,NaN,NaN,NaN,1.234e-5,165,213.825,84,0,5.166,15,1013.25,340.389,0.01,0.026
0.8,-4.518e-4,-0.09,-9.037,0.091,9.087,-4.749e-5,0,4.749e-5,180,0.009,0.95,22.175,120.893,9.788,85.008,0,0,0,2.799e4,1.349e4,19.96,0.106,NaN,2019.816,NaN,0.015,1.007e6,18.121,3.679e-4,0.675,0.001,0.34,0.215,0.12,NaN,NaN,NaN,NaN,NaN,NaN,NaN,NaN,1.228e-5,165,213.825,84,0,5.146,15,1013.25,340.389,0.01,0.027
0.81,-4.495e-4,-0.09,-8.99,0.09,9.04,-4.725e-5,0,4.725e-5,180,0.009,0.945,22.175,120.893,9.788,84.994,0,0,0,2.799e4,1.349e4,19.96,0.106,NaN,2019.809,NaN,0.015,1.016e6,19.438,3.77e-4,0.674,0.001,0.339,0.215,0.12,NaN,NaN,NaN,NaN,NaN,NaN,NaN,NaN,1.222e-5,165,213.825,84,0,5.19,15,1013.25,340.389,0.01,0.027
0.82,-4.482e-4,-0.09,-8.965,0.09,9.014,-4.711e-5,0,4.711e-5,180,0.009,0.942,22.175,120.893,9.788,84.983,0,0,0,2.799e4,1.349e4,19.959,0.106,NaN,2019.801,NaN,0.015,1.025e6,20.155,3.856e-4,0.674,0.001,0.338,0.215,0.12,NaN,NaN,NaN,NaN,NaN,NaN,NaN,NaN,1.218e-5,165,213.825,84,0,5.234,15,1013.25,340.389,0.01,0.027
0.83,-4.434e-4,-0.089,-8.867,0.089,8.916,-4.66e-5,0,4.66e-5,180,0.009,0.932,22.175,120.893,9.788,84.964,0,0,0,2.799e4,1.349e4,19.959,0.106,NaN,2019.793,NaN,0.015,1.033e6,22.899,3.961e-4,0.673,0.001,0.338,0.215,0.12,NaN,NaN,NaN,NaN,NaN,NaN,NaN,NaN,1.205e-5,165,213.825,84,0,5.278,15,1013.25,340.389,0.01,0.027
0.84,-4.345e-4,-0.087,-8.69,0.087,8.738,-4.567e-5,0,4.567e-5,180,0.009,0.913,22.175,120.893,9.788,84.937,0,0,0,2.799e4,1.349e4,19.959,0.106,NaN,2019.782,NaN,0.016,1.042e6,27.886,4.089e-4,0.673,0.001,0.337,0.215,0.12,NaN,NaN,NaN,NaN,NaN,NaN,NaN,NaN,1.181e-5,165,213.825,84,0,5.322,15,1013.25,340.389,0.01,0.027
0.85,-4.271e-4,-0.085,-8.542,0.086,8.59,-4.489e-5,0,4.489e-5,180,0.009,0.898,22.175,120.893,9.788,84.914,0,0,0,2.799e4,1.349e4,19.959,0.106,NaN,2019.77,NaN,0.016,1.051e6,32.036,4.211e-4,0.672,0.001,0.337,0.215,0.12,NaN,NaN,NaN,NaN,NaN,NaN,NaN,NaN,1.161e-5,165,213.825,84,0,5.366,15,1013.25,340.389,0.01,0.028
0.86,-4.194e-4,-0.084,-8.388,0.084,8.434,-4.408e-5,0,4.408e-5,180,0.009,0.882,22.175,120.893,9.788,84.88,0,0,0,2.799e4,1.349e4,19.959,0.106,NaN,2019.756,NaN,0.016,1.071e6,36.392,4.452e-4,0.671,0.001,0.336,0.215,0.12,NaN,NaN,NaN,NaN,NaN,NaN,NaN,NaN,1.14e-5,165,213.825,84,0,5.469,15,1013.25,340.389,0.01,0.028
0.87,-4.119e-4,-0.082,-8.239,0.083,8.284,-4.33e-5,0,4.33e-5,180,0.009,0.866,22.175,120.893,9.788,84.848,0,0,0,2.799e4,1.349e4,19.958,0.106,NaN,2019.74,NaN,0.016,1.091e6,40.581,4.698e-4,0.669,0.001,0.334,0.215,0.12,NaN,NaN,NaN,NaN,NaN,NaN,NaN,NaN,1.12e-5,165,213.825,84,0,5.572,15,1013.25,340.389,0.01,0.028
0.88,-4.047e-4,-0.081,-8.093,0.081,8.138,-4.253e-5,0,4.253e-5,180,0.009,0.851,22.175,120.893,9.788,84.818,0,0,0,2.799e4,1.349e4,19.958,0.106,NaN,2019.723,NaN,0.017,1.111e6,44.682,4.949e-4,0.668,0.001,0.333,0.215,0.12,NaN,NaN,NaN,NaN,NaN,NaN,NaN,NaN,1.1e-5,165,213.825,84,0,5.675,15,1013.25,340.389,0.01,0.028
0.89,-3.982e-4,-0.08,-7.965,0.08,8.008,-4.186e-5,0,4.186e-5,180,0.008,0.837,22.175,120.893,9.788,84.791,0,0,0,2.799e4,1.349e4,19.958,0.106,NaN,2019.705,NaN,0.017,1.132e6,48.294,5.203e-4,0.667,0.001,0.332,0.215,0.12,NaN,NaN,NaN,NaN,NaN,NaN,NaN,NaN,1.083e-5,165,213.825,84,0,5.778,15,1013.25,340.389,0.01,0.029
0.9,-3.921e-4,-0.078,-7.842,0.079,7.885,-4.121e-5,0,4.121e-5,180,0.008,0.824,22.175,120.893,9.788,84.765,0,0,0,2.799e4,1.349e4,19.957,0.106,NaN,2019.685,NaN,0.017,1.152e6,51.752,5.46e-4,0.666,0.001,0.331,0.215,0.12,NaN,NaN,NaN,NaN,NaN,NaN,NaN,NaN,1.066e-5,165,213.825,84,0,5.882,15,1013.25,340.389,0.01,0.029
0.91,-3.84e-4,-0.077,-7.679,0.077,7.722,-4.036e-5,0,4.036e-5,180,0.008,0.807,22.175,120.893,9.788,84.754,0,0,0,2.798e4,1.348e4,19.957,0.106,NaN,2019.664,NaN,0.017,1.145e6,56.319,5.434e-4,0.666,0.001,0.331,0.215,0.12,NaN,NaN,NaN,NaN,NaN,NaN,NaN,NaN,1.044e-5,165,213.825,84,0,5.847,15,1013.25,340.389,0.01,0.029
0.92,-3.761e-4,-0.075,-7.522,0.076,7.563,-3.953e-5,0,3.953e-5,180,0.008,0.791,22.175,120.893,9.788,84.742,0,0,0,2.798e4,1.348e4,19.957,0.106,NaN,2019.641,NaN,0.017,1.138e6,60.748,5.407e-4,0.667,0.001,0.332,0.215,0.12,NaN,NaN,NaN,NaN,NaN,NaN,NaN,NaN,1.022e-5,165,213.825,84,0,5.812,15,1013.25,340.389,0.01,0.029
0.93,-3.643e-4,-0.073,-7.286,0.073,7.326,-3.829e-5,0,3.829e-5,180,0.008,0.766,22.175,120.893,9.788,84.723,0,0,0,2.798e4,1.348e4,19.956,0.106,NaN,2019.615,NaN,0.017,1.132e6,67.387,5.403e-4,0.667,0.001,0.332,0.215,0.12,NaN,NaN,NaN,NaN,NaN,NaN,NaN,NaN,9.903e-6,165,213.825,84,0,5.778,15,1013.25,340.389,0.01,0.029
0.94,-3.499e-4,-0.07,-6.999,0.07,7.037,-3.678e-5,0,3.678e-5,180,0.007,0.736,22.175,120.893,9.788,84.699,0,0,0,2.798e4,1.348e4,19.956,0.106,NaN,2019.586,NaN,0.017,1.125e6,75.455,5.415e-4,0.667,0.001,0.332,0.215,0.12,NaN,NaN,NaN,NaN,NaN,NaN,NaN,NaN,9.513e-6,165,213.825,84,0,5.743,15,1013.25,340.389,0.01,0.03
0.95,-3.337e-4,-0.067,-6.674,0.067,6.71,-3.507e-5,0,3.507e-5,180,0.007,0.701,22.175,120.893,9.788,84.671,0,0,0,2.798e4,1.348e4,19.955,0.106,NaN,2019.554,NaN,0.017,1.118e6,84.603,5.439e-4,0.668,0.001,0.333,0.215,0.12,NaN,NaN,NaN,NaN,NaN,NaN,NaN,NaN,9.071e-6,165,213.825,84,0,5.709,15,1013.25,340.389,0.01,0.03
0.96,-3.135e-4,-0.063,-6.271,0.063,6.305,-3.295e-5,0,3.295e-5,180,0.007,0.659,22.175,120.893,9.788,84.624,0,0,0,2.798e4,1.348e4,19.954,0.106,NaN,2019.517,NaN,0.017,1.129e6,95.934,5.678e-4,0.667,0.001,0.332,0.215,0.12,NaN,NaN,NaN,NaN,NaN,NaN,NaN,NaN,8.523e-6,165,213.825,84,0,5.761,15,1013.25,340.389,0.01,0.03
0.97,-2.933e-4,-0.059,-5.865,0.059,5.898,-3.082e-5,0,3.082e-5,180,0.006,0.616,22.175,120.893,9.788,84.579,0,0,0,2.798e4,1.348e4,19.954,0.106,NaN,2019.476,NaN,0.017,1.139e6,107.326,5.923e-4,0.667,0.001,0.331,0.215,0.12,NaN,NaN,NaN,NaN,NaN,NaN,NaN,NaN,7.972e-6,165,213.825,84,0,5.814,15,1013.25,340.389,0.01,0.03
0.98,-2.671e-4,-0.053,-5.342,0.054,5.372,-2.808e-5,0,2.808e-5,180,0.006,0.561,22.175,120.893,9.788,84.522,0,0,0,2.797e4,1.347e4,19.953,0.106,NaN,2019.43,NaN,0.017,1.149e6,122.033,6.212e-4,0.666,0.001,0.331,0.215,0.12,NaN,NaN,NaN,NaN,NaN,NaN,NaN,NaN,7.261e-6,165,213.825,84,0,5.866,15,1013.25,340.389,0.01,0.03
0.99,-2.333e-4,-0.047,-4.667,0.047,4.692,-2.453e-5,0,2.453e-5,180,0.005,0.49,22.175,120.893,9.788,84.452,0,0,0,2.797e4,1.347e4,19.952,0.106,NaN,2019.376,NaN,0.017,1.16e6,141.022,6.561e-4,0.665,0.001,0.33,0.215,0.12,NaN,NaN,NaN,NaN,NaN,NaN,NaN,NaN,6.343e-6,165,213.825,84,0,5.919,15,1013.25,340.389,0.01,0.031
1,-1.839e-4,-0.037,-3.678,0.037,3.699,-1.933e-5,0,1.933e-5,180,0.004,0.387,22.175,120.893,9.788,84.353,0,0,0,2.797e4,1.347e4,19.951,0.106,NaN,2019.312,NaN,0.018,1.17e6,168.795,7.03e-4,0.665,0.002,0.33,0.215,0.12,NaN,NaN,NaN,NaN,NaN,NaN,NaN,NaN,5e-6,165,213.825,84,0,5.971,15,1013.25,340.389,0.01,0.031
1.01,-1.138e-4,-0.023,-2.275,0.023,2.288,-1.196e-5,0,1.196e-5,180,0.002,0.239,22.175,120.893,9.788,84.217,0,0,0,2.796e4,1.346e4,19.949,0.106,NaN,2019.232,NaN,0.018,1.181e6,208.221,7.676e-4,0.664,0.002,0.329,0.215,0.12,NaN,NaN,NaN,NaN,NaN,NaN,NaN,NaN,3.094e-6,165,213.825,84,0,6.025,15,1013.25,340.389,0.01,0.031
1.02,-4.855e-5,-0.01,-0.97,0.01,0.975,-5.103e-6,0,5.103e-6,180,0.001,0.102,22.175,120.893,9.788,84.092,0,0,0,2.796e4,1.346e4,19.948,0.106,NaN,2019.139,NaN,0.018,1.192e6,244.886,8.317e-4,0.664,0.002,0.329,0.215,0.12,NaN,NaN,NaN,NaN,NaN,NaN,NaN,NaN,1.32e-6,165,213.825,84,0,6.079,15,1013.25,340.389,0.01,0.031
1.03,2.205e-5,0.004,0.442,0.004,0.445,2.317e-6,0,2.317e-6,0,4.637e-4,0.046,22.175,120.893,9.788,83.959,0,0,0,2.795e4,1.345e4,19.946,0.106,NaN,2019.03,NaN,0.018,1.203e6,284.538,9.032e-4,0.663,0.002,0.328,0.215,0.12,NaN,NaN,NaN,NaN,NaN,NaN,NaN,NaN,5.997e-7,165,213.825,84,0,6.133,15,1013.25,340.389,0.01,0.031
1.04,1.641e-4,0.024,1.96,0.024,1.971,1.725e-5,0,1.725e-5,0,0.003,0.206,22.175,120.893,9.788,83.778,0,0,0,2.795e4,1.345e4,19.943,0.106,NaN,2018.905,NaN,0.018,1.214e6,327.142,0.001,0.663,0.002,0.327,0.215,0.12,NaN,NaN,NaN,NaN,NaN,NaN,NaN,NaN,3.263e-6,165,213.825,84,0,6.187,15,1013.25,340.389,0.01,0.031
1.05,5.833e-4,0.06,3.584,0.06,3.604,6.13e-5,0,6.13e-5,0,0.006,0.377,22.175,120.893,9.788,83.451,0,0,0,2.794e4,1.344e4,19.941,0.106,NaN,2018.763,NaN,0.018,1.225e6,372.693,0.001,0.662,0.002,0.327,0.215,0.12,NaN,NaN,NaN,NaN,NaN,NaN,NaN,NaN,8.132e-6,165,213.825,84,0,6.241,15,1013.25,340.389,0.01,0.032
1.06,0.001,0.115,5.563,0.116,5.594,1.534e-4,0,1.534e-4,0,0.012,0.585,22.175,120.893,9.788,82.932,0,0,0,2.793e4,1.343e4,19.938,0.106,NaN,2018.599,NaN,0.018,1.215e6,428.171,0.001,0.663,0.003,0.327,0.215,0.12,NaN,NaN,NaN,NaN,NaN,NaN,NaN,NaN,1.569e-5,165,213.825,84,0,6.182,15,1013.25,340.389,0.01,0.032
1.07,0.003,0.191,7.517,0.192,7.558,3.142e-4,0,3.142e-4,0,0.02,0.79,22.175,120.893,9.788,82.223,0,0,0,2.792e4,1.342e4,19.935,0.106,NaN,2018.415,NaN,0.018,1.205e6,482.882,0.002,0.663,0.004,0.328,0.215,0.12,NaN,NaN,NaN,NaN,NaN,NaN,NaN,NaN,2.59e-5,165,213.825,84,0,6.123,15,1013.25,340.389,0.01,0.032
1.08,0.005,0.288,9.758,0.29,9.811,5.658e-4,0,5.658e-4,0,0.03,1.026,22.175,120.893,9.788,81.293,0,0,0,2.791e4,1.341e4,19.931,0.106,NaN,2018.206,NaN,0.018,1.197e6,545.617,0.003,0.663,0.005,0.328,0.215,0.12,NaN,NaN,NaN,NaN,NaN,NaN,NaN,NaN,3.916e-5,165,213.825,84,0,6.065,15,1013.249,340.389,0.01,0.032
1.09,0.009,0.411,12.305,0.413,12.372,9.333e-4,0,9.333e-4,0,0.043,1.293,22.175,120.893,9.788,80.112,0,0,0,2.79e4,1.34e4,19.927,0.106,NaN,2017.969,NaN,0.018,1.189e6,616.859,0.004,0.664,0.008,0.329,0.215,0.12,NaN,NaN,NaN,NaN,NaN,NaN,NaN,NaN,5.588e-5,165,213.825,84,0,6.006,15,1013.249,340.389,0.01,0.032
1.1,0.014,0.563,15.219,0.566,15.303,0.001,0,0.001,0,0.059,1.6,22.175,120.893,9.788,78.642,0,0,0,2.789e4,1.339e4,19.922,0.106,NaN,2017.702,NaN,0.018,1.183e6,698.307,0.005,0.664,0.011,0.329,0.215,0.12,NaN,NaN,NaN,NaN,NaN,NaN,NaN,NaN,7.656e-5,165,213.825,84,0,5.947,15,1013.248,340.389,0.01,0.033
1.11,0.02,0.746,18.289,0.75,18.39,0.002,0,0.002,0,0.078,1.922,22.175,120.893,9.788,77.022,0,0,0,2.788e4,1.338e4,19.917,0.106,NaN,2017.401,NaN,0.018,1.204e6,784.022,0.008,0.663,0.017,0.328,0.215,0.12,NaN,NaN,NaN,NaN,NaN,NaN,NaN,NaN,1.014e-4,165,213.825,84,0,6.018,15,1013.248,340.389,0.01,0.033
1.12,0.029,0.96,21.44,0.966,21.558,0.003,0,0.003,0,0.101,2.253,22.175,120.893,9.788,75.18,0,0,0,2.786e4,1.336e4,19.911,0.106,NaN,2017.066,NaN,0.018,1.228e6,871.849,0.013,0.662,0.024,0.327,0.215,0.12,NaN,NaN,NaN,NaN,NaN,NaN,NaN,NaN,1.305e-4,165,213.825,84,0,6.088,15,1013.247,340.389,0.01,0.033
1.13,0.04,1.207,24.646,1.213,24.781,0.004,0,0.004,0,0.127,2.59,22.175,120.893,9.788,73.133,0,0,0,2.784e4,1.334e4,19.904,0.106,NaN,2016.696,NaN,0.019,1.255e6,961.049,0.019,0.66,0.035,0.325,0.215,0.12,NaN,NaN,NaN,NaN,NaN,NaN,NaN,NaN,1.64e-4,165,213.825,84,0,6.159,15,1013.245,340.389,0.01,0.033
1.14,0.053,1.482,27.565,1.49,27.716,0.006,0,0.006,0,0.156,2.897,22.175,120.893,9.788,70.932,0,0,0,2.782e4,1.332e4,19.897,0.106,NaN,2016.295,NaN,0.019,1.286e6,1042.073,0.028,0.659,0.049,0.324,0.215,0.12,NaN,NaN,NaN,NaN,NaN,NaN,NaN,NaN,2.015e-4,165,213.825,84,0,6.23,15,1013.244,340.389,0.01,0.033
1.15,0.069,1.783,30.094,1.793,30.259,0.007,0,0.007,0,0.187,3.163,22.175,120.893,9.788,68.633,0,0,0,2.78e4,1.33e4,19.889,0.106,NaN,2015.866,NaN,0.02,1.32e6,1112.029,0.04,0.657,0.067,0.322,0.215,0.12,NaN,NaN,NaN,NaN,NaN,NaN,NaN,NaN,2.424e-4,165,213.825,84,0,6.301,15,1013.242,340.389,0.01,0.034
1.16,0.089,2.106,32.29,2.117,32.468,0.009,0,0.009,0,0.221,3.394,22.175,120.893,9.788,66.132,0,0,0,2.778e4,1.328e4,19.881,0.106,NaN,2015.413,NaN,0.02,1.346e6,1172.553,0.056,0.656,0.09,0.321,0.215,0.12,NaN,NaN,NaN,NaN,NaN,NaN,NaN,NaN,2.862e-4,165,213.825,84,0,6.311,14.999,1013.24,340.389,0.01,0.034
1.17,0.112,2.446,34.029,2.459,34.217,0.012,0,0.012,0,0.257,3.577,22.175,120.893,9.788,63.603,0,0,0,2.776e4,1.326e4,19.873,0.105,NaN,2014.941,NaN,0.021,1.376e6,1220.187,0.076,0.655,0.117,0.32,0.215,0.12,NaN,NaN,NaN,NaN,NaN,NaN,NaN,NaN,3.325e-4,165,213.825,84,0,6.321,14.999,1013.237,340.388,0.01,0.034
1.18,0.138,2.799,35.306,2.814,35.5,0.014,0,0.014,0,0.294,3.711,22.175,120.893,9.788,61.098,0,0,0,2.774e4,1.324e4,19.864,0.105,NaN,2014.455,NaN,0.021,1.41e6,1254.818,0.1,0.653,0.148,0.318,0.215,0.12,NaN,NaN,NaN,NaN,NaN,NaN,NaN,NaN,3.804e-4,165,213.825,84,0,6.331,14.999,1013.234,340.388,0.01,0.034
1.19,0.168,3.16,36.108,3.177,36.306,0.018,0,0.018,0,0.332,3.795,22.175,120.893,9.788,58.663,0,0,0,2.771e4,1.321e4,19.855,0.105,NaN,2013.959,NaN,0.022,1.448e6,1276.135,0.13,0.652,0.182,0.316,0.215,0.12,NaN,NaN,NaN,NaN,NaN,NaN,NaN,NaN,4.295e-4,165,213.825,84,0,6.341,14.999,1013.23,340.388,0.01,0.034
1.2,0.201,3.526,36.66,3.546,36.862,0.021,0,0.021,0,0.371,3.853,22.175,120.893,9.788,56.319,0,0,0,2.769e4,1.319e4,19.846,0.105,NaN,2013.458,NaN,0.022,1.489e6,1290.479,0.164,0.65,0.217,0.315,0.215,0.12,NaN,NaN,NaN,NaN,NaN,NaN,NaN,NaN,4.793e-4,165,213.825,84,0,6.351,14.999,1013.226,340.388,0.01,0.034
1.21,0.238,3.896,36.966,3.917,37.17,0.025,0,0.025,0,0.409,3.885,22.175,120.893,9.788,53.855,0,0,0,2.767e4,1.317e4,19.837,0.105,NaN,2012.952,NaN,0.023,1.521e6,1297.933,0.203,0.649,0.257,0.313,0.215,0.12,NaN,NaN,NaN,NaN,NaN,NaN,NaN,NaN,5.295e-4,165,213.825,84,0,6.299,14.998,1013.222,340.388,0.01,0.035
1.22,0.279,4.266,37.025,4.289,37.229,0.029,0,0.029,0,0.448,3.892,22.175,120.893,9.788,51.495,0,0,0,2.764e4,1.314e4,19.828,0.105,NaN,2012.446,NaN,0.023,1.557e6,1298.512,0.246,0.647,0.299,0.312,0.215,0.12,NaN,NaN,NaN,NaN,NaN,NaN,NaN,NaN,5.798e-4,165,213.825,84,0,6.246,14.998,1013.217,340.388,0.01,0.035
1.23,0.324,4.636,37.068,4.662,37.272,0.034,0,0.034,0,0.487,3.896,22.175,120.893,9.788,49.242,0,0,0,2.762e4,1.312e4,19.819,0.105,NaN,2011.938,NaN,0.024,1.595e6,1298.633,0.294,0.646,0.34,0.311,0.215,0.12,NaN,NaN,NaN,NaN,NaN,NaN,NaN,NaN,6.302e-4,165,213.825,84,0,6.194,14.998,1013.212,340.388,0.01,0.035
1.24,0.372,5.006,36.974,5.033,37.177,0.039,0,0.039,0,0.526,3.886,22.175,120.893,9.788,47.101,0,0,0,2.76e4,1.31e4,19.81,0.105,NaN,2011.431,NaN,0.024,1.635e6,1294.965,0.346,0.644,0.38,0.309,0.215,0.12,NaN,NaN,NaN,NaN,NaN,NaN,NaN,NaN,6.804e-4,165,213.825,84,0,6.141,14.998,1013.206,340.387,0.01,0.035
1.25,0.424,5.374,36.888,5.404,37.091,0.045,0,0.045,0,0.565,3.877,22.175,120.893,9.788,45.07,0,0,0,2.757e4,1.307e4,19.801,0.105,NaN,2010.925,NaN,0.025,1.677e6,1291.53,0.402,0.643,0.42,0.308,0.215,0.12,NaN,NaN,NaN,NaN,NaN,NaN,NaN,NaN,7.305e-4,165,213.825,84,0,6.089,14.997,1013.2,340.387,0.01,0.035
1.26,0.479,5.742,36.8,5.774,37.002,0.05,0,0.05,0,0.604,3.868,22.175,120.893,9.788,43.423,0,0,0,2.755e4,1.305e4,19.792,0.105,NaN,2010.419,NaN,0.026,1.731e6,1288.052,0.461,0.641,0.452,0.306,0.215,0.12,NaN,NaN,NaN,NaN,NaN,NaN,NaN,NaN,7.805e-4,165,213.825,84,0,6.101,14.997,1013.194,340.387,0.01,0.035
1.27,0.538,6.109,36.687,6.143,36.889,0.057,0,0.057,0,0.642,3.856,22.175,120.893,9.788,41.881,0,0,0,2.753e4,1.303e4,19.783,0.105,NaN,2009.914,NaN,0.027,1.786e6,1283.912,0.523,0.639,0.481,0.304,0.215,0.12,NaN,NaN,NaN,NaN,NaN,NaN,NaN,NaN,8.303e-4,165,213.825,84,0,6.114,14.997,1013.187,340.387,0.01,0.036
1.28,0.601,6.475,36.654,6.511,36.856,0.063,0,0.063,0,0.681,3.852,22.175,120.893,9.788,40.434,0,0,0,2.75e4,1.3e4,19.774,0.105,NaN,2009.409,NaN,0.028,1.842e6,1281.967,0.589,0.638,0.509,0.302,0.215,0.12,NaN,NaN,NaN,NaN,NaN,NaN,NaN,NaN,8.801e-4,165,213.825,84,0,6.127,14.996,1013.179,340.387,0.01,0.036
1.29,0.668,6.841,36.57,6.878,36.772,0.07,0,0.07,0,0.719,3.844,22.175,120.893,9.788,39.076,0,0,0,2.748e4,1.298e4,19.765,0.105,NaN,2008.904,NaN,0.028,1.9e6,1278.651,0.658,0.636,0.535,0.301,0.215,0.12,NaN,NaN,NaN,NaN,NaN,NaN,NaN,NaN,9.298e-4,165,213.825,84,0,6.14,14.996,1013.172,340.386,0.01,0.036
1.3,0.738,7.206,36.528,7.246,36.73,0.078,0,0.078,0,0.757,3.839,22.175,120.893,9.788,37.8,0,0,0,2.746e4,1.296e4,19.756,0.105,NaN,2008.399,NaN,0.029,1.958e6,1276.485,0.73,0.634,0.559,0.299,0.215,0.12,NaN,NaN,NaN,NaN,NaN,NaN,NaN,NaN,9.794e-4,165,213.825,84,0,6.153,14.995,1013.163,340.386,0.01,0.036
1.31,0.812,7.571,36.522,7.613,36.724,0.085,0,0.085,0,0.796,3.839,22.175,120.893,9.788,36.283,0,0,0,2.743e4,1.293e4,19.747,0.105,NaN,2007.894,NaN,0.03,2.007e6,1275.318,0.806,0.633,0.588,0.298,0.215,0.12,NaN,NaN,NaN,NaN,NaN,NaN,NaN,NaN,0.001,165,213.825,84,0,6.089,14.995,1013.155,340.386,0.01,0.036
1.32,0.89,7.936,36.494,7.979,36.695,0.094,0,0.094,0,0.834,3.836,22.175,120.893,9.788,34.841,0,0,0,2.741e4,1.291e4,19.738,0.105,NaN,2007.388,NaN,0.031,2.057e6,1273.528,0.884,0.632,0.614,0.296,0.215,0.12,NaN,NaN,NaN,NaN,NaN,NaN,NaN,NaN,0.001,165,213.825,84,0,6.026,14.994,1013.146,340.385,0.01,0.037
1.33,0.971,8.301,36.543,8.347,36.744,0.102,0,0.102,0,0.872,3.841,22.175,120.893,9.788,33.466,0,0,0,2.739e4,1.289e4,19.729,0.105,NaN,2006.882,NaN,0.032,2.109e6,1273.891,0.966,0.63,0.638,0.295,0.215,0.12,NaN,NaN,NaN,NaN,NaN,NaN,NaN,NaN,0.001,165,213.825,84,0,5.962,14.994,1013.136,340.385,0.01,0.037
1.34,1.056,8.666,36.519,8.714,36.72,0.111,0,0.111,0,0.911,3.838,22.175,120.893,9.788,32.159,0,0,0,2.736e4,1.286e4,19.72,0.105,NaN,2006.376,NaN,0.032,2.161e6,1272.247,1.05,0.629,0.66,0.293,0.215,0.12,NaN,NaN,NaN,NaN,NaN,NaN,NaN,NaN,0.001,165,213.825,84,0,5.899,14.993,1013.126,340.385,0.01,0.037
1.35,1.144,9.031,36.529,9.081,36.73,0.12,0,0.12,0,0.949,3.839,22.175,120.893,9.788,30.914,0,0,0,2.734e4,1.284e4,19.711,0.105,NaN,2005.868,NaN,0.033,2.215e6,1271.517,1.136,0.628,0.68,0.292,0.215,0.12,NaN,NaN,NaN,NaN,NaN,NaN,NaN,NaN,0.001,165,213.825,84,0,5.835,14.993,1013.116,340.384,0.01,0.037
1.36,1.236,9.396,36.565,9.448,36.767,0.13,0,0.13,0,0.988,3.843,22.175,120.893,9.788,29.764,0,0,0,2.732e4,1.282e4,19.702,0.105,NaN,2005.361,NaN,0.034,2.271e6,1271.539,1.224,0.626,0.697,0.291,0.215,0.12,NaN,NaN,NaN,NaN,NaN,NaN,NaN,NaN,0.001,165,213.825,84,0,5.78,14.992,1013.105,340.384,0.01,0.037
1.37,1.332,9.762,36.581,9.816,36.782,0.14,0,0.14,0,1.026,3.845,22.175,120.893,9.788,28.669,0,0,0,2.729e4,1.279e4,19.693,0.105,NaN,2004.852,NaN,0.035,2.328e6,1270.983,1.315,0.625,0.713,0.29,0.215,0.12,NaN,NaN,NaN,NaN,NaN,NaN,NaN,NaN,0.001,165,213.825,84,0,5.726,14.991,1013.094,340.384,0.01,0.037
1.38,1.431,10.129,36.696,10.185,36.899,0.15,0,0.15,0,1.065,3.857,22.175,120.893,9.788,27.624,0,0,0,2.727e4,1.277e4,19.684,0.105,NaN,2004.342,NaN,0.036,2.385e6,1273.167,1.408,0.624,0.727,0.288,0.215,0.12,NaN,NaN,NaN,NaN,NaN,NaN,NaN,NaN,0.001,165,213.825,84,0,5.671,14.991,1013.082,340.383,0.01,0.038
1.39,1.535,10.496,36.736,10.554,36.939,0.161,0,0.161,0,1.103,3.861,22.175,120.893,9.788,26.628,0,0,0,2.725e4,1.275e4,19.675,0.105,NaN,2003.83,NaN,0.037,2.444e6,1273.278,1.505,0.623,0.74,0.288,0.215,0.12,NaN,NaN,NaN,NaN,NaN,NaN,NaN,NaN,0.001,165,213.825,84,0,5.617,14.99,1013.07,340.383,0.01,0.038
1.4,1.641,10.864,36.823,10.924,37.026,0.173,0,0.173,0,1.142,3.87,22.175,120.893,9.788,25.677,0,0,0,2.723e4,1.273e4,19.666,0.105,NaN,2003.318,NaN,0.038,2.503e6,1274.663,1.605,0.623,0.752,0.288,0.215,0.12,NaN,NaN,NaN,NaN,NaN,NaN,NaN,NaN,0.001,165,213.825,84,0,5.562,14.989,1013.057,340.382,0.01,0.038
1.41,1.752,11.233,36.929,11.295,37.132,0.184,0,0.184,0,1.181,3.881,22.175,120.893,9.788,24.888,0,0,0,2.72e4,1.27e4,19.657,0.105,NaN,2002.803,NaN,0.038,2.567e6,1276.588,1.708,0.623,0.761,0.288,0.215,0.12,NaN,NaN,NaN,NaN,NaN,NaN,NaN,NaN,0.002,165,213.825,84,0,5.539,14.989,1013.045,340.382,0.01,0.038
1.42,1.866,11.603,36.996,11.667,37.2,0.196,0,0.196,0,1.22,3.888,22.175,120.893,9.788,24.136,0,0,0,2.718e4,1.268e4,19.648,0.105,NaN,2002.288,NaN,0.039,2.631e6,1277.444,1.814,0.623,0.77,0.288,0.215,0.12,NaN,NaN,NaN,NaN,NaN,NaN,NaN,NaN,0.002,165,213.825,84,0,5.516,14.988,1013.031,340.382,0.01,0.038
1.43,1.984,11.974,37.131,12.04,37.336,0.209,0,0.209,0,1.259,3.903,22.175,120.893,9.788,23.417,0,0,0,2.716e4,1.266e4,19.639,0.105,NaN,2001.77,NaN,0.04,2.696e6,1280.14,1.923,0.623,0.777,0.288,0.215,0.12,NaN,NaN,NaN,NaN,NaN,NaN,NaN,NaN,0.002,165,213.825,84,0,5.493,14.987,1013.017,340.381,0.01,0.039
1.44,2.106,12.346,37.187,12.414,37.392,0.221,0,0.221,0,1.298,3.909,22.175,120.893,9.788,22.732,0,0,0,2.713e4,1.263e4,19.629,0.105,NaN,2001.252,NaN,0.041,2.761e6,1280.681,2.033,0.623,0.783,0.288,0.215,0.12,NaN,NaN,NaN,NaN,NaN,NaN,NaN,NaN,0.002,165,213.825,84,0,5.47,14.986,1013.003,340.381,0.01,0.039
1.45,2.231,12.719,37.296,12.789,37.501,0.234,0,0.234,0,1.337,3.92,22.175,120.893,9.788,22.076,0,0,0,2.711e4,1.261e4,19.62,0.105,NaN,2000.731,NaN,0.042,2.827e6,1282.653,2.147,0.623,0.789,0.288,0.215,0.12,NaN,NaN,NaN,NaN,NaN,NaN,NaN,NaN,0.002,165,213.825,84,0,5.448,14.985,1012.988,340.38,0.01,0.039
1.46,2.36,13.093,37.413,13.165,37.619,0.248,0,0.248,0,1.376,3.932,22.175,120.893,9.788,21.46,0,0,0,2.709e4,1.259e4,19.611,0.104,NaN,2000.209,NaN,0.043,2.893e6,1284.861,2.262,0.623,0.794,0.288,0.215,0.12,NaN,NaN,NaN,NaN,NaN,NaN,NaN,NaN,0.002,165,213.825,84,0,5.428,14.985,1012.973,340.38,0.01,0.039
1.47,2.493,13.467,37.465,13.541,37.671,0.262,0,0.262,0,1.415,3.938,22.175,120.893,9.788,20.87,0,0,0,2.706e4,1.256e4,19.602,0.104,NaN,1999.686,NaN,0.044,2.96e6,1285.292,2.38,0.623,0.798,0.288,0.215,0.12,NaN,NaN,NaN,NaN,NaN,NaN,NaN,NaN,0.002,165,213.825,84,0,5.408,14.984,1012.958,340.379,0.01,0.039
1.48,2.629,13.843,37.586,13.919,37.793,0.276,0,0.276,0,1.455,3.95,22.175,120.893,9.788,20.305,0,0,0,2.704e4,1.254e4,19.592,0.104,NaN,1999.161,NaN,0.045,3.028e6,1287.587,2.501,0.623,0.801,0.288,0.215,0.12,NaN,NaN,NaN,NaN,NaN,NaN,NaN,NaN,0.002,165,213.825,84,0,5.388,14.983,1012.942,340.379,0.01,0.04
1.49,2.77,14.219,37.631,14.297,37.839,0.291,0,0.291,0,1.494,3.955,22.175,120.893,9.788,19.764,0,0,0,2.702e4,1.252e4,19.583,0.104,NaN,1998.635,NaN,0.046,3.096e6,1287.832,2.623,0.623,0.804,0.288,0.215,0.12,NaN,NaN,NaN,NaN,NaN,NaN,NaN,NaN,0.002,165,213.825,84,0,5.368,14.982,1012.925,340.378,0.01,0.04
1.5,2.914,14.596,37.701,14.676,37.909,0.306,0,0.306,0,1.534,3.963,22.175,120.893,9.788,19.246,0,0,0,2.699e4,1.249e4,19.574,0.104,NaN,1998.108,NaN,0.047,3.164e6,1288.735,2.748,0.623,0.806,0.288,0.215,0.12,NaN,NaN,NaN,NaN,NaN,NaN,NaN,NaN,0.002,165,213.825,84,0,5.349,14.981,1012.908,340.377,0.01,0.04
1.51,3.062,14.973,37.782,15.056,37.99,0.322,0,0.322,0,1.574,3.971,22.175,120.893,9.788,18.78,0,0,0,2.697e4,1.247e4,19.564,0.104,NaN,1997.579,NaN,0.048,3.234e6,1289.948,2.876,0.623,0.808,0.288,0.215,0.12,NaN,NaN,NaN,NaN,NaN,NaN,NaN,NaN,0.002,165,213.825,84,0,5.339,14.98,1012.891,340.377,0.01,0.04
1.52,3.213,15.351,37.798,15.436,38.006,0.338,0,0.338,0,1.613,3.973,22.175,120.893,9.788,18.334,0,0,0,2.695e4,1.244e4,19.555,0.104,NaN,1997.049,NaN,0.049,3.303e6,1289.376,3.006,0.623,0.809,0.288,0.215,0.12,NaN,NaN,NaN,NaN,NaN,NaN,NaN,NaN,0.002,165,213.825,84,0,5.329,14.979,1012.873,340.376,0.01,0.04
1.53,3.369,15.73,37.937,15.817,38.146,0.354,0,0.354,0,1.653,3.987,22.175,120.893,9.788,17.905,0,0,0,2.692e4,1.242e4,19.546,0.104,NaN,1996.518,NaN,0.051,3.374e6,1292.164,3.139,0.623,0.81,0.288,0.215,0.12,NaN,NaN,NaN,NaN,NaN,NaN,NaN,NaN,0.002,165,213.825,84,0,5.319,14.978,1012.855,340.376,0.01,0.04
1.54,3.528,16.11,38.007,16.199,38.216,0.371,0,0.371,0,1.693,3.995,22.175,120.893,9.788,17.492,0,0,0,2.69e4,1.24e4,19.536,0.104,NaN,1995.985,NaN,0.052,3.444e6,1293.051,3.274,0.623,0.81,0.288,0.215,0.12,NaN,NaN,NaN,NaN,NaN,NaN,NaN,NaN,0.002,165,213.825,84,0,5.309,14.977,1012.836,340.375,0.01,0.041
1.55,3.691,16.491,38.111,16.582,38.321,0.388,0,0.388,0,1.733,4.006,22.175,120.893,9.788,17.095,0,0,0,2.687e4,1.237e4,19.527,0.104,NaN,1995.451,NaN,0.053,3.515e6,1294.89,3.411,0.623,0.811,0.288,0.215,0.12,NaN,NaN,NaN,NaN,NaN,NaN,NaN,NaN,0.002,165,213.825,84,0,5.299,14.976,1012.817,340.374,0.01,0.041
1.56,3.858,16.873,38.236,16.966,38.446,0.405,0,0.405,0,1.773,4.019,22.175,120.893,9.788,16.672,0,0,0,2.685e4,1.235e4,19.517,0.104,NaN,1994.914,NaN,0.054,3.585e6,1297.251,3.548,0.624,0.81,0.288,0.215,0.12,NaN,NaN,NaN,NaN,NaN,NaN,NaN,NaN,0.002,165,213.825,84,0,5.275,14.975,1012.798,340.374,0.01,0.041
1.57,4.028,17.256,38.255,17.351,38.466,0.423,0,0.423,0,1.814,4.021,22.175,120.893,9.788,16.266,0,0,0,2.683e4,1.233e4,19.508,0.104,NaN,1994.377,NaN,0.055,3.656e6,1296.778,3.685,0.624,0.81,0.288,0.215,0.12,NaN,NaN,NaN,NaN,NaN,NaN,NaN,NaN,0.002,165,213.825,84,0,5.251,14.974,1012.778,340.373,0.01,0.041
1.585,4.291,17.831,38.359,17.929,38.592,0.451,1.135e-8,0.451,1.442e-6,1.877,4.234,22.175,120.893,9.788,15.692,0,0.014,6.608e-6,2.679e4,1.229e4,19.493,0.104,2011.366,1993.568,0.108,0.056,3.762e6,1298.654,3.893,0.624,0.807,0.288,0.215,0.12,4.554,0.491,-3.574e-4,0,0,0,0,6.151e-7,0.002,165,213.825,84,-6.092e-7,5.216,14.972,1012.747,340.372,0.015,0.042
1.608,4.702,18.697,38.562,18.801,38.794,0.494,7.206e-8,0.494,8.352e-6,1.973,4.233,22.175,120.893,9.788,15.005,0,0.047,-9.893e-6,2.674e4,1.224e4,19.472,0.104,2018.42,1992.348,0.158,0.059,3.926e6,1301.804,4.22,0.624,0.804,0.288,0.215,0.12,4.288,0.678,3.854e-4,0,0,0,0,6.353e-6,0.003,165,213.825,83.999,-1.744e-6,5.207,14.969,1012.699,340.37,0.023,0.042
1.641,5.355,20.008,38.903,20.119,39.129,0.563,2.663e-7,0.563,2.708e-5,2.115,4.205,22.175,120.893,9.788,14.401,0,0.117,2.673e-5,2.666e4,1.216e4,19.439,0.104,2024.861,1990.501,0.208,0.063,4.185e6,1307.398,4.767,0.624,0.799,0.288,0.215,0.121,4.059,0.846,-2.351e-4,0,0,0,0,3.459e-5,0.003,165,213.825,83.997,-3.521e-6,5.327,14.965,1012.622,340.368,0.034,0.042
1.691,6.405,21.969,39.324,22.092,39.552,0.674,7.966e-7,0.674,6.767e-5,2.327,4.248,22.175,120.893,9.788,12.747,0,0.277,9.45e-5,2.654e4,1.204e4,19.39,0.104,2043.67,1987.731,0.339,0.068,4.548e6,1313.533,5.508,0.624,0.782,0.288,0.216,0.121,3.455,1.171,-1.141e-4,0,0,0,0,1.641e-4,0.003,165,213.825,83.987,-1.074e-5,5.135,14.958,1012.499,340.364,0.05,0.042
1.741,7.553,23.959,39.902,24.093,40.135,0.796,1.639e-6,0.796,1.18e-4,2.542,4.314,22.175,120.893,9.788,11.364,0,0.517,5.112e-5,2.642e4,1.192e4,19.34,0.104,2060.881,1984.915,0.46,0.074,4.921e6,1323.765,6.296,0.624,0.763,0.288,0.216,0.121,2.976,1.37,3.208e-4,0,0,0,0,4.878e-4,0.003,165,213.825,83.967,-1.669e-5,4.965,14.951,1012.364,340.359,0.05,0.042
1.791,8.801,25.98,40.53,26.127,40.767,0.929,2.818e-6,0.929,1.739e-4,2.76,4.381,22.175,120.893,9.788,10.303,0,0.829,-8.743e-5,2.63e4,1.18e4,19.29,0.103,2075.09,1982.048,0.564,0.08,5.307e6,1335.184,7.169,0.624,0.747,0.288,0.216,0.121,2.625,1.479,4.177e-5,0,0,0,0,0.001,0.004,165,213.825,83.934,-8.895e-6,4.871,14.943,1012.218,340.354,0.05,0.043
1.841,10.152,28.036,41.206,28.194,41.441,1.072,4.361e-6,1.072,2.33e-4,2.982,4.411,22.175,120.893,9.788,9.784,0,1.213,-5.653e-5,2.617e4,1.167e4,19.238,0.103,2082.415,1979.127,0.626,0.086,5.713e6,1347.677,8.217,0.624,0.739,0.288,0.216,0.121,2.459,1.538,3.422e-4,0,0,0,0,0.002,0.004,165,213.825,83.883,-1.133e-6,5.005,14.934,1012.059,340.349,0.05,0.043
1.891,11.606,30.131,42.006,30.301,42.259,1.227,6.294e-6,1.227,2.939e-4,3.208,4.618,22.175,120.893,9.788,8.394,0,1.669,1.183e-5,2.605e4,1.155e4,19.185,0.103,2103.131,1976.143,0.77,0.091,6.101e6,1363.475,9.085,0.625,0.716,0.288,0.216,0.121,2.031,1.559,-1.231e-4,0,0,0,0,0.003,0.004,165,213.825,83.812,1.879e-6,4.631,14.925,1011.889,340.343,0.05,0.043
1.941,13.166,32.259,42.669,32.442,42.917,1.393,8.647e-6,1.393,3.556e-4,3.441,4.612,22.175,120.893,9.788,8.478,0,2.195,-6.714e-6,2.593e4,1.143e4,19.132,0.103,2101.896,1973.105,0.781,0.098,6.536e6,1375.364,10.454,0.625,0.718,0.288,0.216,0.121,2.056,1.6,2.003e-4,0,0,0,0,0.005,0.004,165,213.825,83.715,5.406e-6,5.059,14.914,1011.706,340.337,0.05,0.043
1.991,14.833,34.425,43.415,34.62,43.671,1.571,1.145e-5,1.571,4.174e-4,3.675,4.719,22.175,120.893,9.788,8.101,0,2.817,6.046e-5,2.58e4,1.13e4,19.077,0.103,2107.859,1970.006,0.835,0.104,6.966e6,1389.417,11.777,0.625,0.712,0.288,0.216,0.121,1.944,1.617,4.31e-4,0,0,0,0,0.007,0.005,165,213.825,83.59,2.052e-5,5.235,14.904,1011.51,340.33,0.05,0.043
2.041,16.609,36.64,44.403,36.849,44.684,1.761,1.472e-5,1.761,4.789e-4,3.92,5.008,22.175,120.893,9.788,7.191,0,3.516,-1.12e-4,2.567e4,1.117e4,19.021,0.102,2122.753,1966.831,0.945,0.111,7.389e6,1409.711,12.979,0.625,0.698,0.288,0.216,0.122,1.681,1.578,-7.856e-5,0,0,0,0,0.01,0.005,165,213.825,83.432,4.958e-5,5.052,14.892,1011.302,340.323,0.05,0.043
2.091,18.498,38.898,45.271,39.122,45.574,1.963,1.85e-5,1.963,5.4e-4,4.178,5.245,22.175,120.893,9.788,6.722,0,4.283,5.999e-5,2.554e4,1.104e4,18.964,0.102,2130.816,1963.584,1.014,0.118,7.834e6,1426.753,14.441,0.626,0.69,0.287,0.216,0.122,1.55,1.558,6.246e-5,0,0,0,0,0.013,0.005,165,213.825,83.238,9.49e-5,5.149,14.88,1011.081,340.316,0.05,0.044
2.141,20.5,41.186,45.864,41.425,46.18,2.179,2.284e-5,2.179,6.006e-4,4.445,5.388,22.175,120.893,9.788,6.698,0,5.151,2.04e-4,2.541e4,1.091e4,18.906,0.102,2131.314,1960.282,1.037,0.125,8.301e6,1436.554,16.215,0.626,0.69,0.287,0.216,0.122,1.544,1.583,-3.994e-4,0,0,0,0,0.017,0.006,165,213.825,83.002,1.299e-4,5.592,14.867,1010.846,340.308,0.05,0.044
2.191,22.617,43.508,46.539,43.763,46.868,2.408,2.777e-5,2.408,6.608e-4,4.72,5.542,22.175,120.893,9.788,6.8,-9.747e-7,6.151,-2.123e-4,2.528e4,1.078e4,18.847,0.102,2129.662,1956.918,1.047,0.132,8.782e6,1448.404,18.203,0.626,0.692,0.287,0.217,0.122,1.572,1.625,9.801e-5,0,0,0,0,0.022,0.006,165,213.825,82.72,1.319e-4,6.192,14.853,1010.597,340.3,0.05,0.044
2.241,24.851,45.865,47.233,46.137,47.619,2.651,3.332e-5,2.651,7.2e-4,5.01,6.057,22.175,120.893,9.788,5.935,-1.523e-6,7.26,-2.574e-4,2.515e4,1.065e4,18.787,0.102,2145.076,1953.489,1.161,0.139,9.235e6,1461.178,19.753,0.626,0.679,0.287,0.217,0.122,1.337,1.525,4.129e-4,0,0,0,0,0.027,0.006,165,213.825,82.385,1.479e-4,6.043,14.838,1010.335,340.291,0.05,0.044
2.291,27.204,48.245,47.685,48.538,48.162,2.91,3.952e-5,2.91,7.783e-4,5.331,6.761,22.175,120.893,9.788,4.701,1.503e-6,8.356,4.192e-4,2.501e4,1.051e4,18.726,0.101,2168.59,1950.006,1.325,0.145,9.679e6,1468.288,21.152,0.627,0.662,0.287,0.217,0.123,1.019,1.318,3.304e-4,0,0,0,0,0.033,0.007,165,213.825,81.995,1.982e-4,5.547,14.823,1010.059,340.282,0.05,0.044
2.341,29.676,50.626,47.721,50.944,48.254,3.185,4.645e-5,3.185,8.357e-4,5.679,7.157,22.175,120.893,9.788,4.475,-1.906e-6,9.437,-1.567e-4,2.488e4,1.038e4,18.664,0.101,2173.206,1946.495,1.374,0.153,1.016e7,1464.702,23.238,0.627,0.659,0.287,0.217,0.123,0.963,1.286,-2.779e-4,0,0,0,0,0.038,0.007,165,213.825,81.55,2.621e-4,5.938,14.807,1009.77,340.272,0.05,0.045
2.391,32.266,53.008,47.707,53.352,48.333,3.478,5.416e-5,3.478,8.922e-4,6.05,7.755,22.175,120.893,9.788,3.881,0,10.604,5.584e-4,2.475e4,1.025e4,18.602,0.101,2185.512,1942.956,1.47,0.16,1.064e7,1460.577,25.185,0.628,0.653,0.287,0.217,0.123,0.82,1.161,-1.366e-4,0,0,0,0,0.044,0.007,165,213.825,81.049,2.525e-4,6.024,14.79,1009.466,340.262,0.05,0.045
2.441,34.976,55.391,47.715,55.766,48.469,3.79,6.269e-5,3.79,9.476e-4,6.456,8.513,22.175,120.893,9.788,3.114,-2.001e-6,11.698,5.323e-4,2.461e4,1.011e4,18.539,0.101,2202.144,1939.385,1.592,0.167,1.11e7,1457.734,27.115,0.628,0.645,0.287,0.217,0.124,0.641,0.972,-2.123e-4,0,0,0,0,0.049,0.008,165,213.825,80.491,1.86e-4,5.947,14.773,1009.148,340.251,0.05,0.045
2.491,37.805,57.753,47.296,58.163,48.181,4.124,7.204e-5,4.124,0.001,6.897,9.192,22.175,120.893,9.788,2.573,0,12.696,4.801e-4,2.448e4,9982.7,18.477,0.101,2214.451,1935.809,1.689,0.174,1.158e7,1444.705,29.277,0.628,0.64,0.287,0.218,0.124,0.52,0.826,-1.946e-4,0,0,0,0,0.053,0.008,165,213.825,79.881,1.524e-4,6.109,14.754,1008.816,340.24,0.05,0.046
2.541,40.751,60.107,47.107,60.558,48.168,4.481,8.227e-5,4.481,0.001,7.376,10.054,22.175,120.893,9.788,1.877,5.402e-6,13.588,0.002,2.435e4,9851.919,18.414,0.1,2230.989,1932.21,1.811,0.181,1.204e7,1438.362,31.456,0.629,0.635,0.287,0.218,0.124,0.37,0.615,-4.313e-4,0,0,0,0,0.056,0.008,165,213.825,79.223,1.775e-4,6.117,14.735,1008.471,340.228,0.05,0.046
2.591,43.815,62.445,46.772,62.942,48.032,4.862,9.343e-5,4.862,0.001,7.899,10.927,22.175,120.893,9.788,1.25,-3.867e-6,14.257,0.002,2.422e4,9721.977,18.351,0.1,2246.63,1928.595,1.927,0.188,1.251e7,1429.136,33.798,0.629,0.632,0.287,0.218,0.125,0.241,0.408,3.089e-4,0,0,0,0,0.057,0.009,165,213.825,78.527,1.654e-4,6.199,14.715,1008.111,340.216,0.05,0.046
2.641,46.996,64.788,46.87,65.339,48.361,5.271,1.056e-4,5.271,0.001,8.47,11.915,22.175,120.893,9.788,0.698,0,14.7,0.004,2.409e4,9591.843,18.287,0.1,2261.018,1924.936,2.037,0.195,1.299e7,1431.244,36.336,0.63,0.631,0.287,0.218,0.125,0.132,0.213,1.26e-4,0,0,0,0,0.056,0.009,165,213.825,77.802,1.594e-4,6.362,14.695,1007.738,340.204,0.05,0.046
2.691,50.294,67.13,46.815,67.743,48.594,5.71,1.188e-4,5.71,0.001,9.093,13.029,22.175,120.893,9.788,0.074,2.916e-6,-14.817,0.037,2.396e4,9461.748,18.222,0.1,2278.007,1921.238,2.162,0.202,1.345e7,1430.823,38.962,0.63,0.63,0.287,0.218,0.125,0.014,0.083,4.598e-4,0,0,0,0,-0.053,0.009,165,213.825,77.062,1.922e-4,6.235,14.673,1007.351,340.191,0.05,0.046
2.741,53.709,69.476,46.894,70.16,48.972,6.182,1.331e-4,6.182,0.001,9.773,14.113,22.175,120.893,9.788,0.623,-3.577e-6,-14.474,0.005,2.383e4,9331.363,18.157,0.1,2263.299,1917.492,2.096,0.21,1.393e7,1433.995,41.866,0.631,0.632,0.287,0.219,0.126,0.118,0.294,1.212e-4,0,0,0,0,-0.047,0.009,165,213.825,76.329,2.248e-4,6.326,14.651,1006.951,340.177,0.05,0.046
2.791,57.242,71.835,47.162,72.599,49.52,6.688,1.487e-4,6.688,0.001,10.506,15.098,22.175,120.893,9.788,0.858,-8.606e-6,-13.856,0.004,2.37e4,9200.305,18.091,0.099,2257.29,1913.685,2.082,0.217,1.443e7,1441.415,45.005,0.632,0.633,0.287,0.219,0.126,0.164,0.381,-4.876e-4,0,0,0,0,-0.04,0.01,165,213.825,75.62,2.868e-4,6.768,14.628,1006.536,340.163,0.05,0.047
2.841,60.893,74.203,47.307,75.057,50.021,7.233,1.656e-4,7.233,0.001,11.291,16.253,22.175,120.893,9.788,1.403,-3.544e-6,-12.956,0.003,2.357e4,9068.707,18.023,0.099,2243.57,1909.819,2.023,0.224,1.491e7,1447.346,48.272,0.632,0.636,0.286,0.219,0.127,0.273,0.584,-8.536e-5,0,0,0,0,-0.033,0.01,165,213.825,74.948,4.099e-4,6.727,14.604,1006.108,340.149,0.05,0.047
2.891,64.662,76.558,47.078,77.512,50.077,7.818,1.841e-4,7.818,0.001,12.124,17.068,22.175,120.893,9.787,1.606,1.461e-6,-11.63,0.002,2.344e4,8937.495,17.955,0.099,2238.713,1905.922,2.017,0.232,1.54e7,1443.113,51.689,0.633,0.637,0.286,0.219,0.127,0.315,0.66,-2.643e-5,0,0,0,0,-0.025,0.01,165,213.825,74.333,5.823e-4,7.05,14.58,1005.666,340.134,0.05,0.047
2.941,68.548,78.893,46.672,79.957,49.979,8.446,2.045e-4,8.446,0.001,12.995,17.877,22.175,120.893,9.787,1.93,3.338e-6,-10.066,0.002,2.331e4,8806.998,17.887,0.099,2231.008,1902.002,1.994,0.239,1.588e7,1435.232,55.206,0.633,0.64,0.286,0.22,0.127,0.383,0.781,-2.404e-4,0,0,0,0,-0.018,0.011,165,213.825,73.789,8.499e-4,7.085,14.554,1005.21,340.119,0.05,0.047
2.991,72.551,81.23,46.68,82.413,50.327,9.119,2.271e-4,9.119,0.001,13.913,18.81,22.175,120.893,9.787,2.318,-3.757e-7,-8.052,0.003,2.318e4,8676.274,17.818,0.099,2221.988,1898.031,1.963,0.247,1.635e7,1437.734,58.854,0.634,0.644,0.286,0.22,0.128,0.466,0.926,3.358e-5,0,0,0,0,-0.011,0.011,165,213.825,73.335,0.001,6.86,14.528,1004.741,340.103,0.05,0.048
3.041,76.671,83.578,46.951,84.892,50.904,9.838,2.527e-4,9.838,0.001,14.879,19.668,22.175,120.893,9.787,2.607,7.054e-6,-5.584,8.244e-4,2.305e4,8544.831,17.748,0.098,2215.493,1893.993,1.948,0.254,1.682e7,1445.651,62.608,0.635,0.647,0.286,0.22,0.128,0.53,1.037,-4.047e-4,0,0,0,0,-0.005,0.011,165,213.825,72.993,0.002,6.577,14.502,1004.258,340.087,0.05,0.048
