# Time (s),Altitude (m),Vertical velocity (m/s),Vertical acceleration (m/s²),Total velocity (m/s),Total acceleration (m/s²),Position East of launch (m),Position North of launch (m),Lateral distance (m),Lateral direction (°),Lateral velocity (m/s),Lateral acceleration (m/s²),Latitude (°),Longitude (°),Gravitational acceleration (m/s²),Angle of attack (°),Roll rate (°/s),Pitch rate (°/s),Yaw rate (°/s),Mass (g),Motor mass (g),Longitudinal moment of inertia (kg·m²),Rotational moment of inertia (kg·m²),CP location (mm),CG location (mm),Stability margin calibers (​),Mach number (​),Reynolds number (​),Thrust (N),Drag force (N),Drag coefficient (​),Axial drag coefficient (​),Friction drag coefficient (​),Pressure drag coefficient (​),Base drag coefficient (​),Normal force coefficient (​),Pitch moment coefficient (​),Yaw moment coefficient (​),Side force coefficient (​),Roll moment coefficient (​),Roll forcing coefficient (​),Roll damping coefficient (​),Pitch damping coefficient (​),Coriolis acceleration (m/s²),Reference length (mm),Reference area (cm²),Vertical orientation (zenith) (°),Lateral orientation (azimuth) (°),Wind velocity (m/s),Air temperature (°C),Air pressure (mbar),Speed of sound (m/s),Simulation time step (s),Computation time (s)
0.01,-4.757e-4,-0.095,-9.511,0.096,9.563,-5e-5,0,5e-5,180,0.01,1,22.175,120.893,9.788,86.566,0,0,0,2.8e4,1.35e4,19.963,0.106,NaN,2019.994,NaN,0.006,4.167e5,4.784,2.294e-5,0.743,3.881e-4,0.408,0.215,0.12,NaN,NaN,NaN,NaN,NaN,NaN,NaN,NaN,1.293e-5,165,213.825,84,0,2.132,15,1013.25,340.389,0.01,0.003
0.02,-4.761e-4,-0.095,-9.522,0.096,9.575,-5.004e-5,0,5.004e-5,180,0.01,1.001,22.175,120.893,9.788,86.586,0,0,0,2.8e4,1.35e4,19.963,0.106,NaN,2019.992,NaN,0.006,4.139e5,4.461,2.227e-5,0.744,3.817e-4,0.408,0.215,0.12,NaN,NaN,NaN,NaN,NaN,NaN,NaN,NaN,1.294e-5,165,213.825,84,0,2.119,15,1013.25,340.389,0.01,0.004
0.03,-4.763e-4,-0.095,-9.526,0.096,9.579,-5.006e-5,0,5.006e-5,180,0.01,1.001,22.175,120.893,9.788,86.604,0,0,0,2.8e4,1.35e4,19.963,0.106,NaN,2019.991,NaN,0.006,4.112e5,4.343,2.165e-5,0.744,3.76e-4,0.409,0.215,0.12,NaN,NaN,NaN,NaN,NaN,NaN,NaN,NaN,1.295e-5,165,213.825,84,0,2.105,15,1013.25,340.389,0.01,0.005
0.04,-4.765e-4,-0.095,-9.53,0.096,9.582,-5.008e-5,0,5.008e-5,180,0.01,1.002,22.175,120.893,9.788,86.622,0,0,0,2.8e4,1.35e4,19.963,0.106,NaN,2019.989,NaN,0.006,4.085e5,4.249,2.104e-5,0.745,3.703e-4,0.41,0.215,0.12,NaN,NaN,NaN,NaN,NaN,NaN,NaN,NaN,1.295e-5,165,213.825,84,0,2.091,15,1013.25,340.389,0.01,0.005
0.05,-4.761e-4,-0.095,-9.523,0.096,9.575,-5.005e-5,0,5.005e-5,180,0.01,1.001,22.175,120.893,9.788,86.638,0,0,0,2.8e4,1.35e4,19.963,0.106,NaN,2019.988,NaN,0.006,4.058e5,4.443,2.049e-5,0.745,3.655e-4,0.41,0.215,0.12,NaN,NaN,NaN,NaN,NaN,NaN,NaN,NaN,1.294e-5,165,213.825,84,0,2.077,15,1013.25,340.389,0.01,0.016
0.06,-4.757e-4,-0.095,-9.514,0.096,9.567,-5e-5,0,5e-5,180,0.01,1,22.175,120.893,9.788,86.636,0,0,0,2.8e4,1.35e4,19.963,0.106,NaN,2019.986,NaN,0.006,4.057e5,4.681,2.051e-5,0.745,3.661e-4,0.41,0.215,0.12,NaN,NaN,NaN,NaN,NaN,NaN,NaN,NaN,1.293e-5,165,213.825,84,0,2.076,15,1013.25,340.389,0.01,0.016
0.07,-4.762e-4,-0.095,-9.523,0.096,9.576,-5.005e-5,0,5.005e-5,180,0.01,1.001,22.175,120.893,9.788,86.639,0,0,0,2.8e4,1.35e4,19.963,0.106,NaN,2019.984,NaN,0.006,4.056e5,4.438,2.045e-5,0.745,3.651e-4,0.41,0.215,0.12,NaN,NaN,NaN,NaN,NaN,NaN,NaN,NaN,1.294e-5,165,213.825,84,0,2.076,15,1013.25,340.389,0.01,0.016
0.08,-4.761e-4,-0.095,-9.522,0.096,9.574,-5.004e-5,0,5.004e-5,180,0.01,1.001,22.175,120.893,9.788,86.64,0,0,0,2.8e4,1.35e4,19.963,0.106,NaN,2019.982,NaN,0.006,4.055e5,4.479,2.044e-5,0.745,3.65e-4,0.41,0.215,0.12,NaN,NaN,NaN,NaN,NaN,NaN,NaN,NaN,1.294e-5,165,213.825,84,0,2.075,15,1013.25,340.389,0.01,0.016
0.09,-4.759e-4,-0.095,-9.517,0.096,9.57,-5.002e-5,0,5.002e-5,180,0.01,1,22.175,120.893,9.788,86.639,0,0,0,2.8e4,1.35e4,19.963,0.106,NaN,2019.981,NaN,0.006,4.054e5,4.603,2.044e-5,0.745,3.652e-4,0.41,0.215,0.12,NaN,NaN,NaN,NaN,NaN,NaN,NaN,NaN,1.294e-5,165,213.825,84,0,2.075,15,1013.25,340.389,0.01,0.017
0.1,-4.764e-4,-0.095,-9.527,0.096,9.58,-5.007e-5,0,5.007e-5,180,0.01,1.001,22.175,120.893,9.788,86.642,0,0,0,2.8e4,1.35e4,19.963,0.106,NaN,2019.979,NaN,0.006,4.053e5,4.315,2.037e-5,0.745,3.641e-4,0.41,0.215,0.12,NaN,NaN,NaN,NaN,NaN,NaN,NaN,NaN,1.295e-5,165,213.825,84,0,2.074,15,1013.25,340.389,0.01,0.017
0.11,-4.762e-4,-0.095,-9.523,0.096,9.576,-5.005e-5,0,5.005e-5,180,0.01,1.001,22.175,120.893,9.788,86.633,0,0,0,2.8e4,1.35e4,19.963,0.106,NaN,2019.977,NaN,0.006,4.066e5,4.431,2.068e-5,0.745,3.672e-4,0.41,0.215,0.12,NaN,NaN,NaN,NaN,NaN,NaN,NaN,NaN,1.294e-5,165,213.825,84,0,2.081,15,1013.25,340.389,0.01,0.017
0.12,-4.762e-4,-0.095,-9.523,0.096,9.576,-5.005e-5,0,5.005e-5,180,0.01,1.001,22.175,120.893,9.788,86.624,0,0,0,2.8e4,1.35e4,19.962,0.106,NaN,2019.976,NaN,0.006,4.08e5,4.436,2.096e-5,0.745,3.699e-4,0.41,0.215,0.12,NaN,NaN,NaN,NaN,NaN,NaN,NaN,NaN,1.294e-5,165,213.825,84,0,2.088,15,1013.25,340.389,0.01,0.017
0.13,-4.758e-4,-0.095,-9.517,0.096,9.569,-5.001e-5,0,5.001e-5,180,0.01,1,22.175,120.893,9.788,86.613,0,0,0,2.8e4,1.35e4,19.962,0.106,NaN,2019.974,NaN,0.006,4.093e5,4.62,2.129e-5,0.745,3.731e-4,0.409,0.215,0.12,NaN,NaN,NaN,NaN,NaN,NaN,NaN,NaN,1.294e-5,165,213.825,84,0,2.095,15,1013.25,340.389,0.01,0.018
0.14,-4.762e-4,-0.095,-9.524,0.096,9.577,-5.005e-5,0,5.005e-5,180,0.01,1.001,22.175,120.893,9.788,86.607,0,0,0,2.8e4,1.35e4,19.962,0.106,NaN,2019.972,NaN,0.006,4.107e5,4.404,2.154e-5,0.744,3.751e-4,0.409,0.215,0.12,NaN,NaN,NaN,NaN,NaN,NaN,NaN,NaN,1.295e-5,165,213.825,84,0,2.102,15,1013.25,340.389,0.01,0.018
0.15,-4.761e-4,-0.095,-9.523,0.096,9.575,-5.004e-5,0,5.004e-5,180,0.01,1.001,22.175,120.893,9.788,86.598,0,0,0,2.8e4,1.35e4,19.962,0.106,NaN,2019.97,NaN,0.006,4.12e5,4.444,2.185e-5,0.744,3.779e-4,0.409,0.215,0.12,NaN,NaN,NaN,NaN,NaN,NaN,NaN,NaN,1.294e-5,165,213.825,84,0,2.109,15,1013.25,340.389,0.01,0.018
0.16,-4.758e-4,-0.095,-9.516,0.096,9.568,-5.001e-5,0,5.001e-5,180,0.01,1,22.175,120.893,9.788,86.602,0,0,0,2.8e4,1.35e4,19.962,0.106,NaN,2019.969,NaN,0.006,4.111e5,4.651,2.168e-5,0.744,3.767e-4,0.409,0.215,0.12,NaN,NaN,NaN,NaN,NaN,NaN,NaN,NaN,1.293e-5,165,213.825,84,0,2.104,15,1013.25,340.389,0.01,0.019
0.17,-4.765e-4,-0.095,-9.531,0.096,9.583,-5.009e-5,0,5.009e-5,180,0.01,1.002,22.175,120.893,9.788,86.612,0,0,0,2.8e4,1.35e4,19.962,0.106,NaN,2019.967,NaN,0.006,4.102e5,4.218,2.14e-5,0.744,3.735e-4,0.409,0.215,0.12,NaN,NaN,NaN,NaN,NaN,NaN,NaN,NaN,1.295e-5,165,213.825,84,0,2.099,15,1013.25,340.389,0.01,0.019
0.18,-4.765e-4,-0.095,-9.531,0.096,9.583,-5.009e-5,0,5.009e-5,180,0.01,1.002,22.175,120.893,9.788,86.618,0,0,0,2.8e4,1.35e4,19.962,0.106,NaN,2019.965,NaN,0.006,4.093e5,4.225,2.12e-5,0.745,3.717e-4,0.409,0.215,0.12,NaN,NaN,NaN,NaN,NaN,NaN,NaN,NaN,1.295e-5,165,213.825,84,0,2.095,15,1013.25,340.389,0.01,0.019
0.19,-4.764e-4,-0.095,-9.527,0.096,9.58,-5.007e-5,0,5.007e-5,180,0.01,1.001,22.175,120.893,9.788,86.623,0,0,0,2.8e4,1.35e4,19.962,0.106,NaN,2019.964,NaN,0.006,4.083e5,4.321,2.102e-5,0.745,3.702e-4,0.41,0.215,0.12,NaN,NaN,NaN,NaN,NaN,NaN,NaN,NaN,1.295e-5,165,213.825,84,0,2.09,15,1013.25,340.389,0.01,0.019
0.2,-4.766e-4,-0.095,-9.532,0.096,9.585,-5.01e-5,0,5.01e-5,180,0.01,1.002,22.175,120.893,9.788,86.63,0,0,0,2.8e4,1.35e4,19.962,0.106,NaN,2019.962,NaN,0.006,4.074e5,4.174,2.079e-5,0.745,3.679e-4,0.41,0.215,0.12,NaN,NaN,NaN,NaN,NaN,NaN,NaN,NaN,1.296e-5,165,213.825,84,0,2.085,15,1013.25,340.389,0.01,0.02
0.21,-4.763e-4,-0.095,-9.525,0.096,9.578,-5.006e-5,0,5.006e-5,180,0.01,1.001,22.175,120.893,9.788,86.627,0,0,0,2.8e4,1.35e4,19.962,0.106,NaN,2019.961,NaN,0.006,4.076e5,4.381,2.088e-5,0.745,3.69e-4,0.41,0.215,0.12,NaN,NaN,NaN,NaN,NaN,NaN,NaN,NaN,1.295e-5,165,213.825,84,0,2.086,15,1013.25,340.389,0.01,0.02
0.22,-4.758e-4,-0.095,-9.515,0.096,9.568,-5.001e-5,0,5.001e-5,180,0.01,1,22.175,120.893,9.788,86.622,0,0,0,2.8e4,1.35e4,19.962,0.106,NaN,2019.959,NaN,0.006,4.079e5,4.657,2.098e-5,0.745,3.703e-4,0.41,0.215,0.12,NaN,NaN,NaN,NaN,NaN,NaN,NaN,NaN,1.293e-5,165,213.825,84,0,2.088,15,1013.25,340.389,0.01,0.02
0.23,-4.762e-4,-0.095,-9.525,0.096,9.577,-5.005e-5,0,5.005e-5,180,0.01,1.001,22.175,120.893,9.788,86.624,0,0,0,2.8e4,1.35e4,19.962,0.106,NaN,2019.957,NaN,0.006,4.081e5,4.392,2.098e-5,0.745,3.699e-4,0.41,0.215,0.12,NaN,NaN,NaN,NaN,NaN,NaN,NaN,NaN,1.295e-5,165,213.825,84,0,2.089,15,1013.25,340.389,0.01,0.021
0.24,-4.76e-4,-0.095,-9.52,0.096,9.573,-5.003e-5,0,5.003e-5,180,0.01,1.001,22.175,120.893,9.788,86.621,0,0,0,2.8e4,1.35e4,19.962,0.106,NaN,2019.955,NaN,0.006,4.083e5,4.513,2.105e-5,0.745,3.708e-4,0.41,0.215,0.12,NaN,NaN,NaN,NaN,NaN,NaN,NaN,NaN,1.294e-5,165,213.825,84,0,2.09,15,1013.25,340.389,0.01,0.021
0.25,-4.759e-4,-0.095,-9.518,0.096,9.57,-5.002e-5,0,5.002e-5,180,0.01,1,22.175,120.893,9.788,86.619,0,0,0,2.8e4,1.35e4,19.962,0.106,NaN,2019.954,NaN,0.006,4.085e5,4.587,2.111e-5,0.745,3.715e-4,0.41,0.215,0.12,NaN,NaN,NaN,NaN,NaN,NaN,NaN,NaN,1.294e-5,165,213.825,84,0,2.091,15,1013.25,340.389,0.01,0.021
0.26,-4.762e-4,-0.095,-9.523,0.096,9.576,-5.005e-5,0,5.005e-5,180,0.01,1.001,22.175,120.893,9.788,86.626,0,0,0,2.8e4,1.35e4,19.962,0.106,NaN,2019.952,NaN,0.006,4.077e5,4.429,2.089e-5,0.745,3.692e-4,0.41,0.215,0.12,NaN,NaN,NaN,NaN,NaN,NaN,NaN,NaN,1.294e-5,165,213.825,84,0,2.087,15,1013.25,340.389,0.01,0.021
0.27,-4.76e-4,-0.095,-9.52,0.096,9.572,-5.003e-5,0,5.003e-5,180,0.01,1.001,22.175,120.893,9.788,86.631,0,0,0,2.8e4,1.35e4,19.962,0.106,NaN,2019.95,NaN,0.006,4.068e5,4.527,2.073e-5,0.745,3.678e-4,0.41,0.215,0.12,NaN,NaN,NaN,NaN,NaN,NaN,NaN,NaN,1.294e-5,165,213.825,84,0,2.082,15,1013.25,340.389,0.01,0.021
0.28,-4.761e-4,-0.095,-9.521,0.096,9.574,-5.004e-5,0,5.004e-5,180,0.01,1.001,22.175,120.893,9.788,86.637,0,0,0,2.8e4,1.35e4,19.962,0.106,NaN,2019.949,NaN,0.006,4.059e5,4.488,2.053e-5,0.745,3.66e-4,0.41,0.215,0.12,NaN,NaN,NaN,NaN,NaN,NaN,NaN,NaN,1.294e-5,165,213.825,84,0,2.078,15,1013.25,340.389,0.01,0.022
0.29,-4.758e-4,-0.095,-9.517,0.096,9.569,-5.001e-5,0,5.001e-5,180,0.01,1,22.175,120.893,9.788,86.641,0,0,0,2.8e4,1.35e4,19.962,0.106,NaN,2019.947,NaN,0.006,4.051e5,4.616,2.037e-5,0.745,3.646e-4,0.41,0.215,0.12,NaN,NaN,NaN,NaN,NaN,NaN,NaN,NaN,1.294e-5,165,213.825,84,0,2.073,15,1013.25,340.389,0.01,0.022
0.3,-4.76e-4,-0.095,-9.519,0.096,9.572,-5.003e-5,0,5.003e-5,180,0.01,1.001,22.175,120.893,9.788,86.647,0,0,0,2.8e4,1.35e4,19.962,0.106,NaN,2019.945,NaN,0.006,4.042e5,4.548,2.018e-5,0.746,3.627e-4,0.411,0.215,0.12,NaN,NaN,NaN,NaN,NaN,NaN,NaN,NaN,1.294e-5,165,213.825,84,0,2.069,15,1013.25,340.389,0.01,0.022
0.31,-4.757e-4,-0.095,-9.514,0.096,9.566,-5e-5,0,5e-5,180,0.01,1,22.175,120.893,9.788,86.632,0,0,0,2.8e4,1.35e4,19.962,0.106,NaN,2019.943,NaN,0.006,4.063e5,4.706,2.065e-5,0.745,3.674e-4,0.41,0.215,0.12,NaN,NaN,NaN,NaN,NaN,NaN,NaN,NaN,1.293e-5,165,213.825,84,0,2.08,15,1013.25,340.389,0.01,0.022
0.32,-4.763e-4,-0.095,-9.527,0.096,9.579,-5.007e-5,0,5.007e-5,180,0.01,1.001,22.175,120.893,9.788,86.622,0,0,0,2.8e4,1.35e4,19.962,0.106,NaN,2019.942,NaN,0.006,4.084e5,4.332,2.104e-5,0.745,3.704e-4,0.41,0.215,0.12,NaN,NaN,NaN,NaN,NaN,NaN,NaN,NaN,1.295e-5,165,213.825,84,0,2.09,15,1013.25,340.389,0.01,0.023
0.33,-4.761e-4,-0.095,-9.521,0.096,9.574,-5.004e-5,0,5.004e-5,180,0.01,1.001,22.175,120.893,9.788,86.607,0,0,0,2.8e4,1.35e4,19.962,0.106,NaN,2019.94,NaN,0.006,4.106e5,4.483,2.153e-5,0.744,3.751e-4,0.409,0.215,0.12,NaN,NaN,NaN,NaN,NaN,NaN,NaN,NaN,1.294e-5,165,213.825,84,0,2.101,15,1013.25,340.389,0.01,0.023
0.34,-4.759e-4,-0.095,-9.518,0.096,9.571,-5.002e-5,0,5.002e-5,180,0.01,1,22.175,120.893,9.788,86.593,0,0,0,2.8e4,1.35e4,19.962,0.106,NaN,2019.938,NaN,0.006,4.127e5,4.57,2.201e-5,0.744,3.796e-4,0.409,0.215,0.12,NaN,NaN,NaN,NaN,NaN,NaN,NaN,NaN,1.294e-5,165,213.825,84,0,2.112,15,1013.25,340.389,0.01,0.023
0.35,-4.762e-4,-0.095,-9.524,0.096,9.576,-5.005e-5,0,5.005e-5,180,0.01,1.001,22.175,120.893,9.788,86.581,0,0,0,2.8e4,1.35e4,19.962,0.106,NaN,2019.936,NaN,0.006,4.148e5,4.419,2.245e-5,0.743,3.832e-4,0.408,0.215,0.12,NaN,NaN,NaN,NaN,NaN,NaN,NaN,NaN,1.294e-5,165,213.825,84,0,2.123,15,1013.25,340.389,0.01,0.023
0.36,-4.764e-4,-0.095,-9.527,0.096,9.58,-5.007e-5,0,5.007e-5,180,0.01,1.001,22.175,120.893,9.788,86.558,0,0,0,2.8e4,1.35e4,19.962,0.106,NaN,2019.935,NaN,0.006,4.187e5,4.317,2.331e-5,0.743,3.905e-4,0.407,0.215,0.12,NaN,NaN,NaN,NaN,NaN,NaN,NaN,NaN,1.295e-5,165,213.825,84,0,2.143,15,1013.25,340.389,0.01,0.023
0.37,-4.76e-4,-0.095,-9.52,0.096,9.573,-5.003e-5,0,5.003e-5,180,0.01,1.001,22.175,120.893,9.788,86.532,0,0,0,2.8e4,1.35e4,19.962,0.106,NaN,2019.933,NaN,0.006,4.226e5,4.522,2.424e-5,0.742,3.987e-4,0.407,0.215,0.12,NaN,NaN,NaN,NaN,NaN,NaN,NaN,NaN,1.294e-5,165,213.825,84,0,2.163,15,1013.25,340.389,0.01,0.024
0.38,-4.762e-4,-0.095,-9.523,0.096,9.576,-5.005e-5,0,5.005e-5,180,0.01,1.001,22.175,120.893,9.788,86.51,0,0,0,2.8e4,1.35e4,19.962,0.106,NaN,2019.931,NaN,0.006,4.264e5,4.433,2.513e-5,0.741,4.058e-4,0.406,0.215,0.12,NaN,NaN,NaN,NaN,NaN,NaN,NaN,NaN,1.294e-5,165,213.825,84,0,2.182,15,1013.25,340.389,0.01,0.024
0.39,-4.757e-4,-0.095,-9.515,0.096,9.567,-5e-5,0,5e-5,180,0.01,1,22.175,120.893,9.788,86.485,0,0,0,2.8e4,1.35e4,19.962,0.106,NaN,2019.93,NaN,0.006,4.303e5,4.673,2.611e-5,0.74,4.14e-4,0.405,0.215,0.12,NaN,NaN,NaN,NaN,NaN,NaN,NaN,NaN,1.293e-5,165,213.825,84,0,2.202,15,1013.25,340.389,0.01,0.024
0.4,-4.755e-4,-0.095,-9.51,0.096,9.562,-4.998e-5,0,4.998e-5,180,0.01,1,22.175,120.893,9.788,86.462,0,0,0,2.8e4,1.35e4,19.962,0.106,NaN,2019.928,NaN,0.007,4.342e5,4.812,2.708e-5,0.739,4.218e-4,0.404,0.215,0.12,NaN,NaN,NaN,NaN,NaN,NaN,NaN,NaN,1.293e-5,165,213.825,84,0,2.222,15,1013.25,340.389,0.01,0.024
0.41,-4.759e-4,-0.095,-9.518,0.096,9.57,-5.002e-5,0,5.002e-5,180,0.01,1,22.175,120.893,9.788,86.492,0,0,0,2.8e4,1.35e4,19.962,0.106,NaN,2019.926,NaN,0.006,4.293e5,4.595,2.583e-5,0.74,4.117e-4,0.405,0.215,0.12,NaN,NaN,NaN,NaN,NaN,NaN,NaN,NaN,1.294e-5,165,213.825,84,0,2.197,15,1013.25,340.389,0.01,0.025
0.42,-4.758e-4,-0.095,-9.516,0.096,9.568,-5.001e-5,0,5.001e-5,180,0.01,1,22.175,120.893,9.788,86.521,0,0,0,2.8e4,1.35e4,19.962,0.106,NaN,2019.924,NaN,0.006,4.243e5,4.638,2.467e-5,0.741,4.024e-4,0.406,0.215,0.12,NaN,NaN,NaN,NaN,NaN,NaN,NaN,NaN,1.293e-5,165,213.825,84,0,2.171,15,1013.25,340.389,0.01,0.025
0.43,-4.755e-4,-0.095,-9.51,0.096,9.562,-4.998e-5,0,4.998e-5,180,0.01,1,22.175,120.893,9.788,86.549,0,0,0,2.8e4,1.35e4,19.962,0.106,NaN,2019.922,NaN,0.006,4.194e5,4.811,2.356e-5,0.742,3.934e-4,0.407,0.215,0.12,NaN,NaN,NaN,NaN,NaN,NaN,NaN,NaN,1.293e-5,165,213.825,84,0,2.146,15,1013.25,340.389,0.01,0.025
0.44,-4.753e-4,-0.095,-9.506,0.096,9.558,-4.996e-5,0,4.996e-5,180,0.01,0.999,22.175,120.893,9.788,86.578,0,0,0,2.8e4,1.35e4,19.962,0.106,NaN,2019.921,NaN,0.006,4.144e5,4.919,2.246e-5,0.743,3.841e-4,0.408,0.215,0.12,NaN,NaN,NaN,NaN,NaN,NaN,NaN,NaN,1.292e-5,165,213.825,84,0,2.121,15,1013.25,340.389,0.01,0.026
0.45,-4.759e-4,-0.095,-9.518,0.096,9.57,-5.002e-5,0,5.002e-5,180,0.01,1,22.175,120.893,9.788,86.613,0,0,0,2.8e4,1.35e4,19.961,0.106,NaN,2019.919,NaN,0.006,4.095e5,4.583,2.131e-5,0.745,3.732e-4,0.409,0.215,0.12,NaN,NaN,NaN,NaN,NaN,NaN,NaN,NaN,1.294e-5,165,213.825,84,0,2.096,15,1013.25,340.389,0.01,0.026
0.46,-4.762e-4,-0.095,-9.523,0.096,9.576,-5.005e-5,0,5.005e-5,180,0.01,1.001,22.175,120.893,9.788,86.616,0,0,0,2.8e4,1.35e4,19.961,0.106,NaN,2019.917,NaN,0.006,4.092e5,4.429,2.123e-5,0.745,3.723e-4,0.409,0.215,0.12,NaN,NaN,NaN,NaN,NaN,NaN,NaN,NaN,1.294e-5,165,213.825,84,0,2.094,15,1013.25,340.389,0.01,0.026
0.47,-4.761e-4,-0.095,-9.523,0.096,9.575,-5.004e-5,0,5.004e-5,180,0.01,1.001,22.175,120.893,9.788,86.617,0,0,0,2.8e4,1.35e4,19.961,0.106,NaN,2019.915,NaN,0.006,4.09e5,4.45,2.118e-5,0.745,3.719e-4,0.41,0.215,0.12,NaN,NaN,NaN,NaN,NaN,NaN,NaN,NaN,1.294e-5,165,213.825,84,0,2.093,15,1013.25,340.389,0.01,0.026
0.48,-4.753e-4,-0.095,-9.507,0.096,9.559,-4.996e-5,0,4.996e-5,180,0.01,0.999,22.175,120.893,9.788,86.614,0,0,0,2.8e4,1.35e4,19.961,0.106,NaN,2019.914,NaN,0.006,4.088e5,4.905,2.122e-5,0.745,3.729e-4,0.41,0.215,0.12,NaN,NaN,NaN,NaN,NaN,NaN,NaN,NaN,1.292e-5,165,213.825,84,0,2.092,15,1013.25,340.389,0.01,0.026
0.49,-4.756e-4,-0.095,-9.512,0.096,9.565,-4.999e-5,0,4.999e-5,180,0.01,1,22.175,120.893,9.788,86.617,0,0,0,2.8e4,1.35e4,19.961,0.106,NaN,2019.912,NaN,0.006,4.085e5,4.746,2.114e-5,0.745,3.72e-4,0.41,0.215,0.12,NaN,NaN,NaN,NaN,NaN,NaN,NaN,NaN,1.293e-5,165,213.825,84,0,2.091,15,1013.25,340.389,0.01,0.027
0.5,-4.761e-4,-0.095,-9.522,0.096,9.574,-5.004e-5,0,5.004e-5,180,0.01,1.001,22.175,120.893,9.788,86.621,0,0,0,2.8e4,1.35e4,19.961,0.106,NaN,2019.91,NaN,0.006,4.083e5,4.47,2.104e-5,0.745,3.706e-4,0.41,0.215,0.12,NaN,NaN,NaN,NaN,NaN,NaN,NaN,NaN,1.294e-5,165,213.825,84,0,2.09,15,1013.25,340.389,0.01,0.027
0.51,-4.758e-4,-0.095,-9.515,0.096,9.568,-5.001e-5,0,5.001e-5,180,0.01,1,22.175,120.893,9.788,86.632,0,0,0,2.8e4,1.35e4,19.961,0.106,NaN,2019.908,NaN,0.006,4.064e5,4.657,2.066e-5,0.745,3.674e-4,0.41,0.215,0.12,NaN,NaN,NaN,NaN,NaN,NaN,NaN,NaN,1.293e-5,165,213.825,84,0,2.08,15,1013.25,340.389,0.01,0.027
0.52,-4.75e-4,-0.095,-9.499,0.096,9.551,-4.992e-5,0,4.992e-5,180,0.01,0.998,22.175,120.893,9.788,86.64,0,0,0,2.8e4,1.35e4,19.961,0.106,NaN,2019.906,NaN,0.006,4.045e5,5.115,2.034e-5,0.746,3.65e-4,0.411,0.215,0.12,NaN,NaN,NaN,NaN,NaN,NaN,NaN,NaN,1.291e-5,165,213.825,84,0,2.07,15,1013.25,340.389,0.01,0.027
0.53,-4.746e-4,-0.095,-9.491,0.095,9.543,-4.988e-5,0,4.988e-5,180,0.01,0.998,22.175,120.893,9.788,86.65,0,0,0,2.8e4,1.35e4,19.961,0.106,NaN,2019.904,NaN,0.006,4.025e5,5.339,1.997e-5,0.746,3.619e-4,0.411,0.215,0.12,NaN,NaN,NaN,NaN,NaN,NaN,NaN,NaN,1.29e-5,165,213.825,84,0,2.06,15,1013.25,340.389,0.01,0.027
0.54,-4.758e-4,-0.095,-9.516,0.096,9.568,-5.001e-5,0,5.001e-5,180,0.01,1,22.175,120.893,9.788,86.67,0,0,0,2.8e4,1.35e4,19.961,0.106,NaN,2019.903,NaN,0.006,4.006e5,4.638,1.945e-5,0.746,3.558e-4,0.411,0.215,0.12,NaN,NaN,NaN,NaN,NaN,NaN,NaN,NaN,1.293e-5,165,213.825,84,0,2.051,15,1013.25,340.389,0.01,0.028
0.55,-4.755e-4,-0.095,-9.51,0.096,9.562,-4.997e-5,0,4.997e-5,180,0.01,0.999,22.175,120.893,9.788,86.681,0,0,0,2.8e4,1.35e4,19.961,0.106,NaN,2019.901,NaN,0.006,3.987e5,4.82,1.908e-5,0.747,3.525e-4,0.412,0.215,0.12,NaN,NaN,NaN,NaN,NaN,NaN,NaN,NaN,1.293e-5,165,213.825,84,0,2.041,15,1013.25,340.389,0.01,0.028
0.56,-4.749e-4,-0.095,-9.498,0.096,9.55,-4.991e-5,0,4.991e-5,180,0.01,0.998,22.175,120.893,9.788,86.703,0,0,0,2.8e4,1.35e4,19.961,0.106,NaN,2019.899,NaN,0.006,3.95e5,5.14,1.839e-5,0.748,3.462e-4,0.413,0.215,0.12,NaN,NaN,NaN,NaN,NaN,NaN,NaN,NaN,1.291e-5,165,213.825,84,0,2.022,15,1013.25,340.389,0.01,0.028
0.57,-4.749e-4,-0.095,-9.497,0.095,9.55,-4.991e-5,0,4.991e-5,180,0.01,0.998,22.175,120.893,9.788,86.728,0,0,0,2.8e4,1.35e4,19.961,0.106,NaN,2019.897,NaN,0.006,3.914e5,5.164,1.767e-5,0.749,3.388e-4,0.413,0.215,0.12,NaN,NaN,NaN,NaN,NaN,NaN,NaN,NaN,1.291e-5,165,213.825,84,0,2.003,15,1013.25,340.389,0.01,0.028
0.58,-4.749e-4,-0.095,-9.499,0.096,9.551,-4.992e-5,0,4.992e-5,180,0.01,0.998,22.175,120.893,9.788,86.754,0,0,0,2.8e4,1.35e4,19.961,0.106,NaN,2019.895,NaN,0.006,3.877e5,5.125,1.695e-5,0.749,3.312e-4,0.414,0.215,0.12,NaN,NaN,NaN,NaN,NaN,NaN,NaN,NaN,1.291e-5,165,213.825,84,0,1.985,15,1013.25,340.389,0.01,0.028
0.59,-4.746e-4,-0.095,-9.493,0.095,9.545,-4.989e-5,0,4.989e-5,180,0.01,0.998,22.175,120.893,9.788,86.779,0,0,0,2.8e4,1.35e4,19.961,0.106,NaN,2019.893,NaN,0.006,3.84e5,5.296,1.628e-5,0.75,3.242e-4,0.415,0.215,0.12,NaN,NaN,NaN,NaN,NaN,NaN,NaN,NaN,1.29e-5,165,213.825,84,0,1.966,15,1013.25,340.389,0.01,0.029
0.6,-4.741e-4,-0.095,-9.483,0.095,9.535,-4.984e-5,0,4.984e-5,180,0.01,0.997,22.175,120.893,9.788,86.802,0,0,0,2.8e4,1.349e4,19.961,0.106,NaN,2019.891,NaN,0.006,3.804e5,5.567,1.564e-5,0.751,3.175e-4,0.416,0.215,0.12,NaN,NaN,NaN,NaN,NaN,NaN,NaN,NaN,1.289e-5,165,213.825,84,0,1.947,15,1013.25,340.389,0.01,0.029
0.61,-4.739e-4,-0.095,-9.478,0.095,9.53,-4.981e-5,0,4.981e-5,180,0.01,0.996,22.175,120.893,9.788,86.818,0,0,0,2.8e4,1.349e4,19.961,0.106,NaN,2019.889,NaN,0.006,3.781e5,5.717,1.524e-5,0.752,3.131e-4,0.417,0.215,0.12,NaN,NaN,NaN,NaN,NaN,NaN,NaN,NaN,1.288e-5,165,213.825,84,0,1.935,15,1013.25,340.389,0.01,0.029
0.62,-4.745e-4,-0.095,-9.49,0.095,9.542,-4.987e-5,0,4.987e-5,180,0.01,0.997,22.175,120.893,9.788,86.839,0,0,0,2.8e4,1.349e4,19.961,0.106,NaN,2019.887,NaN,0.006,3.757e5,5.366,1.477e-5,0.752,3.072e-4,0.417,0.215,0.12,NaN,NaN,NaN,NaN,NaN,NaN,NaN,NaN,1.29e-5,165,213.825,84,0,1.924,15,1013.25,340.389,0.01,0.029
0.63,-4.737e-4,-0.095,-9.473,0.095,9.525,-4.978e-5,0,4.978e-5,180,0.01,0.996,22.175,120.893,9.788,86.852,0,0,0,2.799e4,1.349e4,19.961,0.106,NaN,2019.884,NaN,0.006,3.734e5,5.844,1.443e-5,0.753,3.039e-4,0.418,0.215,0.12,NaN,NaN,NaN,NaN,NaN,NaN,NaN,NaN,1.288e-5,165,213.825,84,0,1.912,15,1013.25,340.389,0.01,0.029
0.64,-4.738e-4,-0.095,-9.475,0.095,9.527,-4.979e-5,0,4.979e-5,180,0.01,0.996,22.175,120.893,9.788,86.87,0,0,0,2.799e4,1.349e4,19.961,0.106,NaN,2019.882,NaN,0.006,3.711e5,5.786,1.402e-5,0.753,2.989e-4,0.418,0.215,0.12,NaN,NaN,NaN,NaN,NaN,NaN,NaN,NaN,1.288e-5,165,213.825,84,0,1.9,15,1013.25,340.389,0.01,0.03
0.65,-4.734e-4,-0.095,-9.469,0.095,9.521,-4.976e-5,0,4.976e-5,180,0.01,0.995,22.175,120.893,9.788,86.886,0,0,0,2.799e4,1.349e4,19.961,0.106,NaN,2019.88,NaN,0.006,3.688e5,5.968,1.364e-5,0.754,2.945e-4,0.419,0.215,0.12,NaN,NaN,NaN,NaN,NaN,NaN,NaN,NaN,1.287e-5,165,213.825,84,0,1.888,15,1013.25,340.389,0.01,0.03
0.66,-4.724e-4,-0.094,-9.448,0.095,9.5,-4.965e-5,0,4.965e-5,180,0.01,0.993,22.175,120.893,9.788,86.84,0,0,0,2.799e4,1.349e4,19.961,0.106,NaN,2019.877,NaN,0.006,3.74e5,6.551,1.463e-5,0.753,3.072e-4,0.418,0.215,0.12,NaN,NaN,NaN,NaN,NaN,NaN,NaN,NaN,1.284e-5,165,213.825,84,0,1.915,15,1013.25,340.389,0.01,0.03
0.67,-4.721e-4,-0.094,-9.442,0.095,9.494,-4.962e-5,0,4.962e-5,180,0.01,0.992,22.175,120.893,9.788,86.799,0,0,0,2.799e4,1.349e4,19.961,0.106,NaN,2019.875,NaN,0.006,3.792e5,6.72,1.56e-5,0.751,3.186e-4,0.416,0.215,0.12,NaN,NaN,NaN,NaN,NaN,NaN,NaN,NaN,1.283e-5,165,213.825,84,0,1.941,15,1013.25,340.389,0.01,0.03
0.68,-4.711e-4,-0.094,-9.421,0.095,9.473,-4.951e-5,0,4.951e-5,180,0.01,0.99,22.175,120.893,9.788,86.755,0,0,0,2.799e4,1.349e4,19.961,0.106,NaN,2019.872,NaN,0.006,3.844e5,7.299,1.667e-5,0.75,3.312e-4,0.415,0.215,0.12,NaN,NaN,NaN,NaN,NaN,NaN,NaN,NaN,1.281e-5,165,213.825,84,0,1.968,15,1013.25,340.389,0.01,0.03
0.69,-4.708e-4,-0.094,-9.415,0.095,9.467,-4.948e-5,0,4.948e-5,180,0.01,0.99,22.175,120.893,9.788,86.716,0,0,0,2.799e4,1.349e4,19.961,0.106,NaN,2019.869,NaN,0.006,3.896e5,7.467,1.77e-5,0.749,3.425e-4,0.414,0.215,0.12,NaN,NaN,NaN,NaN,NaN,NaN,NaN,NaN,1.28e-5,165,213.825,84,0,1.994,15,1013.25,340.389,0.01,0.031
0.7,-4.699e-4,-0.094,-9.398,0.095,9.45,-4.939e-5,0,4.939e-5,180,0.01,0.988,22.175,120.893,9.788,86.676,0,0,0,2.799e4,1.349e4,19.961,0.106,NaN,2019.866,NaN,0.006,3.948e5,7.951,1.883e-5,0.748,3.547e-4,0.413,0.215,0.12,NaN,NaN,NaN,NaN,NaN,NaN,NaN,NaN,1.277e-5,165,213.825,84,0,2.021,15,1013.25,340.389,0.01,0.031
0.71,-4.682e-4,-0.094,-9.363,0.094,9.415,-4.921e-5,0,4.921e-5,180,0.01,0.984,22.175,120.893,9.788,86.669,0,0,0,2.799e4,1.349e4,19.96,0.106,NaN,2019.863,NaN,0.006,3.943e5,8.938,1.889e-5,0.748,3.568e-4,0.413,0.215,0.12,NaN,NaN,NaN,NaN,NaN,NaN,NaN,NaN,1.273e-5,165,213.825,84,0,2.018,15,1013.25,340.389,0.01,0.031
0.72,-4.676e-4,-0.094,-9.352,0.094,9.403,-4.915e-5,0,4.915e-5,180,0.01,0.983,22.175,120.893,9.788,86.67,0,0,0,2.799e4,1.349e4,19.96,0.106,NaN,2019.859,NaN,0.006,3.938e5,9.255,1.883e-5,0.748,3.567e-4,0.413,0.215,0.12,NaN,NaN,NaN,NaN,NaN,NaN,NaN,NaN,1.271e-5,165,213.825,84,0,2.016,15,1013.25,340.389,0.01,0.032
0.73,-4.659e-4,-0.093,-9.319,0.094,9.37,-4.897e-5,0,4.897e-5,180,0.01,0.979,22.175,120.893,9.788,86.664,0,0,0,2.799e4,1.349e4,19.96,0.106,NaN,2019.855,NaN,0.006,3.933e5,10.185,1.889e-5,0.748,3.586e-4,0.413,0.215,0.12,NaN,NaN,NaN,NaN,NaN,NaN,NaN,NaN,1.267e-5,165,213.825,84,0,2.013,15,1013.25,340.389,0.01,0.032
0.74,-4.64e-4,-0.093,-9.28,0.093,9.331,-4.877e-5,0,4.877e-5,180,0.01,0.975,22.175,120.893,9.788,86.656,0,0,0,2.799e4,1.349e4,19.96,0.106,NaN,2019.851,NaN,0.006,3.927e5,11.275,1.896e-5,0.748,3.611e-4,0.413,0.215,0.12,NaN,NaN,NaN,NaN,NaN,NaN,NaN,NaN,1.261e-5,165,213.825,84,0,2.01,15,1013.25,340.389,0.01,0.032
0.75,-4.621e-4,-0.092,-9.243,0.093,9.294,-4.857e-5,0,4.857e-5,180,0.01,0.971,22.175,120.893,9.788,86.649,0,0,0,2.799e4,1.349e4,19.96,0.106,NaN,2019.846,NaN,0.006,3.922e5,12.322,1.904e-5,0.748,3.634e-4,0.413,0.215,0.12,NaN,NaN,NaN,NaN,NaN,NaN,NaN,NaN,1.256e-5,165,213.825,84,0,2.007,15,1013.25,340.389,0.01,0.032
0.76,-4.598e-4,-0.092,-9.195,0.092,9.246,-4.832e-5,0,4.832e-5,180,0.01,0.966,22.175,120.893,9.788,86.658,0,0,0,2.799e4,1.349e4,19.96,0.106,NaN,2019.841,NaN,0.006,3.889e5,13.663,1.859e-5,0.749,3.61e-4,0.414,0.215,0.12,NaN,NaN,NaN,NaN,NaN,NaN,NaN,NaN,1.25e-5,165,213.825,84,0,1.99,15,1013.25,340.389,0.01,0.032
0.77,-4.586e-4,-0.092,-9.173,0.092,9.223,-4.82e-5,0,4.82e-5,180,0.01,0.964,22.175,120.893,9.788,86.674,0,0,0,2.799e4,1.349e4,19.96,0.106,NaN,2019.836,NaN,0.006,3.856e5,14.302,1.803e-5,0.75,3.562e-4,0.415,0.215,0.12,NaN,NaN,NaN,NaN,NaN,NaN,NaN,NaN,1.247e-5,165,213.825,84,0,1.974,15,1013.25,340.389,0.01,0.033
0.78,-4.56e-4,-0.091,-9.12,0.092,9.171,-4.793e-5,0,4.793e-5,180,0.01,0.959,22.175,120.893,9.788,86.682,0,0,0,2.799e4,1.349e4,19.96,0.106,NaN,2019.83,NaN,0.006,3.823e5,15.77,1.762e-5,0.751,3.54e-4,0.416,0.215,0.12,NaN,NaN,NaN,NaN,NaN,NaN,NaN,NaN,1.24e-5,165,213.825,84,0,1.957,15,1013.25,340.389,0.01,0.033
0.79,-4.54e-4,-0.091,-9.079,0.091,9.129,-4.771e-5,0,4.771e-5,180,0.01,0.954,22.175,120.893,9.788,86.693,0,0,0,2.799e4,1.349e4,19.96,0.106,NaN,2019.823,NaN,0.006,3.789e5,16.927,1.716e-5,0.752,3.509e-4,0.416,0.215,0.12,NaN,NaN,NaN,NaN,NaN,NaN,NaN,NaN,1.234e-5,165,213.825,84,0,1.94,15,1013.25,340.389,0.01,0.038
0.8,-4.518e-4,-0.09,-9.037,0.091,9.087,-4.749e-5,0,4.749e-5,180,0.009,0.95,22.175,120.893,9.788,86.704,0,0,0,2.799e4,1.349e4,19.96,0.106,NaN,2019.816,NaN,0.006,3.756e5,18.121,1.671e-5,0.752,3.478e-4,0.417,0.215,0.12,NaN,NaN,NaN,NaN,NaN,NaN,NaN,NaN,1.228e-5,165,213.825,84,0,1.923,15,1013.25,340.389,0.01,0.038
0.81,-4.495e-4,-0.09,-8.99,0.09,9.04,-4.725e-5,0,4.725e-5,180,0.009,0.945,22.175,120.893,9.788,86.68,0,0,0,2.799e4,1.349e4,19.96,0.106,NaN,2019.809,NaN,0.006,3.771e5,19.438,1.72e-5,0.752,3.553e-4,0.417,0.215,0.12,NaN,NaN,NaN,NaN,NaN,NaN,NaN,NaN,1.222e-5,165,213.825,84,0,1.93,15,1013.25,340.389,0.01,0.038
0.82,-4.482e-4,-0.09,-8.965,0.09,9.014,-4.711e-5,0,4.711e-5,180,0.009,0.942,22.175,120.893,9.788,86.662,0,0,0,2.799e4,1.349e4,19.959,0.106,NaN,2019.801,NaN,0.006,3.786e5,20.155,1.761e-5,0.752,3.609e-4,0.417,0.215,0.12,NaN,NaN,NaN,NaN,NaN,NaN,NaN,NaN,1.218e-5,165,213.825,84,0,1.938,15,1013.25,340.389,0.01,0.039
0.83,-4.434e-4,-0.089,-8.867,0.089,8.916,-4.66e-5,0,4.66e-5,180,0.009,0.932,22.175,120.893,9.788,86.623,0,0,0,2.799e4,1.349e4,19.959,0.106,NaN,2019.793,NaN,0.006,3.8e5,22.899,1.837e-5,0.751,3.734e-4,0.416,0.215,0.12,NaN,NaN,NaN,NaN,NaN,NaN,NaN,NaN,1.205e-5,165,213.825,84,0,1.945,15,1013.25,340.389,0.01,0.039
0.84,-4.345e-4,-0.087,-8.69,0.087,8.738,-4.567e-5,0,4.567e-5,180,0.009,0.913,22.175,120.893,9.788,86.56,0,0,0,2.799e4,1.349e4,19.959,0.106,NaN,2019.782,NaN,0.006,3.815e5,27.886,1.953e-5,0.751,3.941e-4,0.416,0.215,0.12,NaN,NaN,NaN,NaN,NaN,NaN,NaN,NaN,1.181e-5,165,213.825,84,0,1.953,15,1013.25,340.389,0.01,0.039
0.85,-4.271e-4,-0.085,-8.542,0.086,8.589,-4.489e-5,0,4.489e-5,180,0.009,0.898,22.175,120.893,9.788,86.507,0,0,0,2.799e4,1.349e4,19.959,0.106,NaN,2019.77,NaN,0.006,3.83e5,32.036,2.059e-5,0.751,4.122e-4,0.415,0.215,0.12,NaN,NaN,NaN,NaN,NaN,NaN,NaN,NaN,1.161e-5,165,213.825,84,0,1.96,15,1013.25,340.389,0.01,0.039
0.86,-4.194e-4,-0.084,-8.388,0.084,8.434,-4.408e-5,0,4.408e-5,180,0.009,0.882,22.175,120.893,9.788,86.429,0,0,0,2.799e4,1.349e4,19.959,0.106,NaN,2019.756,NaN,0.006,3.881e5,36.392,2.252e-5,0.749,4.392e-4,0.414,0.215,0.12,NaN,NaN,NaN,NaN,NaN,NaN,NaN,NaN,1.14e-5,165,213.825,84,0,1.986,15,1013.25,340.389,0.01,0.039
0.87,-4.119e-4,-0.082,-8.239,0.083,8.284,-4.33e-5,0,4.33e-5,180,0.009,0.866,22.175,120.893,9.788,86.356,0,0,0,2.799e4,1.349e4,19.958,0.106,NaN,2019.74,NaN,0.006,3.931e5,40.581,2.452e-5,0.748,4.659e-4,0.413,0.215,0.12,NaN,NaN,NaN,NaN,NaN,NaN,NaN,NaN,1.12e-5,165,213.825,84,0,2.011,15,1013.25,340.389,0.01,0.04
0.88,-4.047e-4,-0.081,-8.093,0.081,8.138,-4.253e-5,0,4.253e-5,180,0.009,0.851,22.175,120.893,9.788,86.285,0,0,0,2.799e4,1.349e4,19.958,0.106,NaN,2019.723,NaN,0.006,3.982e5,44.682,2.659e-5,0.747,4.926e-4,0.412,0.215,0.12,NaN,NaN,NaN,NaN,NaN,NaN,NaN,NaN,1.1e-5,165,213.825,84,0,2.037,15,1013.25,340.389,0.01,0.04
0.89,-3.982e-4,-0.08,-7.965,0.08,8.008,-4.186e-5,0,4.186e-5,180,0.008,0.837,22.175,120.893,9.788,86.22,0,0,0,2.799e4,1.349e4,19.958,0.106,NaN,2019.705,NaN,0.006,4.032e5,48.294,2.865e-5,0.746,5.175e-4,0.411,0.215,0.12,NaN,NaN,NaN,NaN,NaN,NaN,NaN,NaN,1.083e-5,165,213.825,84,0,2.063,15,1013.25,340.389,0.01,0.04
0.9,-3.921e-4,-0.078,-7.842,0.079,7.885,-4.121e-5,0,4.121e-5,180,0.008,0.824,22.175,120.893,9.788,86.159,0,0,0,2.799e4,1.349e4,19.957,0.106,NaN,2019.685,NaN,0.006,4.083e5,51.752,3.076e-5,0.745,5.42e-4,0.41,0.215,0.12,NaN,NaN,NaN,NaN,NaN,NaN,NaN,NaN,1.066e-5,165,213.825,84,0,2.088,15,1013.25,340.389,0.01,0.04
0.91,-3.84e-4,-0.077,-7.679,0.077,7.722,-4.036e-5,0,4.036e-5,180,0.008,0.807,22.175,120.893,9.788,86.13,0,0,0,2.798e4,1.348e4,19.957,0.106,NaN,2019.664,NaN,0.006,4.052e5,56.319,3.099e-5,0.745,5.545e-4,0.41,0.215,0.12,NaN,NaN,NaN,NaN,NaN,NaN,NaN,NaN,1.044e-5,165,213.825,84,0,2.073,15,1013.25,340.389,0.01,0.041
0.92,-3.761e-4,-0.075,-7.522,0.076,7.563,-3.953e-5,0,3.953e-5,180,0.008,0.791,22.175,120.893,9.788,86.103,0,0,0,2.798e4,1.348e4,19.957,0.106,NaN,2019.641,NaN,0.006,4.021e5,60.748,3.12e-5,0.746,5.668e-4,0.411,0.215,0.12,NaN,NaN,NaN,NaN,NaN,NaN,NaN,NaN,1.022e-5,165,213.825,84,0,2.057,15,1013.25,340.389,0.01,0.041
0.93,-3.643e-4,-0.073,-7.286,0.073,7.326,-3.829e-5,0,3.829e-5,180,0.008,0.766,22.175,120.893,9.788,86.052,0,0,0,2.798e4,1.348e4,19.956,0.106,NaN,2019.615,NaN,0.006,3.99e5,67.387,3.194e-5,0.747,5.892e-4,0.412,0.215,0.12,NaN,NaN,NaN,NaN,NaN,NaN,NaN,NaN,9.903e-6,165,213.825,84,0,2.041,15,1013.25,340.389,0.01,0.041
0.94,-3.499e-4,-0.07,-6.999,0.07,7.037,-3.678e-5,0,3.678e-5,180,0.007,0.736,22.175,120.893,9.788,85.987,0,0,0,2.798e4,1.348e4,19.956,0.106,NaN,2019.586,NaN,0.006,3.959e5,75.455,3.305e-5,0.748,6.192e-4,0.412,0.215,0.12,NaN,NaN,NaN,NaN,NaN,NaN,NaN,NaN,9.513e-6,165,213.825,84,0,2.025,15,1013.25,340.389,0.01,0.042
0.95,-3.337e-4,-0.067,-6.674,0.067,6.71,-3.507e-5,0,3.507e-5,180,0.007,0.701,22.175,120.893,9.788,85.909,0,0,0,2.798e4,1.348e4,19.955,0.106,NaN,2019.554,NaN,0.006,3.928e5,84.603,3.447e-5,0.748,6.559e-4,0.413,0.215,0.12,NaN,NaN,NaN,NaN,NaN,NaN,NaN,NaN,9.071e-6,165,213.825,84,0,2.009,15,1013.25,340.389,0.01,0.042
0.96,-3.135e-4,-0.063,-6.271,0.063,6.305,-3.295e-5,0,3.295e-5,180,0.007,0.659,22.175,120.893,9.788,85.777,0,0,0,2.798e4,1.348e4,19.954,0.106,NaN,2019.517,NaN,0.006,3.966e5,95.934,3.855e-5,0.747,7.197e-4,0.412,0.215,0.12,NaN,NaN,NaN,NaN,NaN,NaN,NaN,NaN,8.523e-6,165,213.825,84,0,2.028,15,1013.25,340.389,0.01,0.042
0.97,-2.933e-4,-0.059,-5.865,0.059,5.898,-3.082e-5,0,3.082e-5,180,0.006,0.616,22.175,120.893,9.788,85.647,0,0,0,2.798e4,1.348e4,19.954,0.106,NaN,2019.476,NaN,0.006,4.003e5,107.326,4.292e-5,0.747,7.865e-4,0.411,0.215,0.12,NaN,NaN,NaN,NaN,NaN,NaN,NaN,NaN,7.972e-6,165,213.825,84,0,2.047,15,1013.25,340.389,0.01,0.043
0.98,-2.671e-4,-0.053,-5.342,0.054,5.372,-2.808e-5,0,2.808e-5,180,0.006,0.561,22.175,120.893,9.788,85.486,0,0,0,2.797e4,1.347e4,19.953,0.106,NaN,2019.43,NaN,0.006,4.041e5,122.033,4.863e-5,0.746,8.745e-4,0.411,0.215,0.12,NaN,NaN,NaN,NaN,NaN,NaN,NaN,NaN,7.261e-6,165,213.825,84,0,2.065,15,1013.25,340.389,0.01,0.043
0.99,-2.333e-4,-0.047,-4.667,0.047,4.692,-2.453e-5,0,2.453e-5,180,0.005,0.49,22.175,120.893,9.788,85.286,0,0,0,2.797e4,1.347e4,19.952,0.106,NaN,2019.376,NaN,0.006,4.079e5,141.022,5.624e-5,0.745,9.927e-4,0.41,0.215,0.12,NaN,NaN,NaN,NaN,NaN,NaN,NaN,NaN,6.343e-6,165,213.825,84,0,2.084,15,1013.25,340.389,0.01,0.043
1,-1.839e-4,-0.037,-3.678,0.037,3.699,-1.933e-5,0,1.933e-5,180,0.004,0.387,22.175,120.893,9.788,85.004,0,0,0,2.797e4,1.347e4,19.951,0.106,NaN,2019.312,NaN,0.006,4.118e5,168.795,6.793e-5,0.744,0.001,0.409,0.215,0.12,NaN,NaN,NaN,NaN,NaN,NaN,NaN,NaN,5e-6,165,213.825,84,0,2.103,15,1013.25,340.389,0.01,0.044
1.01,-1.138e-4,-0.023,-2.275,0.023,2.288,-1.196e-5,0,1.196e-5,180,0.002,0.239,22.175,120.893,9.788,84.626,0,0,0,2.796e4,1.346e4,19.949,0.106,NaN,2019.232,NaN,0.006,4.084e5,208.221,8.289e-5,0.745,0.001,0.41,0.215,0.12,NaN,NaN,NaN,NaN,NaN,NaN,NaN,NaN,3.094e-6,165,213.825,84,0,2.085,15,1013.25,340.389,0.01,0.044
1.02,-4.855e-5,-0.01,-0.97,0.01,0.975,-5.103e-6,0,5.103e-6,180,0.001,0.102,22.175,120.893,9.788,84.269,0,0,0,2.796e4,1.346e4,19.948,0.106,NaN,2019.139,NaN,0.006,4.05e5,244.886,9.858e-5,0.745,0.002,0.41,0.215,0.12,NaN,NaN,NaN,NaN,NaN,NaN,NaN,NaN,1.32e-6,165,213.825,84,0,2.066,15,1013.25,340.389,0.01,0.044
1.03,2.205e-5,0.004,0.442,0.004,0.445,2.317e-6,0,2.317e-6,0,4.638e-4,0.046,22.175,120.893,9.788,83.877,0,0,0,2.795e4,1.345e4,19.946,0.106,NaN,2019.03,NaN,0.006,4.017e5,284.538,1.179e-4,0.746,0.002,0.411,0.215,0.12,NaN,NaN,NaN,NaN,NaN,NaN,NaN,NaN,5.997e-7,165,213.825,84,0,2.048,15,1013.25,340.389,0.01,0.045
1.04,1.641e-4,0.024,1.96,0.024,1.971,1.725e-5,0,1.725e-5,0,0.003,0.206,22.175,120.893,9.788,83.323,0,0,0,2.795e4,1.345e4,19.943,0.106,NaN,2018.905,NaN,0.006,3.985e5,327.142,1.497e-4,0.747,0.003,0.412,0.215,0.12,NaN,NaN,NaN,NaN,NaN,NaN,NaN,NaN,3.263e-6,165,213.825,84,0,2.029,15,1013.25,340.389,0.01,0.045
1.05,5.833e-4,0.06,3.585,0.06,3.604,6.13e-5,0,6.13e-5,0,0.006,0.377,22.175,120.893,9.788,82.301,0,0,0,2.794e4,1.344e4,19.941,0.106,NaN,2018.763,NaN,0.006,3.957e5,372.693,2.239e-4,0.748,0.004,0.412,0.215,0.12,NaN,NaN,NaN,NaN,NaN,NaN,NaN,NaN,8.133e-6,165,213.825,84,0,2.011,15,1013.25,340.389,0.01,0.045
1.06,0.001,0.115,5.563,0.116,5.594,1.534e-4,0,1.534e-4,0,0.012,0.585,22.175,120.893,9.788,80.763,0,0,0,2.793e4,1.343e4,19.938,0.106,NaN,2018.599,NaN,0.006,4.009e5,428.171,3.896e-4,0.746,0.007,0.411,0.215,0.12,NaN,NaN,NaN,NaN,NaN,NaN,NaN,NaN,1.569e-5,165,213.825,84,0,2.029,15,1013.25,340.389,0.01,0.046
1.07,0.003,0.191,7.517,0.192,7.558,3.142e-4,0,3.142e-4,0,0.02,0.79,22.175,120.893,9.788,78.733,0,0,0,2.792e4,1.342e4,19.935,0.106,NaN,2018.415,NaN,0.006,4.072e5,482.882,7.11e-4,0.745,0.013,0.41,0.215,0.12,NaN,NaN,NaN,NaN,NaN,NaN,NaN,NaN,2.59e-5,165,213.825,84,0,2.047,15,1013.25,340.389,0.01,0.047
1.08,0.005,0.288,9.758,0.29,9.812,5.658e-4,0,5.658e-4,0,0.03,1.026,22.175,120.893,9.788,76.174,0,0,0,2.791e4,1.341e4,19.931,0.106,NaN,2018.206,NaN,0.006,4.15e5,545.617,0.001,0.743,0.023,0.408,0.215,0.12,NaN,NaN,NaN,NaN,NaN,NaN,NaN,NaN,3.916e-5,165,213.825,84,0,2.066,15,1013.249,340.389,0.01,0.048
1.09,0.009,0.411,12.305,0.413,12.373,9.333e-4,0,9.333e-4,0,0.043,1.293,22.175,120.893,9.788,73.063,0,0,0,2.79e4,1.34e4,19.927,0.106,NaN,2017.969,NaN,0.006,4.25e5,616.859,0.002,0.741,0.04,0.406,0.215,0.12,NaN,NaN,NaN,NaN,NaN,NaN,NaN,NaN,5.588e-5,165,213.825,84,0,2.084,15,1013.249,340.389,0.01,0.048
1.1,0.014,0.563,15.219,0.566,15.303,0.001,0,0.001,0,0.059,1.6,22.175,120.893,9.788,69.398,0,0,0,2.789e4,1.339e4,19.922,0.106,NaN,2017.702,NaN,0.007,4.382e5,698.307,0.004,0.739,0.068,0.403,0.215,0.12,NaN,NaN,NaN,NaN,NaN,NaN,NaN,NaN,7.656e-5,165,213.825,84,0,2.103,15,1013.248,340.389,0.01,0.048
1.11,0.02,0.746,18.289,0.75,18.39,0.002,0,0.002,0,0.078,1.922,22.175,120.893,9.788,64.921,0,0,0,2.788e4,1.338e4,19.917,0.106,NaN,2017.401,NaN,0.007,4.476e5,784.022,0.008,0.737,0.115,0.402,0.215,0.12,NaN,NaN,NaN,NaN,NaN,NaN,NaN,NaN,1.014e-4,165,213.825,84,0,2.079,15,1013.248,340.389,0.01,0.048
1.12,0.029,0.96,21.44,0.966,21.558,0.003,0,0.003,0,0.101,2.253,22.175,120.893,9.788,59.985,0,0,0,2.786e4,1.336e4,19.911,0.106,NaN,2017.066,NaN,0.007,4.628e5,871.849,0.013,0.734,0.183,0.399,0.215,0.12,NaN,NaN,NaN,NaN,NaN,NaN,NaN,NaN,1.305e-4,165,213.825,84,0,2.055,15,1013.247,340.389,0.01,0.048
1.13,0.04,1.207,24.645,1.213,24.781,0.004,0,0.004,0,0.127,2.59,22.175,120.893,9.788,54.779,0,0,0,2.784e4,1.334e4,19.904,0.106,NaN,2016.696,NaN,0.007,4.848e5,961.049,0.022,0.73,0.272,0.395,0.215,0.12,NaN,NaN,NaN,NaN,NaN,NaN,NaN,NaN,1.64e-4,165,213.825,84,0,2.031,15,1013.245,340.389,0.01,0.049
1.14,0.053,1.482,27.564,1.49,27.716,0.006,0,0.006,0,0.156,2.897,22.175,120.893,9.788,49.568,0,0,0,2.782e4,1.332e4,19.897,0.106,NaN,2016.295,NaN,0.008,5.141e5,1042.073,0.034,0.725,0.374,0.39,0.215,0.12,NaN,NaN,NaN,NaN,NaN,NaN,NaN,NaN,2.015e-4,165,213.825,84,0,2.006,15,1013.244,340.389,0.01,0.049
1.15,0.069,1.783,30.093,1.793,30.259,0.007,0,0.007,0,0.187,3.163,22.175,120.893,9.788,44.587,0,0,0,2.78e4,1.33e4,19.889,0.106,NaN,2015.866,NaN,0.008,5.508e5,1112.029,0.05,0.719,0.48,0.384,0.215,0.12,NaN,NaN,NaN,NaN,NaN,NaN,NaN,NaN,2.424e-4,165,213.825,84,0,1.982,15,1013.242,340.389,0.01,0.05
1.16,0.089,2.106,32.29,2.117,32.467,0.009,0,0.009,0,0.221,3.394,22.175,120.893,9.788,40.408,0,0,0,2.778e4,1.328e4,19.881,0.106,NaN,2015.413,NaN,0.009,5.989e5,1172.553,0.07,0.713,0.57,0.378,0.215,0.12,NaN,NaN,NaN,NaN,NaN,NaN,NaN,NaN,2.862e-4,165,213.825,84,0,1.991,14.999,1013.24,340.389,0.01,0.05
1.17,0.112,2.446,34.029,2.459,34.216,0.012,0,0.012,0,0.257,3.577,22.175,120.893,9.788,36.686,0,0,0,2.776e4,1.326e4,19.873,0.105,NaN,2014.941,NaN,0.01,6.525e5,1220.187,0.094,0.706,0.647,0.371,0.215,0.12,NaN,NaN,NaN,NaN,NaN,NaN,NaN,NaN,3.325e-4,165,213.825,84,0,1.999,14.999,1013.237,340.388,0.01,0.05
1.18,0.138,2.799,35.305,2.814,35.5,0.014,0,0.014,0,0.294,3.711,22.175,120.893,9.788,33.428,0,0,0,2.774e4,1.324e4,19.864,0.105,NaN,2014.455,NaN,0.011,7.106e5,1254.818,0.122,0.7,0.709,0.364,0.215,0.12,NaN,NaN,NaN,NaN,NaN,NaN,NaN,NaN,3.804e-4,165,213.825,84,0,2.007,14.999,1013.234,340.388,0.01,0.05
1.19,0.168,3.16,36.107,3.177,36.306,0.018,0,0.018,0,0.332,3.795,22.175,120.893,9.788,30.61,0,0,0,2.771e4,1.321e4,19.855,0.105,NaN,2013.959,NaN,0.012,7.719e5,1276.135,0.154,0.693,0.757,0.358,0.215,0.12,NaN,NaN,NaN,NaN,NaN,NaN,NaN,NaN,4.295e-4,165,213.825,84,0,2.015,14.999,1013.23,340.388,0.01,0.051
1.2,0.201,3.526,36.659,3.545,36.861,0.021,0,0.021,0,0.371,3.853,22.175,120.893,9.788,28.176,0,0,0,2.769e4,1.319e4,19.846,0.105,NaN,2013.458,NaN,0.013,8.358e5,1290.479,0.189,0.688,0.792,0.353,0.215,0.12,NaN,NaN,NaN,NaN,NaN,NaN,NaN,NaN,4.793e-4,165,213.825,84,0,2.024,14.999,1013.226,340.388,0.01,0.051
1.21,0.238,3.896,36.966,3.917,37.169,0.025,0,0.025,0,0.409,3.885,22.175,120.893,9.788,25.75,0,0,0,2.767e4,1.317e4,19.837,0.105,NaN,2012.952,NaN,0.013,8.984e5,1297.933,0.226,0.683,0.823,0.347,0.215,0.12,NaN,NaN,NaN,NaN,NaN,NaN,NaN,NaN,5.295e-4,165,213.825,84,0,2.001,14.998,1013.222,340.388,0.01,0.051
1.22,0.279,4.266,37.025,4.289,37.229,0.029,0,0.029,0,0.448,3.891,22.175,120.893,9.788,23.641,0,0,0,2.764e4,1.314e4,19.828,0.105,NaN,2012.446,NaN,0.014,9.625e5,1298.512,0.266,0.678,0.843,0.343,0.215,0.12,NaN,NaN,NaN,NaN,NaN,NaN,NaN,NaN,5.798e-4,165,213.825,84,0,1.979,14.998,1013.217,340.388,0.01,0.051
1.23,0.324,4.636,37.068,4.662,37.272,0.034,0,0.034,0,0.487,3.896,22.175,120.893,9.788,21.795,0,0,0,2.762e4,1.312e4,19.819,0.105,NaN,2011.938,NaN,0.015,1.028e6,1298.633,0.307,0.673,0.855,0.338,0.215,0.12,NaN,NaN,NaN,NaN,NaN,NaN,NaN,NaN,6.301e-4,165,213.825,84,0,1.957,14.998,1013.212,340.388,0.01,0.052
1.24,0.372,5.006,36.974,5.033,37.177,0.039,0,0.039,0,0.526,3.886,22.175,120.893,9.788,20.175,0,0,0,2.76e4,1.31e4,19.81,0.105,NaN,2011.431,NaN,0.016,1.094e6,1294.965,0.351,0.669,0.861,0.334,0.215,0.12,NaN,NaN,NaN,NaN,NaN,NaN,NaN,NaN,6.804e-4,165,213.825,84,0,1.934,14.998,1013.206,340.387,0.01,0.052
1.25,0.424,5.374,36.888,5.404,37.091,0.045,0,0.045,0,0.565,3.877,22.175,120.893,9.788,18.742,0,0,0,2.757e4,1.307e4,19.801,0.105,NaN,2010.925,NaN,0.017,1.16e6,1291.53,0.395,0.665,0.862,0.33,0.215,0.12,NaN,NaN,NaN,NaN,NaN,NaN,NaN,NaN,7.305e-4,165,213.825,84,0,1.912,14.997,1013.2,340.387,0.01,0.061
1.26,0.479,5.742,36.8,5.774,37.003,0.05,0,0.05,0,0.604,3.868,22.175,120.893,9.788,17.498,0,0,0,2.755e4,1.305e4,19.792,0.105,NaN,2010.419,NaN,0.018,1.228e6,1288.052,0.442,0.662,0.86,0.327,0.215,0.12,NaN,NaN,NaN,NaN,NaN,NaN,NaN,NaN,7.805e-4,165,213.825,84,0,1.893,14.997,1013.194,340.387,0.01,0.066
1.27,0.538,6.109,36.688,6.142,36.89,0.057,0,0.057,0,0.642,3.856,22.175,120.893,9.788,16.387,0,0,0,2.753e4,1.303e4,19.783,0.105,NaN,2009.914,NaN,0.019,1.296e6,1283.912,0.489,0.658,0.855,0.323,0.215,0.12,NaN,NaN,NaN,NaN,NaN,NaN,NaN,NaN,8.303e-4,165,213.825,84,0,1.874,14.997,1013.187,340.387,0.01,0.067
1.28,0.601,6.475,36.656,6.511,36.858,0.063,0,0.063,0,0.681,3.853,22.175,120.893,9.788,15.387,0,0,0,2.75e4,1.3e4,19.774,0.105,NaN,2009.409,NaN,0.02,1.364e6,1281.967,0.536,0.655,0.847,0.32,0.215,0.12,NaN,NaN,NaN,NaN,NaN,NaN,NaN,NaN,8.801e-4,165,213.825,84,0,1.855,14.996,1013.179,340.387,0.01,0.067
1.29,0.668,6.841,36.573,6.878,36.775,0.07,0,0.07,0,0.719,3.844,22.175,120.893,9.788,14.484,0,0,0,2.748e4,1.298e4,19.765,0.105,NaN,2008.904,NaN,0.021,1.432e6,1278.651,0.584,0.652,0.836,0.317,0.215,0.12,NaN,NaN,NaN,NaN,NaN,NaN,NaN,NaN,9.298e-4,165,213.825,84,0,1.836,14.996,1013.172,340.386,0.01,0.067
1.3,0.738,7.206,36.532,7.246,36.733,0.078,0,0.078,0,0.757,3.84,22.175,120.893,9.788,13.664,0,0,0,2.746e4,1.296e4,19.756,0.105,NaN,2008.399,NaN,0.022,1.501e6,1276.485,0.632,0.65,0.825,0.314,0.215,0.12,NaN,NaN,NaN,NaN,NaN,NaN,NaN,NaN,9.794e-4,165,213.825,84,0,1.818,14.995,1013.163,340.386,0.01,0.067
1.31,0.812,7.571,36.527,7.613,36.728,0.085,0,0.085,0,0.796,3.839,22.175,120.893,9.788,13.171,0,0,0,2.743e4,1.293e4,19.747,0.105,NaN,2007.894,NaN,0.024,1.572e6,1275.318,0.686,0.647,0.816,0.312,0.215,0.12,NaN,NaN,NaN,NaN,NaN,NaN,NaN,NaN,0.001,165,213.825,84,0,1.837,14.995,1013.155,340.386,0.01,0.067
1.32,0.89,7.936,36.499,7.979,36.7,0.094,0,0.094,0,0.834,3.836,22.175,120.893,9.788,12.722,0,0,0,2.741e4,1.291e4,19.738,0.105,NaN,2007.388,NaN,0.025,1.643e6,1273.528,0.742,0.644,0.807,0.309,0.215,0.12,NaN,NaN,NaN,NaN,NaN,NaN,NaN,NaN,0.001,165,213.825,84,0,1.855,14.994,1013.146,340.385,0.01,0.068
1.33,0.971,8.301,36.549,8.347,36.75,0.102,0,0.102,0,0.872,3.841,22.175,120.893,9.788,12.31,0,0,0,2.739e4,1.289e4,19.729,0.105,NaN,2006.882,NaN,0.026,1.715e6,1273.891,0.799,0.642,0.798,0.306,0.215,0.12,NaN,NaN,NaN,NaN,NaN,NaN,NaN,NaN,0.001,165,213.825,84,0,1.874,14.994,1013.136,340.385,0.01,0.068
1.34,1.056,8.666,36.526,8.714,36.727,0.111,0,0.111,0,0.911,3.839,22.175,120.893,9.788,11.931,0,0,0,2.736e4,1.286e4,19.72,0.105,NaN,2006.376,NaN,0.027,1.786e6,1272.247,0.858,0.639,0.79,0.304,0.215,0.12,NaN,NaN,NaN,NaN,NaN,NaN,NaN,NaN,0.001,165,213.825,84,0,1.893,14.993,1013.126,340.385,0.01,0.068
1.35,1.144,9.031,36.536,9.081,36.738,0.12,0,0.12,0,0.949,3.84,22.175,120.893,9.788,11.581,0,0,0,2.734e4,1.284e4,19.711,0.105,NaN,2005.868,NaN,0.028,1.858e6,1271.517,0.92,0.637,0.782,0.302,0.215,0.12,NaN,NaN,NaN,NaN,NaN,NaN,NaN,NaN,0.001,165,213.825,84,0,1.912,14.993,1013.116,340.384,0.01,0.069
1.36,1.236,9.397,36.574,9.449,36.776,0.13,0,0.13,0,0.988,3.844,22.175,120.893,9.788,11.085,0,0,0,2.732e4,1.282e4,19.702,0.105,NaN,2005.361,NaN,0.029,1.928e6,1271.539,0.978,0.635,0.772,0.3,0.215,0.12,NaN,NaN,NaN,NaN,NaN,NaN,NaN,NaN,0.001,165,213.825,84,0,1.901,14.992,1013.105,340.384,0.01,0.069
1.37,1.332,9.763,36.591,9.816,36.793,0.14,0,0.14,0,1.026,3.846,22.175,120.893,9.788,10.624,0,0,0,2.729e4,1.279e4,19.693,0.105,NaN,2004.852,NaN,0.03,1.998e6,1270.983,1.037,0.633,0.763,0.298,0.215,0.12,NaN,NaN,NaN,NaN,NaN,NaN,NaN,NaN,0.001,165,213.825,84,0,1.889,14.991,1013.094,340.384,0.01,0.07
1.38,1.431,10.129,36.708,10.185,36.91,0.15,0,0.15,0,1.065,3.858,22.175,120.893,9.788,10.193,0,0,0,2.727e4,1.277e4,19.684,0.105,NaN,2004.342,NaN,0.031,2.068e6,1273.167,1.098,0.631,0.754,0.296,0.215,0.12,NaN,NaN,NaN,NaN,NaN,NaN,NaN,NaN,0.001,165,213.825,84,0,1.877,14.991,1013.082,340.383,0.01,0.07
1.39,1.535,10.497,36.749,10.555,36.951,0.161,0,0.161,0,1.103,3.862,22.175,120.893,9.788,9.79,0,0,0,2.725e4,1.275e4,19.675,0.105,NaN,2003.83,NaN,0.032,2.139e6,1273.278,1.161,0.629,0.745,0.294,0.215,0.12,NaN,NaN,NaN,NaN,NaN,NaN,NaN,NaN,0.001,165,213.825,84,0,1.865,14.99,1013.07,340.383,0.01,0.07
1.4,1.641,10.865,36.837,10.925,37.039,0.173,0,0.173,0,1.142,3.872,22.175,120.893,9.788,9.412,0,0,0,2.723e4,1.273e4,19.666,0.105,NaN,2003.318,NaN,0.033,2.21e6,1274.663,1.226,0.628,0.737,0.292,0.215,0.12,NaN,NaN,NaN,NaN,NaN,NaN,NaN,NaN,0.001,165,213.825,84,0,1.853,14.989,1013.057,340.382,0.01,0.071
1.41,1.752,11.234,36.944,11.296,37.147,0.184,0,0.184,0,1.181,3.883,22.175,120.893,9.788,9.211,0,0,0,2.72e4,1.27e4,19.657,0.105,NaN,2002.803,NaN,0.034,2.283e6,1276.588,1.298,0.626,0.732,0.291,0.215,0.12,NaN,NaN,NaN,NaN,NaN,NaN,NaN,NaN,0.002,165,213.825,84,0,1.874,14.989,1013.045,340.382,0.01,0.071
1.42,1.866,11.604,37.012,11.668,37.216,0.196,0,0.196,0,1.22,3.89,22.175,120.893,9.788,9.021,0,0,0,2.718e4,1.268e4,19.648,0.105,NaN,2002.288,NaN,0.035,2.356e6,1277.444,1.373,0.624,0.726,0.289,0.215,0.12,NaN,NaN,NaN,NaN,NaN,NaN,NaN,NaN,0.002,165,213.825,84,0,1.894,14.988,1013.031,340.382,0.01,0.071
1.43,1.984,11.975,37.148,12.041,37.353,0.209,0,0.209,0,1.259,3.904,22.175,120.893,9.788,8.841,0,0,0,2.716e4,1.266e4,19.639,0.105,NaN,2001.77,NaN,0.036,2.429e6,1280.14,1.452,0.623,0.722,0.288,0.215,0.12,NaN,NaN,NaN,NaN,NaN,NaN,NaN,NaN,0.002,165,213.825,84,0,1.915,14.987,1013.017,340.381,0.01,0.072
1.44,2.106,12.347,37.205,12.415,37.41,0.221,0,0.221,0,1.298,3.91,22.175,120.893,9.788,8.672,0,0,0,2.713e4,1.263e4,19.629,0.105,NaN,2001.252,NaN,0.037,2.503e6,1280.681,1.535,0.623,0.72,0.288,0.215,0.12,NaN,NaN,NaN,NaN,NaN,NaN,NaN,NaN,0.002,165,213.825,84,0,1.935,14.986,1013.003,340.381,0.01,0.072
1.45,2.231,12.72,37.315,12.79,37.52,0.234,0,0.234,0,1.337,3.922,22.175,120.893,9.788,8.512,0,0,0,2.711e4,1.261e4,19.62,0.105,NaN,2000.731,NaN,0.039,2.576e6,1282.653,1.621,0.623,0.717,0.288,0.215,0.12,NaN,NaN,NaN,NaN,NaN,NaN,NaN,NaN,0.002,165,213.825,84,0,1.956,14.985,1012.988,340.38,0.01,0.072
1.46,2.36,13.094,37.433,13.167,37.64,0.248,0,0.248,0,1.376,3.934,22.175,120.893,9.788,8.219,0,0,0,2.709e4,1.259e4,19.611,0.104,NaN,2000.209,NaN,0.04,2.649e6,1284.861,1.702,0.623,0.712,0.288,0.215,0.12,NaN,NaN,NaN,NaN,NaN,NaN,NaN,NaN,0.002,165,213.825,84,0,1.942,14.985,1012.973,340.38,0.01,0.073
1.47,2.493,13.469,37.487,13.543,37.693,0.262,0,0.262,0,1.416,3.94,22.175,120.893,9.788,7.942,0,0,0,2.706e4,1.256e4,19.602,0.104,NaN,1999.686,NaN,0.041,2.721e6,1285.292,1.784,0.623,0.708,0.288,0.215,0.12,NaN,NaN,NaN,NaN,NaN,NaN,NaN,NaN,0.002,165,213.825,84,0,1.928,14.984,1012.958,340.379,0.01,0.073
1.48,2.629,13.845,37.609,13.921,37.816,0.276,0,0.276,0,1.455,3.953,22.175,120.893,9.788,7.679,0,0,0,2.704e4,1.254e4,19.592,0.104,NaN,1999.161,NaN,0.042,2.794e6,1287.587,1.87,0.623,0.703,0.288,0.215,0.12,NaN,NaN,NaN,NaN,NaN,NaN,NaN,NaN,0.002,165,213.825,84,0,1.914,14.983,1012.942,340.379,0.01,0.073
1.49,2.77,14.221,37.656,14.3,37.863,0.291,0,0.291,0,1.495,3.958,22.175,120.893,9.788,7.429,0,0,0,2.702e4,1.252e4,19.583,0.104,NaN,1998.635,NaN,0.043,2.867e6,1287.832,1.957,0.623,0.699,0.288,0.215,0.12,NaN,NaN,NaN,NaN,NaN,NaN,NaN,NaN,0.002,165,213.825,84,0,1.901,14.982,1012.925,340.378,0.01,0.074
1.5,2.914,14.598,37.727,14.679,37.935,0.306,0,0.306,0,1.534,3.965,22.175,120.893,9.788,7.19,0,0,0,2.699e4,1.249e4,19.574,0.104,NaN,1998.108,NaN,0.044,2.94e6,1288.735,2.047,0.623,0.695,0.288,0.215,0.12,NaN,NaN,NaN,NaN,NaN,NaN,NaN,NaN,0.002,165,213.825,84,0,1.887,14.981,1012.908,340.377,0.01,0.074
1.51,3.062,14.976,37.809,15.059,38.018,0.322,0,0.322,0,1.574,3.974,22.175,120.893,9.788,7,0,0,0,2.697e4,1.247e4,19.564,0.104,NaN,1997.579,NaN,0.045,3.014e6,1289.948,2.142,0.623,0.692,0.288,0.215,0.12,NaN,NaN,NaN,NaN,NaN,NaN,NaN,NaN,0.002,165,213.825,84,0,1.883,14.98,1012.891,340.377,0.01,0.075
1.52,3.213,15.354,37.826,15.439,38.034,0.338,0,0.338,0,1.614,3.976,22.175,120.893,9.788,6.818,0,0,0,2.695e4,1.244e4,19.555,0.104,NaN,1997.049,NaN,0.046,3.087e6,1289.376,2.238,0.623,0.689,0.288,0.215,0.12,NaN,NaN,NaN,NaN,NaN,NaN,NaN,NaN,0.002,165,213.825,84,0,1.88,14.979,1012.873,340.376,0.01,0.075
1.53,3.369,15.734,37.967,15.821,38.176,0.354,0,0.354,0,1.654,3.99,22.175,120.893,9.788,6.644,0,0,0,2.692e4,1.242e4,19.546,0.104,NaN,1996.518,NaN,0.047,3.162e6,1292.164,2.338,0.623,0.687,0.288,0.215,0.12,NaN,NaN,NaN,NaN,NaN,NaN,NaN,NaN,0.002,165,213.825,84,0,1.876,14.978,1012.855,340.376,0.01,0.075
1.54,3.528,16.114,38.037,16.203,38.247,0.371,0,0.371,0,1.694,3.998,22.175,120.893,9.788,6.478,0,0,0,2.69e4,1.24e4,19.536,0.104,NaN,1995.985,NaN,0.048,3.236e6,1293.051,2.44,0.623,0.684,0.288,0.215,0.12,NaN,NaN,NaN,NaN,NaN,NaN,NaN,NaN,0.002,165,213.825,84,0,1.872,14.977,1012.836,340.375,0.01,0.075
1.55,3.691,16.495,38.143,16.586,38.353,0.388,0,0.388,0,1.734,4.009,22.175,120.893,9.788,6.319,0,0,0,2.687e4,1.237e4,19.527,0.104,NaN,1995.451,NaN,0.05,3.31e6,1294.89,2.544,0.623,0.682,0.288,0.215,0.12,NaN,NaN,NaN,NaN,NaN,NaN,NaN,NaN,0.002,165,213.825,84,0,1.868,14.976,1012.817,340.374,0.01,0.076
1.56,3.858,16.878,38.269,16.971,38.48,0.405,0,0.405,0,1.774,4.022,22.175,120.893,9.788,6.178,0,0,0,2.685e4,1.235e4,19.517,0.104,NaN,1994.914,NaN,0.051,3.385e6,1297.251,2.653,0.623,0.68,0.288,0.215,0.12,NaN,NaN,NaN,NaN,NaN,NaN,NaN,NaN,0.002,165,213.825,84,0,1.868,14.975,1012.798,340.374,0.01,0.076
1.57,4.029,17.261,38.289,17.356,38.5,0.423,0,0.423,0,1.814,4.024,22.175,120.893,9.788,6.043,0,0,0,2.683e4,1.233e4,19.508,0.104,NaN,1994.377,NaN,0.052,3.46e6,1296.778,2.763,0.623,0.678,0.288,0.215,0.12,NaN,NaN,NaN,NaN,NaN,NaN,NaN,NaN,0.002,165,213.825,84,0,1.868,14.974,1012.778,340.373,0.01,0.076
1.585,4.292,17.835,38.332,17.935,38.636,0.451,1.138e-8,0.451,1.445e-6,1.887,4.84,22.175,120.893,9.788,5.888,0,0.037,1.438e-5,2.679e4,1.229e4,19.493,0.104,2145.042,1993.568,0.918,0.054,3.573e6,1298.654,2.937,0.624,0.675,0.288,0.215,0.12,1.323,1.214,-2.018e-5,0,0,0,0,4.815e-6,0.002,165,213.825,84,-4.159e-7,1.868,14.972,1012.747,340.372,0.015,0.077
1.608,4.703,18.701,38.535,18.807,38.84,0.495,7.243e-8,0.495,8.386e-6,1.996,4.852,22.175,120.893,9.788,5.652,0,0.097,1.776e-5,2.674e4,1.224e4,19.472,0.104,2149.411,1992.348,0.952,0.056,3.743e6,1301.804,3.207,0.624,0.672,0.288,0.215,0.12,1.26,1.2,-1.26e-4,0,0,0,0,2.991e-5,0.003,165,213.825,83.998,-2.498e-6,1.861,14.969,1012.698,340.37,0.023,0.077
1.641,5.356,20.011,38.875,20.127,39.18,0.565,2.685e-7,0.565,2.723e-5,2.16,4.879,22.175,120.893,9.788,5.274,0,0.197,-9.097e-6,2.666e4,1.216e4,19.439,0.104,2156.528,1990.501,1.006,0.06,4e6,1307.398,3.633,0.624,0.667,0.288,0.215,0.12,1.163,1.17,4.691e-4,0,0,0,0,1.067e-4,0.003,165,213.825,83.993,-3.921e-6,1.831,14.965,1012.622,340.368,0.034,0.077
1.691,6.406,21.97,39.298,22.102,39.605,0.679,8.081e-7,0.679,6.818e-5,2.406,4.916,22.175,120.893,9.788,4.798,0,0.364,2.893e-5,2.654e4,1.204e4,19.39,0.104,2165.781,1987.731,1.079,0.066,4.385e6,1313.533,4.323,0.624,0.66,0.288,0.215,0.121,1.042,1.124,-3.128e-4,0,0,0,0,3.038e-4,0.003,165,213.825,83.979,4.401e-7,1.793,14.958,1012.499,340.364,0.05,0.078
1.741,7.554,23.959,39.878,24.106,40.188,0.806,1.674e-6,0.806,1.191e-4,2.654,4.987,22.175,120.893,9.788,4.252,0,0.554,-3.937e-5,2.642e4,1.192e4,19.34,0.104,2176.761,1984.915,1.163,0.072,4.773e6,1323.765,5.069,0.624,0.653,0.288,0.216,0.121,0.907,1.054,-4.904e-4,0,0,0,0,5.948e-4,0.003,165,213.825,83.957,5.216e-6,1.698,14.951,1012.364,340.359,0.05,0.078
1.791,8.802,25.98,40.507,26.142,40.82,0.945,2.899e-6,0.945,1.758e-4,2.906,5.044,22.175,120.893,9.788,4.142,0,0.769,-5.83e-5,2.63e4,1.18e4,19.29,0.103,2179.066,1982.048,1.194,0.078,5.174e6,1335.184,5.946,0.624,0.652,0.288,0.216,0.121,0.881,1.051,3.607e-4,0,0,0,0,9.755e-4,0.004,165,213.825,83.924,1.809e-5,1.777,14.943,1012.218,340.354,0.05,0.078
1.841,10.153,28.034,41.179,28.211,41.499,1.096,4.518e-6,1.096,2.361e-4,3.162,5.141,22.175,120.893,9.788,3.755,0,1.019,-1.654e-5,2.617e4,1.167e4,19.238,0.103,2187.181,1979.127,1.261,0.084,5.576e6,1347.677,6.861,0.624,0.648,0.288,0.216,0.121,0.788,0.992,-1.462e-5,0,0,0,0,0.001,0.004,165,213.825,83.879,4.191e-5,1.719,14.934,1012.059,340.349,0.05,0.079
1.891,11.607,30.128,41.983,30.322,42.31,1.261,6.567e-6,1.261,2.984e-4,3.423,5.25,22.175,120.893,9.788,3.558,0,1.291,-1.164e-5,2.605e4,1.155e4,19.185,0.103,2191.418,1976.143,1.305,0.09,5.99e6,1363.475,7.893,0.624,0.646,0.288,0.216,0.121,0.742,0.966,-8.271e-5,0,0,0,0,0.002,0.004,165,213.825,83.821,6.24e-5,1.746,14.925,1011.889,340.343,0.05,0.079
1.941,13.166,32.255,42.641,32.465,42.979,1.439,9.083e-6,1.439,3.617e-4,3.69,5.373,22.175,120.893,9.788,3.26,0,1.597,-8.809e-5,2.593e4,1.143e4,19.132,0.103,2197.926,1973.105,1.363,0.096,6.407e6,1375.364,8.992,0.625,0.643,0.288,0.216,0.121,0.674,0.915,-1.145e-4,0,0,0,0,0.003,0.004,165,213.825,83.749,6.416e-5,1.714,14.914,1011.706,340.337,0.05,0.079
1.991,14.833,34.419,43.386,34.646,43.737,1.63,1.21e-5,1.63,4.251e-4,3.964,5.529,22.175,120.893,9.788,2.942,0,1.923,1.191e-4,2.58e4,1.13e4,19.077,0.103,2205.043,1970.006,1.424,0.102,6.832e6,1389.417,10.178,0.625,0.64,0.288,0.216,0.121,0.601,0.853,-2.427e-4,0,0,0,0,0.003,0.005,165,213.825,83.661,5.183e-5,1.66,14.904,1011.51,340.33,0.05,0.08
2.041,16.609,36.632,44.379,36.878,44.743,1.835,1.563e-5,1.835,4.88e-4,4.247,5.692,22.175,120.893,9.788,2.915,2.937e-7,2.28,2.841e-4,2.567e4,1.117e4,19.021,0.102,2205.709,1966.831,1.448,0.109,7.272e6,1409.711,11.532,0.625,0.64,0.288,0.216,0.122,0.595,0.858,-1.345e-4,0,0,0,0,0.004,0.005,165,213.825,83.556,1.21e-5,1.791,14.892,1011.302,340.323,0.05,0.08
2.091,18.497,38.89,45.253,39.154,45.632,2.055,1.972e-5,2.055,5.499e-4,4.538,5.87,22.175,120.893,9.788,2.83,0,2.689,1.713e-4,2.554e4,1.104e4,18.964,0.102,2207.718,1963.584,1.48,0.116,7.72e6,1426.753,12.987,0.625,0.639,0.287,0.216,0.122,0.576,0.848,-1.838e-4,0,0,0,0,0.005,0.005,165,213.825,83.432,-8.694e-6,1.899,14.88,1011.081,340.316,0.05,0.08
2.141,20.499,41.177,45.844,41.46,46.246,2.289,2.438e-5,2.289,6.102e-4,4.837,6.086,22.175,120.893,9.788,2.514,0,3.127,1.053e-4,2.541e4,1.091e4,18.906,0.102,2215.007,1960.282,1.544,0.123,8.169e6,1436.554,14.487,0.626,0.637,0.287,0.216,0.122,0.506,0.775,1.263e-4,0,0,0,0,0.006,0.006,165,213.825,83.287,-7.246e-6,1.852,14.867,1010.846,340.308,0.05,0.081
2.191,22.616,43.497,46.517,43.801,46.945,2.539,2.964e-5,2.539,6.689e-4,5.149,6.323,22.175,120.893,9.788,2.301,4.488e-7,3.576,1.8e-4,2.528e4,1.078e4,18.847,0.102,2220.037,1956.918,1.595,0.129,8.627e6,1448.404,16.123,0.626,0.635,0.287,0.216,0.122,0.46,0.727,2.882e-4,0,0,0,0,0.008,0.006,165,213.825,83.12,3.128e-5,1.882,14.853,1010.598,340.3,0.05,0.081
2.241,24.849,45.854,47.228,46.179,47.688,2.804,3.555e-5,2.804,7.263e-4,5.473,6.609,22.175,120.893,9.788,2.043,0,4.045,3.764e-4,2.515e4,1.065e4,18.787,0.102,2226.254,1953.489,1.653,0.136,9.091e6,1461.178,17.862,0.626,0.634,0.287,0.217,0.122,0.405,0.66,1.082e-4,0,0,0,0,0.009,0.006,165,213.825,82.929,8.153e-5,1.882,14.838,1010.336,340.291,0.05,0.081
2.291,27.201,48.234,47.713,48.583,48.209,3.087,4.216e-5,3.087,7.826e-4,5.812,6.9,22.175,120.893,9.788,1.798,0,4.512,6.577e-4,2.501e4,1.051e4,18.726,0.101,2232.239,1950.006,1.711,0.144,9.56e6,1468.288,19.718,0.627,0.633,0.287,0.217,0.123,0.354,0.595,4.171e-4,0,0,0,0,0.01,0.007,165,213.825,82.715,6.999e-5,1.899,14.823,1010.06,340.282,0.05,0.082
2.341,29.673,50.618,47.768,50.991,48.302,3.386,4.95e-5,3.386,8.376e-4,6.163,7.164,22.175,120.893,9.788,1.581,0,4.979,4.344e-4,2.488e4,1.038e4,18.664,0.101,2237.676,1946.495,1.765,0.151,1.003e7,1464.702,21.681,0.627,0.632,0.287,0.217,0.123,0.309,0.533,-4.982e-4,0,0,0,0,0.011,0.007,165,213.825,82.478,7.22e-5,1.947,14.807,1009.77,340.272,0.05,0.082
2.391,32.263,53.002,47.792,53.403,48.371,3.703,5.76e-5,3.703,8.912e-4,6.528,7.458,22.175,120.893,9.788,1.36,1.158e-6,5.436,0.001,2.475e4,1.025e4,18.602,0.101,2243.292,1942.956,1.82,0.158,1.05e7,1460.577,23.743,0.628,0.631,0.287,0.217,0.123,0.263,0.468,-1.475e-4,0,0,0,0,0.012,0.007,165,213.825,82.217,6.232e-5,2.002,14.79,1009.466,340.262,0.05,0.082
2.441,34.973,55.391,47.854,55.82,48.49,4.039,6.649e-5,4.039,9.432e-4,6.909,7.827,22.175,120.893,9.788,1.034,5.357e-7,5.855,0.001,2.461e4,1.011e4,18.539,0.101,2251.698,1939.385,1.893,0.165,1.097e7,1457.734,25.877,0.628,0.63,0.287,0.217,0.124,0.198,0.362,7.633e-5,0,0,0,0,0.013,0.008,165,213.825,81.935,3.408e-5,1.962,14.773,1009.148,340.251,0.05,0.083
2.491,37.802,57.762,47.501,58.222,48.185,4.394,7.62e-5,4.394,9.936e-4,7.305,8.088,22.175,120.893,9.788,0.939,8.148e-7,6.224,0.001,2.448e4,9982.7,18.477,0.101,2254.267,1935.809,1.93,0.172,1.145e7,1444.705,28.169,0.628,0.63,0.287,0.217,0.124,0.179,0.332,7.321e-5,0,0,0,0,0.013,0.008,165,213.825,81.633,6.954e-5,2.16,14.754,1008.816,340.24,0.05,0.083
2.541,40.749,60.128,47.402,60.621,48.148,4.77,8.679e-5,4.77,0.001,7.718,8.443,22.175,120.893,9.788,0.753,0,6.593,0.001,2.435e4,9851.919,18.414,0.1,2259.255,1932.21,1.982,0.179,1.192e7,1438.362,30.533,0.629,0.63,0.287,0.218,0.124,0.143,0.27,-1.776e-4,0,0,0,0,0.013,0.008,165,213.825,81.312,1.857e-4,2.28,14.735,1008.471,340.228,0.05,0.083
2.591,43.814,62.483,47.165,63.012,47.991,5.166,9.834e-5,5.166,0.001,8.149,8.867,22.175,120.893,9.788,0.414,4.666e-7,6.866,0.002,2.422e4,9721.977,18.351,0.1,2268.413,1928.595,2.06,0.186,1.238e7,1429.136,32.946,0.629,0.63,0.287,0.218,0.125,0.077,0.146,3.766e-4,0,0,0,0,0.013,0.009,165,213.825,80.975,3.626e-4,2.238,14.715,1008.111,340.216,0.05,0.083
2.641,46.997,64.849,47.385,65.417,48.297,5.585,1.11e-4,5.585,0.001,8.604,9.342,22.175,120.893,9.788,0.192,-3.254e-6,7.002,0.004,2.409e4,9591.843,18.287,0.1,2274.567,1924.936,2.119,0.193,1.285e7,1431.244,35.517,0.63,0.63,0.287,0.218,0.125,0.036,0.063,-8.725e-5,0,0,0,0,0.013,0.009,165,213.825,80.628,6.305e-4,2.321,14.695,1007.738,340.204,0.05,0.083
2.691,50.299,67.22,47.486,67.831,48.498,6.027,1.249e-4,6.027,0.001,9.084,9.857,22.175,120.893,9.788,0.113,2.588e-6,-7.014,0.006,2.396e4,9461.748,18.222,0.1,2276.895,1921.238,2.155,0.2,1.332e7,1430.823,38.188,0.63,0.63,0.287,0.218,0.125,0.021,0.058,-6.515e-5,0,0,0,0,-0.012,0.009,165,213.825,80.277,8.732e-4,2.297,14.673,1007.351,340.191,0.05,0.084
2.741,53.72,69.604,47.725,70.261,48.85,6.494,1.404e-4,6.494,0.001,9.592,10.42,22.175,120.893,9.788,0.419,-4.986e-7,-6.817,0.002,2.383e4,9331.363,18.157,0.1,2268.694,1917.492,2.128,0.208,1.379e7,1433.995,40.995,0.631,0.631,0.287,0.219,0.126,0.079,0.178,-2.093e-5,0,0,0,0,-0.011,0.01,165,213.825,79.931,0.001,2.242,14.651,1006.95,340.177,0.05,0.084
2.791,57.26,72.008,48.131,72.717,49.381,6.987,1.577e-4,6.987,0.001,10.129,11.04,22.175,120.893,9.788,0.743,-1.539e-6,-6.393,0.001,2.37e4,9200.305,18.091,0.099,2260.242,1913.685,2.1,0.215,1.426e7,1441.415,43.951,0.631,0.632,0.287,0.219,0.126,0.141,0.305,4.169e-4,0,0,0,0,-0.009,0.01,165,213.825,79.6,0.001,2.122,14.628,1006.534,340.163,0.05,0.084
2.841,60.921,74.429,48.483,75.194,49.849,7.507,1.769e-4,7.507,0.001,10.697,11.587,22.175,120.893,9.788,0.951,0,-5.731,0.001,2.357e4,9068.707,18.023,0.099,2255.003,1909.819,2.092,0.222,1.474e7,1447.346,47.059,0.632,0.634,0.286,0.219,0.126,0.182,0.387,2.047e-4,0,0,0,0,-0.007,0.01,165,213.825,79.296,0.002,2.096,14.604,1006.105,340.149,0.05,0.084
2.891,64.703,76.847,48.412,77.672,49.882,8.057,1.984e-4,8.057,0.001,11.286,12.023,22.175,120.893,9.787,1.136,2.621e-6,-4.877,2.144e-4,2.344e4,8937.495,17.955,0.099,2250.41,1905.922,2.088,0.229,1.522e7,1443.113,50.276,0.632,0.635,0.286,0.219,0.127,0.219,0.461,-3.226e-4,0,0,0,0,-0.004,0.011,165,213.825,79.03,0.002,2.033,14.579,1005.661,340.134,0.05,0.084
2.941,68.605,79.254,48.21,80.142,49.747,8.636,2.225e-4,8.636,0.001,11.893,12.271,22.175,120.893,9.787,1.14,8.209e-7,-3.86,9.066e-4,2.331e4,8806.998,17.887,0.099,2250.49,1902.002,2.112,0.237,1.57e7,1435.232,53.579,0.633,0.636,0.286,0.22,0.127,0.22,0.467,-2.659e-4,0,0,0,0,-0.003,0.011,165,213.825,78.811,0.002,2.15,14.554,1005.204,340.119,0.05,0.084
2.991,72.628,81.674,48.463,82.627,50.049,9.246,2.493e-4,9.246,0.002,12.513,12.5,22.175,120.893,9.787,1.071,-1.543e-6,-2.812,0.002,2.318e4,8676.274,17.818,0.099,2252.446,1898.031,2.148,0.244,1.619e7,1437.734,56.995,0.634,0.636,0.286,0.22,0.128,0.206,0.444,1.202e-5,0,0,0,0,-0.001,0.011,165,213.825,78.645,0.002,2.307,14.528,1004.732,340.103,0.05,0.085
3.041,76.773,84.117,48.929,85.138,50.59,9.888,2.793e-4,9.888,0.002,13.148,12.855,22.175,120.893,9.787,1.175,1.013e-6,-1.685,8.87e-4,2.305e4,8544.831,17.748,0.098,2249.987,1893.993,2.158,0.251,1.667e7,1445.651,60.539,0.634,0.637,0.286,0.22,0.128,0.227,0.49,-1.011e-4,0,0,0,0,-4.46e-4,0.012,165,213.825,78.532,0.003,2.128,14.501,1004.246,340.086,0.05,0.085
