# Time (s),Altitude (m),Vertical velocity (m/s),Vertical acceleration (m/s²),Total velocity (m/s),Total acceleration (m/s²),Position East of launch (m),Position North of launch (m),Lateral distance (m),Lateral direction (°),Lateral velocity (m/s),Lateral acceleration (m/s²),Latitude (°),Longitude (°),Gravitational acceleration (m/s²),Angle of attack (°),Roll rate (°/s),Pitch rate (°/s),Yaw rate (°/s),Mass (g),Motor mass (g),Longitudinal moment of inertia (kg·m²),Rotational moment of inertia (kg·m²),CP location (mm),CG location (mm),Stability margin calibers (​),Mach number (​),Reynolds number (​),Thrust (N),Drag force (N),Drag coefficient (​),Axial drag coefficient (​),Friction drag coefficient (​),Pressure drag coefficient (​),Base drag coefficient (​),Normal force coefficient (​),Pitch moment coefficient (​),Yaw moment coefficient (​),Side force coefficient (​),Roll moment coefficient (​),Roll forcing coefficient (​),Roll damping coefficient (​),Pitch damping coefficient (​),Coriolis acceleration (m/s²),Reference length (mm),Reference area (cm²),Vertical orientation (zenith) (°),Lateral orientation (azimuth) (°),Wind velocity (m/s),Air temperature (°C),Air pressure (mbar),Speed of sound (m/s),Simulation time step (s),Computation time (s)
0.01,-4.757e-4,-0.095,-9.511,0.096,9.563,-5e-5,0,5e-5,180,0.01,1,22.175,120.893,9.788,87.201,0,0,0,2.8e4,1.35e4,19.963,0.106,NaN,2019.994,NaN,0.011,7.442e5,4.784,3.736e-5,0.696,1.981e-4,0.361,0.215,0.12,NaN,NaN,NaN,NaN,NaN,NaN,NaN,NaN,1.293e-5,165,213.825,84,0,3.801,15,1013.25,340.389,0.01,0.002
0.02,-4.761e-4,-0.095,-9.522,0.096,9.575,-5.004e-5,0,5.004e-5,180,0.01,1.001,22.175,120.893,9.788,87.207,0,0,0,2.8e4,1.35e4,19.963,0.106,NaN,2019.992,NaN,0.011,7.422e5,4.461,3.695e-5,0.696,1.97e-4,0.361,0.215,0.12,NaN,NaN,NaN,NaN,NaN,NaN,NaN,NaN,1.294e-5,165,213.825,84,0,3.791,15,1013.25,340.389,0.01,0.002
0.03,-4.763e-4,-0.095,-9.526,0.096,9.579,-5.006e-5,0,5.006e-5,180,0.01,1.001,22.175,120.893,9.788,87.211,0,0,0,2.8e4,1.35e4,19.963,0.106,NaN,2019.991,NaN,0.011,7.403e5,4.343,3.659e-5,0.696,1.961e-4,0.361,0.215,0.12,NaN,NaN,NaN,NaN,NaN,NaN,NaN,NaN,1.295e-5,165,213.825,84,0,3.78,15,1013.25,340.389,0.01,0.003
0.04,-4.765e-4,-0.095,-9.53,0.096,9.582,-5.008e-5,0,5.008e-5,180,0.01,1.002,22.175,120.893,9.788,87.216,0,0,0,2.8e4,1.35e4,19.963,0.106,NaN,2019.989,NaN,0.011,7.383e5,4.249,3.623e-5,0.697,1.952e-4,0.362,0.215,0.12,NaN,NaN,NaN,NaN,NaN,NaN,NaN,NaN,1.295e-5,165,213.825,84,0,3.77,15,1013.25,340.389,0.01,0.003
0.05,-4.761e-4,-0.095,-9.523,0.096,9.575,-5.005e-5,0,5.005e-5,180,0.01,1.001,22.175,120.893,9.788,87.219,0,0,0,2.8e4,1.35e4,19.963,0.106,NaN,2019.988,NaN,0.011,7.363e5,4.443,3.594e-5,0.697,1.947e-4,0.362,0.215,0.12,NaN,NaN,NaN,NaN,NaN,NaN,NaN,NaN,1.294e-5,165,213.825,84,0,3.76,15,1013.25,340.389,0.01,0.004
0.06,-4.757e-4,-0.095,-9.514,0.096,9.567,-5e-5,0,5e-5,180,0.01,1,22.175,120.893,9.788,87.218,0,0,0,2.8e4,1.35e4,19.963,0.106,NaN,2019.986,NaN,0.011,7.36e5,4.681,3.594e-5,0.697,1.948e-4,0.362,0.215,0.12,NaN,NaN,NaN,NaN,NaN,NaN,NaN,NaN,1.293e-5,165,213.825,84,0,3.759,15,1013.25,340.389,0.01,0.004
0.07,-4.762e-4,-0.095,-9.523,0.096,9.576,-5.005e-5,0,5.005e-5,180,0.01,1.001,22.175,120.893,9.788,87.22,0,0,0,2.8e4,1.35e4,19.963,0.106,NaN,2019.984,NaN,0.011,7.357e5,4.438,3.583e-5,0.697,1.944e-4,0.362,0.215,0.12,NaN,NaN,NaN,NaN,NaN,NaN,NaN,NaN,1.294e-5,165,213.825,84,0,3.757,15,1013.25,340.389,0.01,0.005
0.08,-4.761e-4,-0.095,-9.522,0.096,9.574,-5.004e-5,0,5.004e-5,180,0.01,1.001,22.175,120.893,9.788,87.22,0,0,0,2.8e4,1.35e4,19.963,0.106,NaN,2019.982,NaN,0.011,7.353e5,4.479,3.579e-5,0.697,1.944e-4,0.362,0.215,0.12,NaN,NaN,NaN,NaN,NaN,NaN,NaN,NaN,1.294e-5,165,213.825,84,0,3.755,15,1013.25,340.389,0.01,0.005
0.09,-4.759e-4,-0.095,-9.517,0.096,9.57,-5.002e-5,0,5.002e-5,180,0.01,1,22.175,120.893,9.788,87.22,0,0,0,2.8e4,1.35e4,19.963,0.106,NaN,2019.981,NaN,0.011,7.35e5,4.603,3.576e-5,0.697,1.944e-4,0.362,0.215,0.12,NaN,NaN,NaN,NaN,NaN,NaN,NaN,NaN,1.294e-5,165,213.825,84,0,3.754,15,1013.25,340.389,0.01,0.006
0.1,-4.764e-4,-0.095,-9.527,0.096,9.58,-5.007e-5,0,5.007e-5,180,0.01,1.001,22.175,120.893,9.788,87.223,0,0,0,2.8e4,1.35e4,19.963,0.106,NaN,2019.979,NaN,0.011,7.347e5,4.315,3.564e-5,0.697,1.939e-4,0.362,0.215,0.12,NaN,NaN,NaN,NaN,NaN,NaN,NaN,NaN,1.295e-5,165,213.825,84,0,3.752,15,1013.25,340.389,0.01,0.006
0.11,-4.762e-4,-0.095,-9.523,0.096,9.576,-5.005e-5,0,5.005e-5,180,0.01,1.001,22.175,120.893,9.788,87.225,0,0,0,2.8e4,1.35e4,19.963,0.106,NaN,2019.977,NaN,0.011,7.33e5,4.431,3.538e-5,0.697,1.934e-4,0.362,0.215,0.12,NaN,NaN,NaN,NaN,NaN,NaN,NaN,NaN,1.294e-5,165,213.825,84,0,3.743,15,1013.25,340.389,0.01,0.007
0.12,-4.762e-4,-0.095,-9.523,0.096,9.576,-5.005e-5,0,5.005e-5,180,0.01,1.001,22.175,120.893,9.788,87.229,0,0,0,2.8e4,1.35e4,19.962,0.106,NaN,2019.976,NaN,0.011,7.312e5,4.436,3.509e-5,0.697,1.927e-4,0.362,0.215,0.12,NaN,NaN,NaN,NaN,NaN,NaN,NaN,NaN,1.294e-5,165,213.825,84,0,3.734,15,1013.25,340.389,0.01,0.007
0.13,-4.758e-4,-0.095,-9.517,0.096,9.569,-5.001e-5,0,5.001e-5,180,0.01,1,22.175,120.893,9.788,87.231,0,0,0,2.8e4,1.35e4,19.962,0.106,NaN,2019.974,NaN,0.011,7.295e5,4.62,3.483e-5,0.698,1.922e-4,0.362,0.215,0.12,NaN,NaN,NaN,NaN,NaN,NaN,NaN,NaN,1.294e-5,165,213.825,84,0,3.725,15,1013.25,340.389,0.01,0.007
0.14,-4.762e-4,-0.095,-9.524,0.096,9.577,-5.005e-5,0,5.005e-5,180,0.01,1.001,22.175,120.893,9.788,87.236,0,0,0,2.8e4,1.35e4,19.962,0.106,NaN,2019.972,NaN,0.011,7.277e5,4.404,3.45e-5,0.698,1.913e-4,0.363,0.215,0.12,NaN,NaN,NaN,NaN,NaN,NaN,NaN,NaN,1.295e-5,165,213.825,84,0,3.716,15,1013.25,340.389,0.01,0.008
0.15,-4.761e-4,-0.095,-9.523,0.096,9.575,-5.004e-5,0,5.004e-5,180,0.01,1.001,22.175,120.893,9.788,87.239,0,0,0,2.8e4,1.35e4,19.962,0.106,NaN,2019.97,NaN,0.011,7.26e5,4.444,3.422e-5,0.698,1.907e-4,0.363,0.215,0.12,NaN,NaN,NaN,NaN,NaN,NaN,NaN,NaN,1.294e-5,165,213.825,84,0,3.708,15,1013.25,340.389,0.01,0.008
0.16,-4.758e-4,-0.095,-9.516,0.096,9.568,-5.001e-5,0,5.001e-5,180,0.01,1,22.175,120.893,9.788,87.231,0,0,0,2.8e4,1.35e4,19.962,0.106,NaN,2019.969,NaN,0.011,7.295e5,4.651,3.485e-5,0.698,1.923e-4,0.362,0.215,0.12,NaN,NaN,NaN,NaN,NaN,NaN,NaN,NaN,1.293e-5,165,213.825,84,0,3.726,15,1013.25,340.389,0.01,0.009
0.17,-4.765e-4,-0.095,-9.531,0.096,9.583,-5.009e-5,0,5.009e-5,180,0.01,1.002,22.175,120.893,9.788,87.226,0,0,0,2.8e4,1.35e4,19.962,0.106,NaN,2019.967,NaN,0.011,7.331e5,4.218,3.535e-5,0.697,1.932e-4,0.362,0.215,0.12,NaN,NaN,NaN,NaN,NaN,NaN,NaN,NaN,1.295e-5,165,213.825,84,0,3.744,15,1013.25,340.389,0.01,0.009
0.18,-4.765e-4,-0.095,-9.531,0.096,9.583,-5.009e-5,0,5.009e-5,180,0.01,1.002,22.175,120.893,9.788,87.219,0,0,0,2.8e4,1.35e4,19.962,0.106,NaN,2019.965,NaN,0.011,7.366e5,4.225,3.595e-5,0.697,1.946e-4,0.362,0.215,0.12,NaN,NaN,NaN,NaN,NaN,NaN,NaN,NaN,1.295e-5,165,213.825,84,0,3.762,15,1013.25,340.389,0.01,0.01
0.19,-4.764e-4,-0.095,-9.527,0.096,9.58,-5.007e-5,0,5.007e-5,180,0.01,1.001,22.175,120.893,9.788,87.212,0,0,0,2.8e4,1.35e4,19.962,0.106,NaN,2019.964,NaN,0.011,7.402e5,4.321,3.657e-5,0.696,1.96e-4,0.361,0.215,0.12,NaN,NaN,NaN,NaN,NaN,NaN,NaN,NaN,1.295e-5,165,213.825,84,0,3.78,15,1013.25,340.389,0.01,0.01
0.2,-4.766e-4,-0.095,-9.532,0.096,9.585,-5.01e-5,0,5.01e-5,180,0.01,1.002,22.175,120.893,9.788,87.206,0,0,0,2.8e4,1.35e4,19.962,0.106,NaN,2019.962,NaN,0.011,7.438e5,4.174,3.715e-5,0.696,1.972e-4,0.361,0.215,0.12,NaN,NaN,NaN,NaN,NaN,NaN,NaN,NaN,1.296e-5,165,213.825,84,0,3.798,15,1013.25,340.389,0.01,0.01
0.21,-4.763e-4,-0.095,-9.525,0.096,9.578,-5.006e-5,0,5.006e-5,180,0.01,1.001,22.175,120.893,9.788,87.209,0,0,0,2.8e4,1.35e4,19.962,0.106,NaN,2019.961,NaN,0.011,7.412e5,4.381,3.676e-5,0.696,1.965e-4,0.361,0.215,0.12,NaN,NaN,NaN,NaN,NaN,NaN,NaN,NaN,1.295e-5,165,213.825,84,0,3.785,15,1013.25,340.389,0.01,0.011
0.22,-4.758e-4,-0.095,-9.515,0.096,9.568,-5.001e-5,0,5.001e-5,180,0.01,1,22.175,120.893,9.788,87.213,0,0,0,2.8e4,1.35e4,19.962,0.106,NaN,2019.959,NaN,0.011,7.386e5,4.657,3.638e-5,0.697,1.958e-4,0.362,0.215,0.12,NaN,NaN,NaN,NaN,NaN,NaN,NaN,NaN,1.293e-5,165,213.825,84,0,3.772,15,1013.25,340.389,0.01,0.011
0.23,-4.762e-4,-0.095,-9.525,0.096,9.577,-5.005e-5,0,5.005e-5,180,0.01,1.001,22.175,120.893,9.788,87.219,0,0,0,2.8e4,1.35e4,19.962,0.106,NaN,2019.957,NaN,0.011,7.361e5,4.392,3.589e-5,0.697,1.945e-4,0.362,0.215,0.12,NaN,NaN,NaN,NaN,NaN,NaN,NaN,NaN,1.295e-5,165,213.825,84,0,3.759,15,1013.25,340.389,0.01,0.012
0.24,-4.76e-4,-0.095,-9.52,0.096,9.573,-5.003e-5,0,5.003e-5,180,0.01,1.001,22.175,120.893,9.788,87.224,0,0,0,2.8e4,1.35e4,19.962,0.106,NaN,2019.955,NaN,0.011,7.335e5,4.513,3.549e-5,0.697,1.937e-4,0.362,0.215,0.12,NaN,NaN,NaN,NaN,NaN,NaN,NaN,NaN,1.294e-5,165,213.825,84,0,3.746,15,1013.25,340.389,0.01,0.012
0.25,-4.759e-4,-0.095,-9.518,0.096,9.57,-5.002e-5,0,5.002e-5,180,0.01,1,22.175,120.893,9.788,87.229,0,0,0,2.8e4,1.35e4,19.962,0.106,NaN,2019.954,NaN,0.011,7.31e5,4.587,3.508e-5,0.697,1.928e-4,0.362,0.215,0.12,NaN,NaN,NaN,NaN,NaN,NaN,NaN,NaN,1.294e-5,165,213.825,84,0,3.733,15,1013.25,340.389,0.01,0.012
0.26,-4.762e-4,-0.095,-9.523,0.096,9.576,-5.005e-5,0,5.005e-5,180,0.01,1.001,22.175,120.893,9.788,87.222,0,0,0,2.8e4,1.35e4,19.962,0.106,NaN,2019.952,NaN,0.011,7.346e5,4.429,3.565e-5,0.697,1.94e-4,0.362,0.215,0.12,NaN,NaN,NaN,NaN,NaN,NaN,NaN,NaN,1.294e-5,165,213.825,84,0,3.751,15,1013.25,340.389,0.01,0.013
0.27,-4.76e-4,-0.095,-9.52,0.096,9.572,-5.003e-5,0,5.003e-5,180,0.01,1.001,22.175,120.893,9.788,87.215,0,0,0,2.8e4,1.35e4,19.962,0.106,NaN,2019.95,NaN,0.011,7.382e5,4.527,3.628e-5,0.697,1.955e-4,0.362,0.215,0.12,NaN,NaN,NaN,NaN,NaN,NaN,NaN,NaN,1.294e-5,165,213.825,84,0,3.77,15,1013.25,340.389,0.01,0.013
0.28,-4.761e-4,-0.095,-9.521,0.096,9.574,-5.004e-5,0,5.004e-5,180,0.01,1.001,22.175,120.893,9.788,87.208,0,0,0,2.8e4,1.35e4,19.962,0.106,NaN,2019.949,NaN,0.011,7.418e5,4.488,3.688e-5,0.696,1.968e-4,0.361,0.215,0.12,NaN,NaN,NaN,NaN,NaN,NaN,NaN,NaN,1.294e-5,165,213.825,84,0,3.788,15,1013.25,340.389,0.01,0.013
0.29,-4.758e-4,-0.095,-9.517,0.096,9.569,-5.001e-5,0,5.001e-5,180,0.01,1,22.175,120.893,9.788,87.2,0,0,0,2.8e4,1.35e4,19.962,0.106,NaN,2019.947,NaN,0.011,7.454e5,4.616,3.753e-5,0.696,1.984e-4,0.361,0.215,0.12,NaN,NaN,NaN,NaN,NaN,NaN,NaN,NaN,1.294e-5,165,213.825,84,0,3.807,15,1013.25,340.389,0.01,0.014
0.3,-4.76e-4,-0.095,-9.519,0.096,9.572,-5.003e-5,0,5.003e-5,180,0.01,1.001,22.175,120.893,9.788,87.193,0,0,0,2.8e4,1.35e4,19.962,0.106,NaN,2019.945,NaN,0.011,7.49e5,4.548,3.814e-5,0.696,1.996e-4,0.36,0.215,0.12,NaN,NaN,NaN,NaN,NaN,NaN,NaN,NaN,1.294e-5,165,213.825,84,0,3.825,15,1013.25,340.389,0.01,0.014
0.31,-4.757e-4,-0.095,-9.514,0.096,9.566,-5e-5,0,5e-5,180,0.01,1,22.175,120.893,9.788,87.207,0,0,0,2.8e4,1.35e4,19.962,0.106,NaN,2019.943,NaN,0.011,7.413e5,4.706,3.685e-5,0.696,1.969e-4,0.361,0.215,0.12,NaN,NaN,NaN,NaN,NaN,NaN,NaN,NaN,1.293e-5,165,213.825,84,0,3.786,15,1013.25,340.389,0.01,0.014
0.32,-4.763e-4,-0.095,-9.527,0.096,9.579,-5.007e-5,0,5.007e-5,180,0.01,1.001,22.175,120.893,9.788,87.225,0,0,0,2.8e4,1.35e4,19.962,0.106,NaN,2019.942,NaN,0.011,7.336e5,4.332,3.547e-5,0.697,1.935e-4,0.362,0.215,0.12,NaN,NaN,NaN,NaN,NaN,NaN,NaN,NaN,1.295e-5,165,213.825,84,0,3.747,15,1013.25,340.389,0.01,0.014
0.33,-4.761e-4,-0.095,-9.521,0.096,9.574,-5.004e-5,0,5.004e-5,180,0.01,1.001,22.175,120.893,9.788,87.239,0,0,0,2.8e4,1.35e4,19.962,0.106,NaN,2019.94,NaN,0.011,7.259e5,4.483,3.422e-5,0.698,1.907e-4,0.363,0.215,0.12,NaN,NaN,NaN,NaN,NaN,NaN,NaN,NaN,1.294e-5,165,213.825,84,0,3.707,15,1013.25,340.389,0.01,0.015
0.34,-4.759e-4,-0.095,-9.518,0.096,9.571,-5.002e-5,0,5.002e-5,180,0.01,1,22.175,120.893,9.788,87.255,0,0,0,2.8e4,1.35e4,19.962,0.106,NaN,2019.938,NaN,0.011,7.182e5,4.57,3.299e-5,0.699,1.878e-4,0.364,0.215,0.12,NaN,NaN,NaN,NaN,NaN,NaN,NaN,NaN,1.294e-5,165,213.825,84,0,3.668,15,1013.25,340.389,0.01,0.015
0.35,-4.762e-4,-0.095,-9.524,0.096,9.576,-5.005e-5,0,5.005e-5,180,0.01,1.001,22.175,120.893,9.788,87.272,0,0,0,2.8e4,1.35e4,19.962,0.106,NaN,2019.936,NaN,0.011,7.105e5,4.419,3.173e-5,0.7,1.846e-4,0.364,0.215,0.12,NaN,NaN,NaN,NaN,NaN,NaN,NaN,NaN,1.294e-5,165,213.825,84,0,3.629,15,1013.25,340.389,0.01,0.015
0.36,-4.764e-4,-0.095,-9.527,0.096,9.58,-5.007e-5,0,5.007e-5,180,0.01,1.001,22.175,120.893,9.788,87.262,0,0,0,2.8e4,1.35e4,19.962,0.106,NaN,2019.935,NaN,0.011,7.154e5,4.317,3.248e-5,0.699,1.864e-4,0.364,0.215,0.12,NaN,NaN,NaN,NaN,NaN,NaN,NaN,NaN,1.295e-5,165,213.825,84,0,3.653,15,1013.25,340.389,0.01,0.016
0.37,-4.76e-4,-0.095,-9.52,0.096,9.573,-5.003e-5,0,5.003e-5,180,0.01,1.001,22.175,120.893,9.788,87.251,0,0,0,2.8e4,1.35e4,19.962,0.106,NaN,2019.933,NaN,0.011,7.202e5,4.522,3.33e-5,0.699,1.885e-4,0.363,0.215,0.12,NaN,NaN,NaN,NaN,NaN,NaN,NaN,NaN,1.294e-5,165,213.825,84,0,3.678,15,1013.25,340.389,0.01,0.016
0.38,-4.762e-4,-0.095,-9.523,0.096,9.576,-5.005e-5,0,5.005e-5,180,0.01,1.001,22.175,120.893,9.788,87.241,0,0,0,2.8e4,1.35e4,19.962,0.106,NaN,2019.931,NaN,0.011,7.25e5,4.433,3.407e-5,0.698,1.903e-4,0.363,0.215,0.12,NaN,NaN,NaN,NaN,NaN,NaN,NaN,NaN,1.294e-5,165,213.825,84,0,3.703,15,1013.25,340.389,0.01,0.016
0.39,-4.757e-4,-0.095,-9.515,0.096,9.567,-5e-5,0,5e-5,180,0.01,1,22.175,120.893,9.788,87.23,0,0,0,2.8e4,1.35e4,19.962,0.106,NaN,2019.93,NaN,0.011,7.299e5,4.673,3.492e-5,0.698,1.925e-4,0.362,0.215,0.12,NaN,NaN,NaN,NaN,NaN,NaN,NaN,NaN,1.293e-5,165,213.825,84,0,3.728,15,1013.25,340.389,0.01,0.016
0.4,-4.755e-4,-0.095,-9.51,0.096,9.562,-4.998e-5,0,4.998e-5,180,0.01,1,22.175,120.893,9.788,87.22,0,0,0,2.8e4,1.35e4,19.962,0.106,NaN,2019.928,NaN,0.011,7.347e5,4.812,3.575e-5,0.697,1.945e-4,0.362,0.215,0.12,NaN,NaN,NaN,NaN,NaN,NaN,NaN,NaN,1.293e-5,165,213.825,84,0,3.752,15,1013.25,340.389,0.01,0.016
0.41,-4.759e-4,-0.095,-9.518,0.096,9.57,-5.002e-5,0,5.002e-5,180,0.01,1,22.175,120.893,9.788,87.215,0,0,0,2.8e4,1.35e4,19.962,0.106,NaN,2019.926,NaN,0.011,7.376e5,4.595,3.618e-5,0.697,1.953e-4,0.362,0.215,0.12,NaN,NaN,NaN,NaN,NaN,NaN,NaN,NaN,1.294e-5,165,213.825,84,0,3.767,15,1013.25,340.389,0.01,0.017
0.42,-4.758e-4,-0.095,-9.516,0.096,9.568,-5.001e-5,0,5.001e-5,180,0.01,1,22.175,120.893,9.788,87.21,0,0,0,2.8e4,1.35e4,19.962,0.106,NaN,2019.924,NaN,0.011,7.404e5,4.638,3.668e-5,0.696,1.965e-4,0.361,0.215,0.12,NaN,NaN,NaN,NaN,NaN,NaN,NaN,NaN,1.293e-5,165,213.825,84,0,3.781,15,1013.25,340.389,0.01,0.017
0.43,-4.755e-4,-0.095,-9.51,0.096,9.562,-4.998e-5,0,4.998e-5,180,0.01,1,22.175,120.893,9.788,87.203,0,0,0,2.8e4,1.35e4,19.962,0.106,NaN,2019.922,NaN,0.011,7.432e5,4.811,3.72e-5,0.696,1.978e-4,0.361,0.215,0.12,NaN,NaN,NaN,NaN,NaN,NaN,NaN,NaN,1.293e-5,165,213.825,84,0,3.796,15,1013.25,340.389,0.01,0.017
0.44,-4.753e-4,-0.095,-9.506,0.096,9.558,-4.996e-5,0,4.996e-5,180,0.01,0.999,22.175,120.893,9.788,87.197,0,0,0,2.8e4,1.35e4,19.962,0.106,NaN,2019.921,NaN,0.011,7.461e5,4.919,3.771e-5,0.696,1.989e-4,0.361,0.215,0.12,NaN,NaN,NaN,NaN,NaN,NaN,NaN,NaN,1.292e-5,165,213.825,84,0,3.81,15,1013.25,340.389,0.01,0.017
0.45,-4.759e-4,-0.095,-9.518,0.096,9.57,-5.002e-5,0,5.002e-5,180,0.01,1,22.175,120.893,9.788,87.193,0,0,0,2.8e4,1.35e4,19.961,0.106,NaN,2019.919,NaN,0.011,7.489e5,4.583,3.813e-5,0.696,1.996e-4,0.36,0.215,0.12,NaN,NaN,NaN,NaN,NaN,NaN,NaN,NaN,1.294e-5,165,213.825,84,0,3.825,15,1013.25,340.389,0.01,0.018
0.46,-4.762e-4,-0.095,-9.523,0.096,9.576,-5.005e-5,0,5.005e-5,180,0.01,1.001,22.175,120.893,9.788,87.17,0,0,0,2.8e4,1.35e4,19.961,0.106,NaN,2019.917,NaN,0.011,7.618e5,4.429,4.036e-5,0.694,2.043e-4,0.359,0.215,0.12,NaN,NaN,NaN,NaN,NaN,NaN,NaN,NaN,1.294e-5,165,213.825,84,0,3.89,15,1013.25,340.389,0.01,0.018
0.47,-4.761e-4,-0.095,-9.523,0.096,9.575,-5.004e-5,0,5.004e-5,180,0.01,1.001,22.175,120.893,9.788,87.146,0,0,0,2.8e4,1.35e4,19.961,0.106,NaN,2019.915,NaN,0.012,7.747e5,4.45,4.27e-5,0.693,2.09e-4,0.358,0.215,0.12,NaN,NaN,NaN,NaN,NaN,NaN,NaN,NaN,1.294e-5,165,213.825,84,0,3.956,15,1013.25,340.389,0.01,0.018
0.48,-4.753e-4,-0.095,-9.507,0.096,9.559,-4.996e-5,0,4.996e-5,180,0.01,0.999,22.175,120.893,9.788,87.122,0,0,0,2.8e4,1.35e4,19.961,0.106,NaN,2019.914,NaN,0.012,7.875e5,4.905,4.521e-5,0.692,2.141e-4,0.357,0.215,0.12,NaN,NaN,NaN,NaN,NaN,NaN,NaN,NaN,1.292e-5,165,213.825,84,0,4.022,15,1013.25,340.389,0.01,0.018
0.49,-4.756e-4,-0.095,-9.512,0.096,9.565,-4.999e-5,0,4.999e-5,180,0.01,1,22.175,120.893,9.788,87.1,0,0,0,2.8e4,1.35e4,19.961,0.106,NaN,2019.912,NaN,0.012,8.004e5,4.746,4.764e-5,0.691,2.184e-4,0.356,0.215,0.12,NaN,NaN,NaN,NaN,NaN,NaN,NaN,NaN,1.293e-5,165,213.825,84,0,4.087,15,1013.25,340.389,0.01,0.019
0.5,-4.761e-4,-0.095,-9.522,0.096,9.574,-5.004e-5,0,5.004e-5,180,0.01,1.001,22.175,120.893,9.788,87.081,0,0,0,2.8e4,1.35e4,19.961,0.106,NaN,2019.91,NaN,0.012,8.133e5,4.47,5.011e-5,0.69,2.225e-4,0.354,0.215,0.12,NaN,NaN,NaN,NaN,NaN,NaN,NaN,NaN,1.294e-5,165,213.825,84,0,4.153,15,1013.25,340.389,0.01,0.019
0.51,-4.758e-4,-0.095,-9.515,0.096,9.568,-5.001e-5,0,5.001e-5,180,0.01,1,22.175,120.893,9.788,87.097,0,0,0,2.8e4,1.35e4,19.961,0.106,NaN,2019.908,NaN,0.012,8.029e5,4.657,4.81e-5,0.691,2.191e-4,0.355,0.215,0.12,NaN,NaN,NaN,NaN,NaN,NaN,NaN,NaN,1.293e-5,165,213.825,84,0,4.1,15,1013.25,340.389,0.01,0.019
0.52,-4.75e-4,-0.095,-9.499,0.096,9.551,-4.992e-5,0,4.992e-5,180,0.01,0.998,22.175,120.893,9.788,87.112,0,0,0,2.8e4,1.35e4,19.961,0.106,NaN,2019.906,NaN,0.012,7.925e5,5.115,4.62e-5,0.691,2.16e-4,0.356,0.215,0.12,NaN,NaN,NaN,NaN,NaN,NaN,NaN,NaN,1.291e-5,165,213.825,84,0,4.047,15,1013.25,340.389,0.01,0.019
0.53,-4.746e-4,-0.095,-9.491,0.095,9.543,-4.988e-5,0,4.988e-5,180,0.01,0.998,22.175,120.893,9.788,87.129,0,0,0,2.8e4,1.35e4,19.961,0.106,NaN,2019.904,NaN,0.012,7.821e5,5.339,4.429e-5,0.692,2.126e-4,0.357,0.215,0.12,NaN,NaN,NaN,NaN,NaN,NaN,NaN,NaN,1.29e-5,165,213.825,84,0,3.994,15,1013.25,340.389,0.01,0.019
0.54,-4.758e-4,-0.095,-9.516,0.096,9.568,-5.001e-5,0,5.001e-5,180,0.01,1,22.175,120.893,9.788,87.151,0,0,0,2.8e4,1.35e4,19.961,0.106,NaN,2019.903,NaN,0.012,7.717e5,4.638,4.22e-5,0.693,2.081e-4,0.358,0.215,0.12,NaN,NaN,NaN,NaN,NaN,NaN,NaN,NaN,1.293e-5,165,213.825,84,0,3.941,15,1013.25,340.389,0.01,0.02
0.55,-4.755e-4,-0.095,-9.51,0.096,9.562,-4.997e-5,0,4.997e-5,180,0.01,0.999,22.175,120.893,9.788,87.169,0,0,0,2.8e4,1.35e4,19.961,0.106,NaN,2019.901,NaN,0.011,7.613e5,4.82,4.036e-5,0.694,2.045e-4,0.359,0.215,0.12,NaN,NaN,NaN,NaN,NaN,NaN,NaN,NaN,1.293e-5,165,213.825,84,0,3.888,15,1013.25,340.389,0.01,0.02
0.56,-4.749e-4,-0.095,-9.498,0.096,9.55,-4.991e-5,0,4.991e-5,180,0.01,0.998,22.175,120.893,9.788,87.188,0,0,0,2.8e4,1.35e4,19.961,0.106,NaN,2019.899,NaN,0.011,7.503e5,5.14,3.849e-5,0.695,2.008e-4,0.36,0.215,0.12,NaN,NaN,NaN,NaN,NaN,NaN,NaN,NaN,1.291e-5,165,213.825,84,0,3.832,15,1013.25,340.389,0.01,0.02
0.57,-4.749e-4,-0.095,-9.497,0.095,9.55,-4.991e-5,0,4.991e-5,180,0.01,0.998,22.175,120.893,9.788,87.209,0,0,0,2.8e4,1.35e4,19.961,0.106,NaN,2019.897,NaN,0.011,7.393e5,5.164,3.66e-5,0.697,1.966e-4,0.361,0.215,0.12,NaN,NaN,NaN,NaN,NaN,NaN,NaN,NaN,1.291e-5,165,213.825,84,0,3.776,15,1013.25,340.389,0.01,0.02
0.58,-4.749e-4,-0.095,-9.499,0.096,9.551,-4.992e-5,0,4.992e-5,180,0.01,0.998,22.175,120.893,9.788,87.231,0,0,0,2.8e4,1.35e4,19.961,0.106,NaN,2019.895,NaN,0.011,7.283e5,5.125,3.474e-5,0.698,1.924e-4,0.363,0.215,0.12,NaN,NaN,NaN,NaN,NaN,NaN,NaN,NaN,1.291e-5,165,213.825,84,0,3.719,15,1013.25,340.389,0.01,0.021
0.59,-4.746e-4,-0.095,-9.493,0.095,9.545,-4.989e-5,0,4.989e-5,180,0.01,0.998,22.175,120.893,9.788,87.253,0,0,0,2.8e4,1.35e4,19.961,0.106,NaN,2019.893,NaN,0.011,7.173e5,5.296,3.298e-5,0.699,1.883e-4,0.364,0.215,0.12,NaN,NaN,NaN,NaN,NaN,NaN,NaN,NaN,1.29e-5,165,213.825,84,0,3.663,15,1013.25,340.389,0.01,0.021
0.6,-4.741e-4,-0.095,-9.483,0.095,9.535,-4.984e-5,0,4.984e-5,180,0.01,0.997,22.175,120.893,9.788,87.274,0,0,0,2.8e4,1.349e4,19.961,0.106,NaN,2019.891,NaN,0.011,7.063e5,5.567,3.129e-5,0.7,1.842e-4,0.365,0.215,0.12,NaN,NaN,NaN,NaN,NaN,NaN,NaN,NaN,1.289e-5,165,213.825,84,0,3.607,15,1013.25,340.389,0.01,0.021
0.61,-4.739e-4,-0.095,-9.478,0.095,9.53,-4.981e-5,0,4.981e-5,180,0.01,0.996,22.175,120.893,9.788,87.279,0,0,0,2.8e4,1.349e4,19.961,0.106,NaN,2019.889,NaN,0.011,7.039e5,5.717,3.094e-5,0.7,1.834e-4,0.365,0.215,0.12,NaN,NaN,NaN,NaN,NaN,NaN,NaN,NaN,1.288e-5,165,213.825,84,0,3.595,15,1013.25,340.389,0.01,0.021
0.62,-4.745e-4,-0.095,-9.49,0.095,9.542,-4.987e-5,0,4.987e-5,180,0.01,0.997,22.175,120.893,9.788,87.286,0,0,0,2.8e4,1.349e4,19.961,0.106,NaN,2019.887,NaN,0.011,7.015e5,5.366,3.05e-5,0.7,1.82e-4,0.365,0.215,0.12,NaN,NaN,NaN,NaN,NaN,NaN,NaN,NaN,1.29e-5,165,213.825,84,0,3.583,15,1013.25,340.389,0.01,0.021
0.63,-4.737e-4,-0.095,-9.473,0.095,9.525,-4.978e-5,0,4.978e-5,180,0.01,0.996,22.175,120.893,9.788,87.288,0,0,0,2.799e4,1.349e4,19.961,0.106,NaN,2019.884,NaN,0.01,6.991e5,5.844,3.023e-5,0.701,1.816e-4,0.366,0.215,0.12,NaN,NaN,NaN,NaN,NaN,NaN,NaN,NaN,1.288e-5,165,213.825,84,0,3.571,15,1013.25,340.389,0.01,0.022
0.64,-4.738e-4,-0.095,-9.475,0.095,9.527,-4.979e-5,0,4.979e-5,180,0.01,0.996,22.175,120.893,9.788,87.294,0,0,0,2.799e4,1.349e4,19.961,0.106,NaN,2019.882,NaN,0.01,6.968e5,5.786,2.985e-5,0.701,1.806e-4,0.366,0.215,0.12,NaN,NaN,NaN,NaN,NaN,NaN,NaN,NaN,1.288e-5,165,213.825,84,0,3.559,15,1013.25,340.389,0.01,0.022
0.65,-4.734e-4,-0.095,-9.469,0.095,9.521,-4.976e-5,0,4.976e-5,180,0.01,0.995,22.175,120.893,9.788,87.298,0,0,0,2.799e4,1.349e4,19.961,0.106,NaN,2019.88,NaN,0.01,6.944e5,5.968,2.952e-5,0.701,1.798e-4,0.366,0.215,0.12,NaN,NaN,NaN,NaN,NaN,NaN,NaN,NaN,1.287e-5,165,213.825,84,0,3.546,15,1013.25,340.389,0.01,0.022
0.66,-4.724e-4,-0.094,-9.448,0.095,9.5,-4.965e-5,0,4.965e-5,180,0.01,0.993,22.175,120.893,9.788,87.264,0,0,0,2.799e4,1.349e4,19.961,0.106,NaN,2019.877,NaN,0.011,7.084e5,6.551,3.181e-5,0.7,1.862e-4,0.365,0.215,0.12,NaN,NaN,NaN,NaN,NaN,NaN,NaN,NaN,1.284e-5,165,213.825,84,0,3.618,15,1013.25,340.389,0.01,0.022
0.67,-4.721e-4,-0.094,-9.442,0.095,9.494,-4.962e-5,0,4.962e-5,180,0.01,0.992,22.175,120.893,9.788,87.234,0,0,0,2.799e4,1.349e4,19.961,0.106,NaN,2019.875,NaN,0.011,7.225e5,6.72,3.412e-5,0.698,1.919e-4,0.363,0.215,0.12,NaN,NaN,NaN,NaN,NaN,NaN,NaN,NaN,1.283e-5,165,213.825,84,0,3.69,15,1013.25,340.389,0.01,0.023
0.68,-4.711e-4,-0.094,-9.421,0.095,9.473,-4.951e-5,0,4.951e-5,180,0.01,0.99,22.175,120.893,9.788,87.203,0,0,0,2.799e4,1.349e4,19.961,0.106,NaN,2019.872,NaN,0.011,7.366e5,7.299,3.659e-5,0.697,1.98e-4,0.362,0.215,0.12,NaN,NaN,NaN,NaN,NaN,NaN,NaN,NaN,1.281e-5,165,213.825,84,0,3.762,15,1013.25,340.389,0.01,0.023
0.69,-4.708e-4,-0.094,-9.415,0.095,9.467,-4.948e-5,0,4.948e-5,180,0.01,0.99,22.175,120.893,9.788,87.175,0,0,0,2.799e4,1.349e4,19.961,0.106,NaN,2019.869,NaN,0.011,7.506e5,7.467,3.906e-5,0.695,2.036e-4,0.36,0.215,0.12,NaN,NaN,NaN,NaN,NaN,NaN,NaN,NaN,1.28e-5,165,213.825,84,0,3.833,15,1013.25,340.389,0.01,0.023
0.7,-4.699e-4,-0.094,-9.398,0.095,9.45,-4.939e-5,0,4.939e-5,180,0.01,0.988,22.175,120.893,9.788,87.146,0,0,0,2.799e4,1.349e4,19.961,0.106,NaN,2019.866,NaN,0.011,7.647e5,7.951,4.168e-5,0.694,2.093e-4,0.359,0.215,0.12,NaN,NaN,NaN,NaN,NaN,NaN,NaN,NaN,1.277e-5,165,213.825,84,0,3.905,15,1013.25,340.389,0.01,0.023
0.71,-4.682e-4,-0.094,-9.363,0.094,9.415,-4.921e-5,0,4.921e-5,180,0.01,0.984,22.175,120.893,9.788,87.143,0,0,0,2.799e4,1.349e4,19.96,0.106,NaN,2019.863,NaN,0.011,7.637e5,8.938,4.172e-5,0.694,2.101e-4,0.359,0.215,0.12,NaN,NaN,NaN,NaN,NaN,NaN,NaN,NaN,1.273e-5,165,213.825,84,0,3.9,15,1013.25,340.389,0.01,0.023
0.72,-4.676e-4,-0.094,-9.352,0.094,9.403,-4.915e-5,0,4.915e-5,180,0.01,0.983,22.175,120.893,9.788,87.143,0,0,0,2.799e4,1.349e4,19.96,0.106,NaN,2019.859,NaN,0.011,7.627e5,9.255,4.161e-5,0.694,2.101e-4,0.359,0.215,0.12,NaN,NaN,NaN,NaN,NaN,NaN,NaN,NaN,1.271e-5,165,213.825,84,0,3.895,15,1013.25,340.389,0.01,0.024
0.73,-4.659e-4,-0.093,-9.319,0.094,9.37,-4.897e-5,0,4.897e-5,180,0.01,0.979,22.175,120.893,9.788,87.14,0,0,0,2.799e4,1.349e4,19.96,0.106,NaN,2019.855,NaN,0.011,7.617e5,10.185,4.164e-5,0.694,2.108e-4,0.359,0.215,0.12,NaN,NaN,NaN,NaN,NaN,NaN,NaN,NaN,1.267e-5,165,213.825,84,0,3.89,15,1013.25,340.389,0.01,0.024
0.74,-4.64e-4,-0.093,-9.28,0.093,9.331,-4.877e-5,0,4.877e-5,180,0.01,0.975,22.175,120.893,9.788,87.136,0,0,0,2.799e4,1.349e4,19.96,0.106,NaN,2019.851,NaN,0.011,7.607e5,11.275,4.17e-5,0.694,2.116e-4,0.359,0.215,0.12,NaN,NaN,NaN,NaN,NaN,NaN,NaN,NaN,1.261e-5,165,213.825,84,0,3.884,15,1013.25,340.389,0.01,0.024
0.75,-4.621e-4,-0.092,-9.243,0.093,9.294,-4.857e-5,0,4.857e-5,180,0.01,0.971,22.175,120.893,9.788,87.132,0,0,0,2.799e4,1.349e4,19.96,0.106,NaN,2019.846,NaN,0.011,7.597e5,12.322,4.175e-5,0.695,2.125e-4,0.359,0.215,0.12,NaN,NaN,NaN,NaN,NaN,NaN,NaN,NaN,1.256e-5,165,213.825,84,0,3.879,15,1013.25,340.389,0.01,0.024
0.76,-4.598e-4,-0.092,-9.195,0.092,9.246,-4.832e-5,0,4.832e-5,180,0.01,0.966,22.175,120.893,9.788,87.156,0,0,0,2.799e4,1.349e4,19.96,0.106,NaN,2019.841,NaN,0.011,7.43e5,13.663,3.907e-5,0.696,2.078e-4,0.361,0.215,0.12,NaN,NaN,NaN,NaN,NaN,NaN,NaN,NaN,1.25e-5,165,213.825,84,0,3.794,15,1013.25,340.389,0.01,0.024
0.77,-4.586e-4,-0.092,-9.173,0.092,9.223,-4.82e-5,0,4.82e-5,180,0.01,0.964,22.175,120.893,9.788,87.184,0,0,0,2.799e4,1.349e4,19.96,0.106,NaN,2019.836,NaN,0.011,7.263e5,14.302,3.632e-5,0.698,2.022e-4,0.363,0.215,0.12,NaN,NaN,NaN,NaN,NaN,NaN,NaN,NaN,1.247e-5,165,213.825,84,0,3.709,15,1013.25,340.389,0.01,0.025
0.78,-4.56e-4,-0.091,-9.12,0.092,9.171,-4.793e-5,0,4.793e-5,180,0.01,0.959,22.175,120.893,9.788,87.21,0,0,0,2.799e4,1.349e4,19.96,0.106,NaN,2019.83,NaN,0.011,7.097e5,15.77,3.385e-5,0.7,1.974e-4,0.364,0.215,0.12,NaN,NaN,NaN,NaN,NaN,NaN,NaN,NaN,1.24e-5,165,213.825,84,0,3.624,15,1013.25,340.389,0.01,0.025
0.79,-4.54e-4,-0.091,-9.079,0.091,9.129,-4.771e-5,0,4.771e-5,180,0.01,0.954,22.175,120.893,9.788,87.238,0,0,0,2.799e4,1.349e4,19.96,0.106,NaN,2019.823,NaN,0.01,6.93e5,16.927,3.14e-5,0.701,1.92e-4,0.366,0.215,0.12,NaN,NaN,NaN,NaN,NaN,NaN,NaN,NaN,1.234e-5,165,213.825,84,0,3.539,15,1013.25,340.389,0.01,0.025
0.8,-4.518e-4,-0.09,-9.037,0.091,9.087,-4.749e-5,0,4.749e-5,180,0.009,0.95,22.175,120.893,9.788,87.267,0,0,0,2.799e4,1.349e4,19.96,0.106,NaN,2019.816,NaN,0.01,6.763e5,18.121,2.905e-5,0.703,1.865e-4,0.368,0.215,0.12,NaN,NaN,NaN,NaN,NaN,NaN,NaN,NaN,1.228e-5,165,213.825,84,0,3.454,15,1013.25,340.389,0.01,0.025
0.81,-4.495e-4,-0.09,-8.99,0.09,9.04,-4.725e-5,0,4.725e-5,180,0.009,0.945,22.175,120.893,9.788,87.24,0,0,0,2.799e4,1.349e4,19.96,0.106,NaN,2019.809,NaN,0.01,6.849e5,19.438,3.062e-5,0.702,1.917e-4,0.367,0.215,0.12,NaN,NaN,NaN,NaN,NaN,NaN,NaN,NaN,1.222e-5,165,213.825,84,0,3.498,15,1013.25,340.389,0.01,0.025
0.82,-4.482e-4,-0.09,-8.965,0.09,9.014,-4.711e-5,0,4.711e-5,180,0.009,0.942,22.175,120.893,9.788,87.218,0,0,0,2.799e4,1.349e4,19.959,0.106,NaN,2019.801,NaN,0.01,6.935e5,20.155,3.211e-5,0.701,1.961e-4,0.366,0.215,0.12,NaN,NaN,NaN,NaN,NaN,NaN,NaN,NaN,1.218e-5,165,213.825,84,0,3.541,15,1013.25,340.389,0.01,0.026
0.83,-4.434e-4,-0.089,-8.867,0.089,8.916,-4.66e-5,0,4.66e-5,180,0.009,0.932,22.175,120.893,9.788,87.185,0,0,0,2.799e4,1.349e4,19.959,0.106,NaN,2019.793,NaN,0.011,7.02e5,22.899,3.405e-5,0.7,2.029e-4,0.365,0.215,0.12,NaN,NaN,NaN,NaN,NaN,NaN,NaN,NaN,1.205e-5,165,213.825,84,0,3.585,15,1013.25,340.389,0.01,0.026
0.84,-4.345e-4,-0.087,-8.69,0.087,8.738,-4.567e-5,0,4.567e-5,180,0.009,0.913,22.175,120.893,9.788,87.139,0,0,0,2.799e4,1.349e4,19.959,0.106,NaN,2019.782,NaN,0.011,7.106e5,27.886,3.653e-5,0.7,2.125e-4,0.364,0.215,0.12,NaN,NaN,NaN,NaN,NaN,NaN,NaN,NaN,1.181e-5,165,213.825,84,0,3.629,15,1013.25,340.389,0.01,0.026
0.85,-4.271e-4,-0.085,-8.542,0.086,8.589,-4.489e-5,0,4.489e-5,180,0.009,0.898,22.175,120.893,9.788,87.1,0,0,0,2.799e4,1.349e4,19.959,0.106,NaN,2019.77,NaN,0.011,7.192e5,32.036,3.893e-5,0.699,2.21e-4,0.363,0.215,0.12,NaN,NaN,NaN,NaN,NaN,NaN,NaN,NaN,1.161e-5,165,213.825,84,0,3.673,15,1013.25,340.389,0.01,0.026
0.86,-4.194e-4,-0.084,-8.388,0.084,8.434,-4.408e-5,0,4.408e-5,180,0.009,0.882,22.175,120.893,9.788,87.07,0,0,0,2.799e4,1.349e4,19.959,0.106,NaN,2019.756,NaN,0.011,7.222e5,36.392,4.044e-5,0.698,2.277e-4,0.363,0.215,0.12,NaN,NaN,NaN,NaN,NaN,NaN,NaN,NaN,1.14e-5,165,213.825,84,0,3.688,15,1013.25,340.389,0.01,0.026
0.87,-4.119e-4,-0.082,-8.239,0.083,8.284,-4.33e-5,0,4.33e-5,180,0.009,0.866,22.175,120.893,9.788,87.041,0,0,0,2.799e4,1.349e4,19.958,0.106,NaN,2019.74,NaN,0.011,7.252e5,40.581,4.195e-5,0.698,2.343e-4,0.363,0.215,0.12,NaN,NaN,NaN,NaN,NaN,NaN,NaN,NaN,1.12e-5,165,213.825,84,0,3.703,15,1013.25,340.389,0.01,0.027
0.88,-4.047e-4,-0.081,-8.093,0.081,8.138,-4.253e-5,0,4.253e-5,180,0.009,0.851,22.175,120.893,9.788,87.014,0,0,0,2.799e4,1.349e4,19.958,0.106,NaN,2019.723,NaN,0.011,7.282e5,44.682,4.347e-5,0.698,2.408e-4,0.363,0.215,0.12,NaN,NaN,NaN,NaN,NaN,NaN,NaN,NaN,1.1e-5,165,213.825,84,0,3.718,15,1013.25,340.389,0.01,0.027
0.89,-3.982e-4,-0.08,-7.965,0.08,8.008,-4.186e-5,0,4.186e-5,180,0.008,0.837,22.175,120.893,9.788,86.989,0,0,0,2.799e4,1.349e4,19.958,0.106,NaN,2019.705,NaN,0.011,7.312e5,48.294,4.49e-5,0.697,2.467e-4,0.362,0.215,0.12,NaN,NaN,NaN,NaN,NaN,NaN,NaN,NaN,1.083e-5,165,213.825,84,0,3.733,15,1013.25,340.389,0.01,0.027
0.9,-3.921e-4,-0.078,-7.842,0.079,7.885,-4.121e-5,0,4.121e-5,180,0.008,0.824,22.175,120.893,9.788,86.965,0,0,0,2.799e4,1.349e4,19.957,0.106,NaN,2019.685,NaN,0.011,7.341e5,51.752,4.632e-5,0.697,2.524e-4,0.362,0.215,0.12,NaN,NaN,NaN,NaN,NaN,NaN,NaN,NaN,1.066e-5,165,213.825,84,0,3.748,15,1013.25,340.389,0.01,0.027
0.91,-3.84e-4,-0.077,-7.679,0.077,7.722,-4.036e-5,0,4.036e-5,180,0.008,0.807,22.175,120.893,9.788,86.941,0,0,0,2.798e4,1.348e4,19.957,0.106,NaN,2019.664,NaN,0.011,7.337e5,56.319,4.738e-5,0.697,2.585e-4,0.362,0.215,0.12,NaN,NaN,NaN,NaN,NaN,NaN,NaN,NaN,1.044e-5,165,213.825,84,0,3.746,15,1013.25,340.389,0.01,0.027
0.92,-3.761e-4,-0.075,-7.522,0.076,7.563,-3.953e-5,0,3.953e-5,180,0.008,0.791,22.175,120.893,9.788,86.917,0,0,0,2.798e4,1.348e4,19.957,0.106,NaN,2019.641,NaN,0.011,7.333e5,60.748,4.842e-5,0.697,2.644e-4,0.362,0.215,0.12,NaN,NaN,NaN,NaN,NaN,NaN,NaN,NaN,1.022e-5,165,213.825,84,0,3.744,15,1013.25,340.389,0.01,0.028
0.93,-3.643e-4,-0.073,-7.286,0.073,7.326,-3.829e-5,0,3.829e-5,180,0.008,0.766,22.175,120.893,9.788,86.881,0,0,0,2.798e4,1.348e4,19.956,0.106,NaN,2019.615,NaN,0.011,7.329e5,67.387,5.005e-5,0.697,2.736e-4,0.362,0.215,0.12,NaN,NaN,NaN,NaN,NaN,NaN,NaN,NaN,9.903e-6,165,213.825,84,0,3.742,15,1013.25,340.389,0.01,0.028
0.94,-3.499e-4,-0.07,-6.999,0.07,7.037,-3.678e-5,0,3.678e-5,180,0.007,0.736,22.175,120.893,9.788,86.838,0,0,0,2.798e4,1.348e4,19.956,0.106,NaN,2019.586,NaN,0.011,7.325e5,75.455,5.209e-5,0.697,2.851e-4,0.362,0.215,0.12,NaN,NaN,NaN,NaN,NaN,NaN,NaN,NaN,9.513e-6,165,213.825,84,0,3.74,15,1013.25,340.389,0.01,0.028
0.95,-3.337e-4,-0.067,-6.674,0.067,6.71,-3.507e-5,0,3.507e-5,180,0.007,0.701,22.175,120.893,9.788,86.788,0,0,0,2.798e4,1.348e4,19.955,0.106,NaN,2019.554,NaN,0.011,7.321e5,84.603,5.449e-5,0.697,2.986e-4,0.362,0.215,0.12,NaN,NaN,NaN,NaN,NaN,NaN,NaN,NaN,9.071e-6,165,213.825,84,0,3.737,15,1013.25,340.389,0.01,0.028
0.96,-3.135e-4,-0.063,-6.271,0.063,6.305,-3.295e-5,0,3.295e-5,180,0.007,0.659,22.175,120.893,9.788,86.719,0,0,0,2.798e4,1.348e4,19.954,0.106,NaN,2019.517,NaN,0.011,7.379e5,95.934,5.893e-5,0.697,3.179e-4,0.362,0.215,0.12,NaN,NaN,NaN,NaN,NaN,NaN,NaN,NaN,8.523e-6,165,213.825,84,0,3.766,15,1013.25,340.389,0.01,0.029
0.97,-2.933e-4,-0.059,-5.865,0.059,5.898,-3.082e-5,0,3.082e-5,180,0.006,0.616,22.175,120.893,9.788,86.65,0,0,0,2.798e4,1.348e4,19.954,0.106,NaN,2019.476,NaN,0.011,7.436e5,107.326,6.36e-5,0.696,3.378e-4,0.361,0.215,0.12,NaN,NaN,NaN,NaN,NaN,NaN,NaN,NaN,7.972e-6,165,213.825,84,0,3.795,15,1013.25,340.389,0.01,0.029
0.98,-2.671e-4,-0.053,-5.342,0.054,5.372,-2.808e-5,0,2.808e-5,180,0.006,0.561,22.175,120.893,9.788,86.565,0,0,0,2.797e4,1.347e4,19.953,0.106,NaN,2019.43,NaN,0.011,7.493e5,122.033,6.953e-5,0.696,3.637e-4,0.36,0.215,0.12,NaN,NaN,NaN,NaN,NaN,NaN,NaN,NaN,7.261e-6,165,213.825,84,0,3.824,15,1013.25,340.389,0.01,0.029
0.99,-2.333e-4,-0.047,-4.667,0.047,4.692,-2.453e-5,0,2.453e-5,180,0.005,0.49,22.175,120.893,9.788,86.458,0,0,0,2.797e4,1.347e4,19.952,0.106,NaN,2019.376,NaN,0.011,7.551e5,141.022,7.726e-5,0.695,3.979e-4,0.36,0.215,0.12,NaN,NaN,NaN,NaN,NaN,NaN,NaN,NaN,6.343e-6,165,213.825,84,0,3.853,15,1013.25,340.389,0.01,0.029
1,-1.839e-4,-0.037,-3.678,0.037,3.699,-1.933e-5,0,1.933e-5,180,0.004,0.387,22.175,120.893,9.788,86.306,0,0,0,2.797e4,1.347e4,19.951,0.106,NaN,2019.312,NaN,0.011,7.609e5,168.795,8.875e-5,0.694,4.502e-4,0.359,0.215,0.12,NaN,NaN,NaN,NaN,NaN,NaN,NaN,NaN,5e-6,165,213.825,84,0,3.883,15,1013.25,340.389,0.01,0.029
1.01,-1.138e-4,-0.023,-2.275,0.023,2.288,-1.196e-5,0,1.196e-5,180,0.002,0.239,22.175,120.893,9.788,86.096,0,0,0,2.796e4,1.346e4,19.949,0.106,NaN,2019.232,NaN,0.011,7.662e5,208.221,1.059e-4,0.694,5.298e-4,0.359,0.215,0.12,NaN,NaN,NaN,NaN,NaN,NaN,NaN,NaN,3.094e-6,165,213.825,84,0,3.909,15,1013.25,340.389,0.01,0.029
1.02,-4.855e-5,-0.01,-0.97,0.01,0.975,-5.103e-6,0,5.103e-6,180,0.001,0.102,22.175,120.893,9.788,85.903,0,0,0,2.796e4,1.346e4,19.948,0.106,NaN,2019.139,NaN,0.012,7.716e5,244.886,1.238e-4,0.693,6.106e-4,0.358,0.215,0.12,NaN,NaN,NaN,NaN,NaN,NaN,NaN,NaN,1.32e-6,165,213.825,84,0,3.935,15,1013.25,340.389,0.01,0.03
1.03,2.205e-5,0.004,0.442,0.004,0.445,2.317e-6,0,2.317e-6,0,4.638e-4,0.046,22.175,120.893,9.788,85.697,0,0,0,2.795e4,1.345e4,19.946,0.106,NaN,2019.03,NaN,0.012,7.769e5,284.538,1.449e-4,0.693,7.052e-4,0.358,0.215,0.12,NaN,NaN,NaN,NaN,NaN,NaN,NaN,NaN,5.997e-7,165,213.825,84,0,3.961,15,1013.25,340.389,0.01,0.03
1.04,1.641e-4,0.024,1.96,0.024,1.971,1.725e-5,0,1.725e-5,0,0.003,0.206,22.175,120.893,9.788,85.416,0,0,0,2.795e4,1.345e4,19.943,0.106,NaN,2018.905,NaN,0.012,7.824e5,327.142,1.771e-4,0.692,8.498e-4,0.357,0.215,0.12,NaN,NaN,NaN,NaN,NaN,NaN,NaN,NaN,3.263e-6,165,213.825,84,0,3.987,15,1013.25,340.389,0.01,0.03
1.05,5.833e-4,0.06,3.585,0.06,3.604,6.13e-5,0,6.13e-5,0,0.006,0.377,22.175,120.893,9.788,84.906,0,0,0,2.794e4,1.344e4,19.941,0.106,NaN,2018.763,NaN,0.012,7.881e5,372.693,2.451e-4,0.692,0.001,0.357,0.215,0.12,NaN,NaN,NaN,NaN,NaN,NaN,NaN,NaN,8.133e-6,165,213.825,84,0,4.014,15,1013.25,340.389,0.01,0.03
1.06,0.001,0.115,5.563,0.116,5.594,1.534e-4,0,1.534e-4,0,0.012,0.585,22.175,120.893,9.788,84.098,0,0,0,2.793e4,1.343e4,19.938,0.106,NaN,2018.599,NaN,0.012,7.823e5,428.171,3.724e-4,0.692,0.002,0.357,0.215,0.12,NaN,NaN,NaN,NaN,NaN,NaN,NaN,NaN,1.569e-5,165,213.825,84,0,3.978,15,1013.25,340.389,0.01,0.03
1.07,0.003,0.191,7.517,0.192,7.558,3.142e-4,0,3.142e-4,0,0.02,0.79,22.175,120.893,9.788,82.996,0,0,0,2.792e4,1.342e4,19.935,0.106,NaN,2018.415,NaN,0.012,7.77e5,482.882,6.071e-4,0.693,0.003,0.358,0.215,0.12,NaN,NaN,NaN,NaN,NaN,NaN,NaN,NaN,2.59e-5,165,213.825,84,0,3.943,15,1013.25,340.389,0.01,0.031
1.08,0.005,0.288,9.758,0.29,9.812,5.658e-4,0,5.658e-4,0,0.03,1.026,22.175,120.893,9.788,81.556,0,0,0,2.791e4,1.341e4,19.931,0.106,NaN,2018.206,NaN,0.012,7.727e5,545.617,0.001,0.693,0.005,0.358,0.215,0.12,NaN,NaN,NaN,NaN,NaN,NaN,NaN,NaN,3.916e-5,165,213.825,84,0,3.908,15,1013.249,340.389,0.01,0.031
1.09,0.009,0.411,12.305,0.413,12.373,9.333e-4,0,9.333e-4,0,0.043,1.293,22.175,120.893,9.788,79.732,0,0,0,2.79e4,1.34e4,19.927,0.106,NaN,2017.969,NaN,0.012,7.698e5,616.859,0.002,0.694,0.009,0.358,0.215,0.12,NaN,NaN,NaN,NaN,NaN,NaN,NaN,NaN,5.588e-5,165,213.825,84,0,3.873,15,1013.249,340.389,0.01,0.031
1.1,0.014,0.563,15.219,0.566,15.303,0.001,0,0.001,0,0.059,1.6,22.175,120.893,9.788,77.478,0,0,0,2.789e4,1.339e4,19.922,0.106,NaN,2017.702,NaN,0.012,7.688e5,698.307,0.003,0.694,0.016,0.359,0.215,0.12,NaN,NaN,NaN,NaN,NaN,NaN,NaN,NaN,7.656e-5,165,213.825,84,0,3.838,15,1013.248,340.389,0.01,0.031
1.11,0.02,0.746,18.289,0.75,18.39,0.002,0,0.002,0,0.078,1.922,22.175,120.893,9.788,74.898,0,0,0,2.788e4,1.338e4,19.917,0.106,NaN,2017.401,NaN,0.012,7.785e5,784.022,0.006,0.693,0.027,0.358,0.215,0.12,NaN,NaN,NaN,NaN,NaN,NaN,NaN,NaN,1.014e-4,165,213.825,84,0,3.843,15,1013.248,340.389,0.01,0.031
1.12,0.029,0.96,21.44,0.966,21.558,0.003,0,0.003,0,0.101,2.253,22.175,120.893,9.788,71.958,0,0,0,2.786e4,1.336e4,19.911,0.106,NaN,2017.066,NaN,0.012,7.916e5,871.849,0.009,0.692,0.044,0.356,0.215,0.12,NaN,NaN,NaN,NaN,NaN,NaN,NaN,NaN,1.305e-4,165,213.825,84,0,3.849,15,1013.247,340.389,0.01,0.032
1.13,0.04,1.207,24.646,1.213,24.781,0.004,0,0.004,0,0.127,2.59,22.175,120.893,9.788,68.703,0,0,0,2.784e4,1.334e4,19.904,0.106,NaN,2016.696,NaN,0.012,8.09e5,961.049,0.016,0.69,0.07,0.355,0.215,0.12,NaN,NaN,NaN,NaN,NaN,NaN,NaN,NaN,1.64e-4,165,213.825,84,0,3.854,15,1013.245,340.389,0.01,0.032
1.14,0.053,1.482,27.565,1.49,27.717,0.006,0,0.006,0,0.156,2.897,22.175,120.893,9.788,65.234,0,0,0,2.782e4,1.332e4,19.897,0.106,NaN,2016.295,NaN,0.012,8.313e5,1042.073,0.025,0.688,0.104,0.353,0.215,0.12,NaN,NaN,NaN,NaN,NaN,NaN,NaN,NaN,2.015e-4,165,213.825,84,0,3.86,15,1013.244,340.389,0.01,0.032
1.15,0.069,1.783,30.094,1.793,30.259,0.007,0,0.007,0,0.187,3.163,22.175,120.893,9.788,61.664,0,0,0,2.78e4,1.33e4,19.889,0.106,NaN,2015.866,NaN,0.013,8.588e5,1112.029,0.037,0.686,0.148,0.351,0.215,0.12,NaN,NaN,NaN,NaN,NaN,NaN,NaN,NaN,2.424e-4,165,213.825,84,0,3.865,15,1013.242,340.389,0.01,0.032
1.16,0.089,2.106,32.29,2.117,32.468,0.009,0,0.009,0,0.221,3.394,22.175,120.893,9.788,58.041,0,0,0,2.778e4,1.328e4,19.881,0.106,NaN,2015.413,NaN,0.013,8.903e5,1172.553,0.054,0.683,0.2,0.348,0.215,0.12,NaN,NaN,NaN,NaN,NaN,NaN,NaN,NaN,2.862e-4,165,213.825,84,0,3.862,14.999,1013.24,340.389,0.01,0.032
1.17,0.112,2.446,34.029,2.459,34.217,0.012,0,0.012,0,0.257,3.577,22.175,120.893,9.788,54.505,0,0,0,2.776e4,1.326e4,19.873,0.105,NaN,2014.941,NaN,0.014,9.27e5,1220.187,0.076,0.68,0.258,0.345,0.215,0.12,NaN,NaN,NaN,NaN,NaN,NaN,NaN,NaN,3.325e-4,165,213.825,84,0,3.859,14.999,1013.237,340.388,0.01,0.032
1.18,0.138,2.799,35.306,2.814,35.5,0.014,0,0.014,0,0.294,3.711,22.175,120.893,9.788,51.134,0,0,0,2.774e4,1.324e4,19.864,0.105,NaN,2014.455,NaN,0.015,9.686e5,1254.818,0.102,0.677,0.319,0.342,0.215,0.12,NaN,NaN,NaN,NaN,NaN,NaN,NaN,NaN,3.804e-4,165,213.825,84,0,3.856,14.999,1013.234,340.388,0.01,0.033
1.19,0.168,3.16,36.107,3.177,36.306,0.018,0,0.018,0,0.332,3.795,22.175,120.893,9.788,47.984,0,0,0,2.771e4,1.321e4,19.855,0.105,NaN,2013.959,NaN,0.015,1.014e6,1276.135,0.133,0.674,0.38,0.339,0.215,0.12,NaN,NaN,NaN,NaN,NaN,NaN,NaN,NaN,4.295e-4,165,213.825,84,0,3.853,14.999,1013.23,340.388,0.01,0.033
1.2,0.201,3.526,36.66,3.546,36.862,0.021,0,0.021,0,0.371,3.853,22.175,120.893,9.788,45.072,0,0,0,2.769e4,1.319e4,19.846,0.105,NaN,2013.458,NaN,0.016,1.064e6,1290.479,0.169,0.671,0.438,0.336,0.215,0.12,NaN,NaN,NaN,NaN,NaN,NaN,NaN,NaN,4.793e-4,165,213.825,84,0,3.85,14.999,1013.226,340.388,0.01,0.033
1.21,0.238,3.896,36.966,3.917,37.17,0.025,0,0.025,0,0.409,3.885,22.175,120.893,9.788,42.512,0,0,0,2.767e4,1.317e4,19.837,0.105,NaN,2012.952,NaN,0.017,1.118e6,1297.933,0.208,0.668,0.49,0.333,0.215,0.12,NaN,NaN,NaN,NaN,NaN,NaN,NaN,NaN,5.295e-4,165,213.825,84,0,3.863,14.998,1013.222,340.388,0.01,0.033
1.22,0.279,4.266,37.025,4.289,37.229,0.029,0,0.029,0,0.448,3.892,22.175,120.893,9.788,40.19,0,0,0,2.764e4,1.314e4,19.828,0.105,NaN,2012.446,NaN,0.018,1.175e6,1298.512,0.252,0.665,0.536,0.329,0.215,0.12,NaN,NaN,NaN,NaN,NaN,NaN,NaN,NaN,5.798e-4,165,213.825,84,0,3.876,14.998,1013.217,340.388,0.01,0.033
1.23,0.324,4.636,37.068,4.662,37.272,0.034,0,0.034,0,0.487,3.896,22.175,120.893,9.788,38.083,0,0,0,2.762e4,1.312e4,19.819,0.105,NaN,2011.938,NaN,0.018,1.233e6,1298.633,0.299,0.662,0.577,0.326,0.215,0.12,NaN,NaN,NaN,NaN,NaN,NaN,NaN,NaN,6.302e-4,165,213.825,84,0,3.889,14.998,1013.212,340.388,0.01,0.034
1.24,0.372,5.006,36.974,5.033,37.177,0.039,0,0.039,0,0.526,3.886,22.175,120.893,9.788,36.173,0,0,0,2.76e4,1.31e4,19.81,0.105,NaN,2011.431,NaN,0.019,1.293e6,1294.965,0.349,0.659,0.614,0.323,0.215,0.12,NaN,NaN,NaN,NaN,NaN,NaN,NaN,NaN,6.804e-4,165,213.825,84,0,3.902,14.998,1013.206,340.387,0.01,0.034
1.25,0.424,5.374,36.888,5.404,37.091,0.045,0,0.045,0,0.565,3.877,22.175,120.893,9.788,34.438,0,0,0,2.757e4,1.307e4,19.801,0.105,NaN,2010.925,NaN,0.02,1.354e6,1291.53,0.403,0.656,0.645,0.321,0.215,0.12,NaN,NaN,NaN,NaN,NaN,NaN,NaN,NaN,7.305e-4,165,213.825,84,0,3.915,14.997,1013.2,340.387,0.01,0.034
1.26,0.479,5.742,36.8,5.774,37.002,0.05,0,0.05,0,0.604,3.868,22.175,120.893,9.788,32.852,0,0,0,2.755e4,1.305e4,19.792,0.105,NaN,2010.419,NaN,0.021,1.416e6,1288.052,0.459,0.653,0.673,0.318,0.215,0.12,NaN,NaN,NaN,NaN,NaN,NaN,NaN,NaN,7.805e-4,165,213.825,84,0,3.927,14.997,1013.194,340.387,0.01,0.034
1.27,0.538,6.109,36.687,6.143,36.889,0.057,0,0.057,0,0.642,3.856,22.175,120.893,9.788,31.405,0,0,0,2.753e4,1.303e4,19.783,0.105,NaN,2009.914,NaN,0.022,1.478e6,1283.912,0.518,0.65,0.696,0.315,0.215,0.12,NaN,NaN,NaN,NaN,NaN,NaN,NaN,NaN,8.303e-4,165,213.825,84,0,3.939,14.997,1013.187,340.387,0.01,0.034
1.28,0.601,6.475,36.654,6.511,36.856,0.063,0,0.063,0,0.681,3.852,22.175,120.893,9.788,30.077,0,0,0,2.75e4,1.3e4,19.774,0.105,NaN,2009.409,NaN,0.023,1.542e6,1281.967,0.58,0.648,0.716,0.313,0.215,0.12,NaN,NaN,NaN,NaN,NaN,NaN,NaN,NaN,8.801e-4,165,213.825,84,0,3.951,14.996,1013.179,340.387,0.01,0.034
1.29,0.668,6.841,36.571,6.878,36.772,0.07,0,0.07,0,0.719,3.844,22.175,120.893,9.788,28.858,0,0,0,2.748e4,1.298e4,19.765,0.105,NaN,2008.904,NaN,0.024,1.606e6,1278.651,0.644,0.645,0.733,0.31,0.215,0.12,NaN,NaN,NaN,NaN,NaN,NaN,NaN,NaN,9.298e-4,165,213.825,84,0,3.963,14.996,1013.172,340.386,0.01,0.035
1.3,0.738,7.206,36.529,7.246,36.73,0.078,0,0.078,0,0.757,3.839,22.175,120.893,9.788,27.734,0,0,0,2.746e4,1.296e4,19.756,0.105,NaN,2008.399,NaN,0.025,1.67e6,1276.485,0.711,0.643,0.748,0.308,0.215,0.12,NaN,NaN,NaN,NaN,NaN,NaN,NaN,NaN,9.794e-4,165,213.825,84,0,3.975,14.995,1013.163,340.386,0.01,0.035
1.31,0.812,7.571,36.523,7.613,36.725,0.085,0,0.085,0,0.796,3.839,22.175,120.893,9.788,26.386,0,0,0,2.743e4,1.293e4,19.747,0.105,NaN,2007.894,NaN,0.026,1.73e6,1275.318,0.779,0.641,0.764,0.306,0.215,0.12,NaN,NaN,NaN,NaN,NaN,NaN,NaN,NaN,0.001,165,213.825,84,0,3.931,14.995,1013.155,340.386,0.01,0.035
1.32,0.89,7.936,36.495,7.979,36.696,0.094,0,0.094,0,0.834,3.836,22.175,120.893,9.788,25.129,0,0,0,2.741e4,1.291e4,19.738,0.105,NaN,2007.388,NaN,0.027,1.791e6,1273.528,0.849,0.639,0.778,0.304,0.215,0.12,NaN,NaN,NaN,NaN,NaN,NaN,NaN,NaN,0.001,165,213.825,84,0,3.888,14.994,1013.146,340.385,0.01,0.035
1.33,0.971,8.301,36.545,8.347,36.746,0.102,0,0.102,0,0.872,3.841,22.175,120.893,9.788,23.954,0,0,0,2.739e4,1.289e4,19.729,0.105,NaN,2006.882,NaN,0.028,1.852e6,1273.891,0.921,0.637,0.789,0.302,0.215,0.12,NaN,NaN,NaN,NaN,NaN,NaN,NaN,NaN,0.001,165,213.825,84,0,3.845,14.994,1013.136,340.385,0.01,0.035
1.34,1.056,8.666,36.521,8.714,36.722,0.111,0,0.111,0,0.911,3.839,22.175,120.893,9.788,22.855,0,0,0,2.736e4,1.286e4,19.72,0.105,NaN,2006.376,NaN,0.029,1.914e6,1272.247,0.995,0.635,0.798,0.3,0.215,0.12,NaN,NaN,NaN,NaN,NaN,NaN,NaN,NaN,0.001,165,213.825,84,0,3.802,14.993,1013.126,340.385,0.01,0.036
1.35,1.144,9.031,36.531,9.081,36.732,0.12,0,0.12,0,0.949,3.84,22.175,120.893,9.788,21.825,0,0,0,2.734e4,1.284e4,19.711,0.105,NaN,2005.868,NaN,0.03,1.977e6,1271.517,1.07,0.634,0.804,0.298,0.215,0.12,NaN,NaN,NaN,NaN,NaN,NaN,NaN,NaN,0.001,165,213.825,84,0,3.758,14.993,1013.116,340.384,0.01,0.036
1.36,1.236,9.397,36.568,9.448,36.769,0.13,0,0.13,0,0.988,3.843,22.175,120.893,9.788,21.369,0,0,0,2.732e4,1.282e4,19.702,0.105,NaN,2005.361,NaN,0.031,2.049e6,1271.539,1.151,0.632,0.805,0.296,0.215,0.12,NaN,NaN,NaN,NaN,NaN,NaN,NaN,NaN,0.001,165,213.825,84,0,3.818,14.992,1013.105,340.384,0.01,0.036
1.37,1.332,9.762,36.584,9.816,36.785,0.14,0,0.14,0,1.026,3.845,22.175,120.893,9.788,20.943,0,0,0,2.729e4,1.279e4,19.693,0.105,NaN,2004.852,NaN,0.032,2.121e6,1270.983,1.234,0.63,0.805,0.295,0.215,0.12,NaN,NaN,NaN,NaN,NaN,NaN,NaN,NaN,0.001,165,213.825,84,0,3.877,14.991,1013.094,340.384,0.01,0.036
1.38,1.431,10.129,36.7,10.185,36.902,0.15,0,0.15,0,1.065,3.857,22.175,120.893,9.788,20.543,0,0,0,2.727e4,1.277e4,19.684,0.105,NaN,2004.342,NaN,0.033,2.194e6,1273.167,1.32,0.628,0.806,0.293,0.215,0.12,NaN,NaN,NaN,NaN,NaN,NaN,NaN,NaN,0.001,165,213.825,84,0,3.937,14.991,1013.082,340.383,0.01,0.036
1.39,1.535,10.496,36.74,10.554,36.942,0.161,0,0.161,0,1.103,3.862,22.175,120.893,9.788,20.168,0,0,0,2.725e4,1.275e4,19.675,0.105,NaN,2003.83,NaN,0.034,2.266e6,1273.278,1.409,0.626,0.806,0.291,0.215,0.12,NaN,NaN,NaN,NaN,NaN,NaN,NaN,NaN,0.001,165,213.825,84,0,3.996,14.99,1013.07,340.383,0.01,0.036
1.4,1.641,10.864,36.827,10.924,37.029,0.173,0,0.173,0,1.142,3.871,22.175,120.893,9.788,19.815,0,0,0,2.723e4,1.273e4,19.666,0.105,NaN,2003.318,NaN,0.035,2.339e6,1274.663,1.501,0.625,0.805,0.289,0.215,0.12,NaN,NaN,NaN,NaN,NaN,NaN,NaN,NaN,0.001,165,213.825,84,0,4.055,14.989,1013.057,340.382,0.01,0.037
1.41,1.752,11.234,36.933,11.295,37.137,0.184,0,0.184,0,1.181,3.882,22.175,120.893,9.788,19.127,0,0,0,2.72e4,1.27e4,19.657,0.105,NaN,2002.803,NaN,0.036,2.406e6,1276.588,1.59,0.623,0.806,0.288,0.215,0.12,NaN,NaN,NaN,NaN,NaN,NaN,NaN,NaN,0.002,165,213.825,84,0,4.032,14.989,1013.045,340.382,0.01,0.037
1.42,1.866,11.603,37.001,11.667,37.205,0.196,0,0.196,0,1.22,3.889,22.175,120.893,9.788,18.474,0,0,0,2.718e4,1.268e4,19.648,0.105,NaN,2002.288,NaN,0.037,2.473e6,1277.444,1.684,0.623,0.808,0.288,0.215,0.12,NaN,NaN,NaN,NaN,NaN,NaN,NaN,NaN,0.002,165,213.825,84,0,4.008,14.988,1013.031,340.382,0.01,0.037
1.43,1.984,11.975,37.136,12.04,37.341,0.209,0,0.209,0,1.259,3.903,22.175,120.893,9.788,17.855,0,0,0,2.716e4,1.266e4,19.639,0.105,NaN,2001.77,NaN,0.038,2.541e6,1280.14,1.78,0.623,0.81,0.288,0.215,0.12,NaN,NaN,NaN,NaN,NaN,NaN,NaN,NaN,0.002,165,213.825,84,0,3.984,14.987,1013.017,340.381,0.01,0.037
1.44,2.106,12.346,37.193,12.414,37.398,0.221,0,0.221,0,1.298,3.909,22.175,120.893,9.788,17.267,0,0,0,2.713e4,1.263e4,19.629,0.105,NaN,2001.252,NaN,0.039,2.609e6,1280.681,1.878,0.623,0.81,0.288,0.215,0.12,NaN,NaN,NaN,NaN,NaN,NaN,NaN,NaN,0.002,165,213.825,84,0,3.961,14.986,1013.003,340.381,0.01,0.037
1.45,2.231,12.719,37.302,12.789,37.507,0.234,0,0.234,0,1.337,3.921,22.175,120.893,9.788,16.708,0,0,0,2.711e4,1.261e4,19.62,0.105,NaN,2000.731,NaN,0.04,2.678e6,1282.653,1.978,0.623,0.81,0.288,0.215,0.12,NaN,NaN,NaN,NaN,NaN,NaN,NaN,NaN,0.002,165,213.825,84,0,3.937,14.985,1012.988,340.38,0.01,0.037
1.46,2.36,13.093,37.42,13.165,37.626,0.248,0,0.248,0,1.376,3.933,22.175,120.893,9.788,16.17,0,0,0,2.709e4,1.259e4,19.611,0.104,NaN,2000.209,NaN,0.041,2.747e6,1284.861,2.079,0.623,0.809,0.288,0.215,0.12,NaN,NaN,NaN,NaN,NaN,NaN,NaN,NaN,0.002,165,213.825,84,0,3.912,14.985,1012.973,340.38,0.01,0.038
1.47,2.493,13.468,37.472,13.542,37.679,0.262,0,0.262,0,1.416,3.939,22.175,120.893,9.788,15.658,0,0,0,2.706e4,1.256e4,19.602,0.104,NaN,1999.686,NaN,0.042,2.816e6,1285.292,2.18,0.623,0.807,0.288,0.215,0.12,NaN,NaN,NaN,NaN,NaN,NaN,NaN,NaN,0.002,165,213.825,84,0,3.887,14.984,1012.958,340.379,0.01,0.038
1.48,2.629,13.843,37.594,13.92,37.801,0.276,0,0.276,0,1.455,3.951,22.175,120.893,9.788,15.169,0,0,0,2.704e4,1.254e4,19.592,0.104,NaN,1999.161,NaN,0.043,2.886e6,1287.587,2.281,0.623,0.804,0.288,0.215,0.12,NaN,NaN,NaN,NaN,NaN,NaN,NaN,NaN,0.002,165,213.825,84,0,3.862,14.983,1012.942,340.379,0.01,0.038
1.49,2.77,14.22,37.64,14.298,37.847,0.291,0,0.291,0,1.495,3.956,22.175,120.893,9.788,14.703,0,0,0,2.702e4,1.252e4,19.583,0.104,NaN,1998.635,NaN,0.044,2.956e6,1287.832,2.384,0.623,0.801,0.288,0.215,0.12,NaN,NaN,NaN,NaN,NaN,NaN,NaN,NaN,0.002,165,213.825,84,0,3.837,14.982,1012.925,340.378,0.01,0.038
1.5,2.914,14.597,37.711,14.677,37.918,0.306,0,0.306,0,1.534,3.964,22.175,120.893,9.788,14.258,0,0,0,2.699e4,1.249e4,19.574,0.104,NaN,1998.108,NaN,0.045,3.026e6,1288.735,2.487,0.623,0.797,0.288,0.215,0.12,NaN,NaN,NaN,NaN,NaN,NaN,NaN,NaN,0.002,165,213.825,84,0,3.812,14.981,1012.908,340.377,0.01,0.038
1.51,3.062,14.974,37.792,15.057,38.001,0.322,0,0.322,0,1.574,3.972,22.175,120.893,9.788,13.98,0,0,0,2.697e4,1.247e4,19.564,0.104,NaN,1997.579,NaN,0.046,3.099e6,1289.948,2.6,0.623,0.795,0.288,0.215,0.12,NaN,NaN,NaN,NaN,NaN,NaN,NaN,NaN,0.002,165,213.825,84,0,3.829,14.98,1012.891,340.377,0.01,0.039
1.52,3.213,15.352,37.808,15.437,38.017,0.338,0,0.338,0,1.614,3.974,22.175,120.893,9.788,13.714,0,0,0,2.695e4,1.244e4,19.555,0.104,NaN,1997.049,NaN,0.048,3.173e6,1289.376,2.716,0.623,0.792,0.288,0.215,0.12,NaN,NaN,NaN,NaN,NaN,NaN,NaN,NaN,0.002,165,213.825,84,0,3.847,14.979,1012.873,340.376,0.01,0.039
1.53,3.369,15.731,37.948,15.818,38.157,0.354,0,0.354,0,1.653,3.989,22.175,120.893,9.788,13.46,0,0,0,2.692e4,1.242e4,19.546,0.104,NaN,1996.518,NaN,0.049,3.247e6,1292.164,2.834,0.623,0.789,0.288,0.215,0.12,NaN,NaN,NaN,NaN,NaN,NaN,NaN,NaN,0.002,165,213.825,84,0,3.865,14.978,1012.855,340.376,0.01,0.039
1.54,3.528,16.111,38.018,16.2,38.228,0.371,0,0.371,0,1.693,3.996,22.175,120.893,9.788,13.216,0,0,0,2.69e4,1.24e4,19.536,0.104,NaN,1995.985,NaN,0.05,3.32e6,1293.051,2.955,0.623,0.787,0.288,0.215,0.12,NaN,NaN,NaN,NaN,NaN,NaN,NaN,NaN,0.002,165,213.825,84,0,3.883,14.977,1012.836,340.375,0.01,0.039
1.55,3.691,16.493,38.124,16.583,38.334,0.388,0,0.388,0,1.733,4.007,22.175,120.893,9.788,12.982,0,0,0,2.687e4,1.237e4,19.527,0.104,NaN,1995.451,NaN,0.051,3.395e6,1294.89,3.077,0.623,0.784,0.288,0.215,0.12,NaN,NaN,NaN,NaN,NaN,NaN,NaN,NaN,0.002,165,213.825,84,0,3.9,14.976,1012.817,340.374,0.01,0.039
1.56,3.858,16.875,38.249,16.968,38.459,0.405,0,0.405,0,1.774,4.02,22.175,120.893,9.788,12.639,0,0,0,2.685e4,1.235e4,19.517,0.104,NaN,1994.914,NaN,0.052,3.467e6,1297.251,3.193,0.623,0.78,0.288,0.215,0.12,NaN,NaN,NaN,NaN,NaN,NaN,NaN,NaN,0.002,165,213.825,84,0,3.88,14.975,1012.798,340.374,0.01,0.039
1.57,4.028,17.257,38.269,17.352,38.48,0.423,0,0.423,0,1.814,4.022,22.175,120.893,9.788,12.309,0,0,0,2.683e4,1.233e4,19.508,0.104,NaN,1994.377,NaN,0.053,3.539e6,1296.778,3.31,0.624,0.776,0.288,0.215,0.12,NaN,NaN,NaN,NaN,NaN,NaN,NaN,NaN,0.002,165,213.825,84,0,3.859,14.974,1012.778,340.373,0.01,0.04
1.585,4.292,17.832,38.328,17.931,38.614,0.451,-4.199e-5,0.451,-0.005,1.884,4.692,22.175,120.893,9.788,11.846,0,0.036,-5.894e-5,2.679e4,1.229e4,19.493,0.104,2054.612,1993.568,0.37,0.055,3.649e6,1298.654,3.489,0.624,0.769,0.288,0.215,0.12,3.14,1.161,4.123e-4,0,0,0,0,4.314e-6,0.002,165,213.825,84,0.002,3.828,14.972,1012.747,340.372,0.015,0.04
1.608,4.702,18.698,38.531,18.803,38.817,0.495,-2.635e-4,0.495,-0.031,1.99,4.704,22.175,120.893,9.788,11.253,0,0.099,-3.341e-4,2.674e4,1.224e4,19.472,0.104,2062.206,1992.348,0.423,0.057,3.815e6,1301.804,3.772,0.624,0.761,0.288,0.215,0.12,2.938,1.244,-1.137e-5,0,0,0,0,2.948e-5,0.003,165,213.825,83.999,0.012,3.801,14.969,1012.698,340.37,0.023,0.04
1.641,5.356,20.007,38.87,20.122,39.156,0.565,-9.608e-4,0.565,-0.098,2.148,4.719,22.175,120.893,9.788,10.602,0,0.21,-0.001,2.666e4,1.216e4,19.439,0.104,2070.87,1990.501,0.487,0.061,4.07e6,1307.398,4.238,0.624,0.751,0.288,0.215,0.12,2.722,1.326,-3.677e-4,0,0,0,0,1.179e-4,0.003,165,213.825,83.995,0.047,3.819,14.965,1012.622,340.368,0.034,0.04
1.691,6.405,21.967,39.295,22.096,39.576,0.678,-0.003,0.678,-0.24,2.384,4.71,22.175,120.893,9.788,10.219,0,0.416,-0.004,2.654e4,1.204e4,19.39,0.104,2076.154,1987.731,0.536,0.067,4.461e6,1313.533,5.053,0.624,0.745,0.288,0.215,0.121,2.598,1.392,3.107e-4,0,0,0,0,3.836e-4,0.003,165,213.825,83.984,0.15,4.038,14.958,1012.499,340.364,0.05,0.04
1.741,7.553,23.955,39.875,24.098,40.158,0.803,-0.006,0.803,-0.416,2.621,4.755,22.175,120.893,9.788,9.356,0,0.673,-0.009,2.642e4,1.192e4,19.34,0.104,2088.477,1984.915,0.628,0.073,4.847e6,1323.765,5.855,0.624,0.732,0.288,0.216,0.121,2.324,1.458,-1.134e-4,0,0,0,0,8.511e-4,0.003,165,213.825,83.965,0.329,4.029,14.951,1012.364,340.359,0.05,0.041
1.791,8.801,25.976,40.504,26.133,40.786,0.94,-0.01,0.94,-0.607,2.86,4.783,22.175,120.893,9.788,9.016,0,0.987,-0.014,2.63e4,1.18e4,19.29,0.103,2093.55,1982.048,0.676,0.079,5.249e6,1335.184,6.817,0.624,0.726,0.288,0.216,0.121,2.219,1.498,1.487e-4,0,0,0,0,0.002,0.004,165,213.825,83.935,0.599,4.224,14.943,1012.218,340.354,0.05,0.041
1.841,10.151,28.029,41.178,28.201,41.466,1.089,-0.015,1.089,-0.803,3.102,4.875,22.175,120.893,9.788,8.068,0,1.362,-0.026,2.617e4,1.167e4,19.238,0.103,2108.175,1979.127,0.782,0.085,5.644e6,1347.677,7.714,0.624,0.711,0.288,0.216,0.121,1.934,1.51,2.147e-4,0,0,0,0,0.003,0.004,165,213.825,83.892,0.974,4.099,14.934,1012.059,340.349,0.05,0.041
1.891,11.605,30.124,41.983,30.309,42.278,1.25,-0.022,1.25,-0.995,3.35,4.99,22.175,120.893,9.788,7.306,0,1.792,-0.041,2.605e4,1.155e4,19.185,0.103,2120.611,1976.143,0.876,0.091,6.049e6,1363.475,8.71,0.624,0.699,0.288,0.216,0.121,1.713,1.496,-3.592e-4,0,0,0,0,0.004,0.004,165,213.825,83.834,1.468,4.024,14.925,1011.889,340.343,0.05,0.041
1.941,13.164,32.25,42.642,32.451,42.947,1.424,-0.029,1.424,-1.173,3.604,5.108,22.175,120.893,9.788,6.623,-3.985e-7,2.279,-0.062,2.593e4,1.143e4,19.132,0.103,2132.299,1973.105,0.965,0.097,6.463e6,1375.364,9.79,0.625,0.688,0.288,0.216,0.121,1.522,1.463,-1.808e-4,0,0,0,0,0.005,0.004,165,213.825,83.757,2.088,3.959,14.914,1011.706,340.337,0.05,0.042
1.991,14.831,34.415,43.389,34.631,43.704,1.61,-0.037,1.611,-1.332,3.864,5.241,22.175,120.893,9.788,6.131,-5.395e-7,2.822,-0.084,2.58e4,1.13e4,19.077,0.103,2141.058,1970.006,1.037,0.103,6.887e6,1389.417,11,0.625,0.681,0.288,0.216,0.121,1.389,1.432,4.951e-4,0,0,0,0,0.007,0.005,165,213.825,83.66,2.838,3.986,14.904,1011.511,340.33,0.05,0.042
2.041,16.607,36.629,44.381,36.861,44.716,1.81,-0.046,1.81,-1.469,4.133,5.461,22.175,120.893,9.788,5.427,-7.857e-7,3.418,-0.124,2.567e4,1.117e4,19.021,0.102,2154.08,1966.831,1.135,0.11,7.316e6,1409.711,12.23,0.625,0.67,0.288,0.216,0.122,1.203,1.355,4.865e-4,0,0,0,0,0.01,0.005,165,213.825,83.539,3.72,3.862,14.892,1011.302,340.323,0.05,0.042
2.091,18.495,38.886,45.253,39.136,45.608,2.023,-0.056,2.024,-1.579,4.413,5.683,22.175,120.893,9.788,4.899,-5.536e-7,4.051,-0.167,2.554e4,1.104e4,18.964,0.102,2164.292,1963.584,1.216,0.116,7.758e6,1426.753,13.607,0.625,0.663,0.287,0.216,0.122,1.068,1.287,-6.341e-5,0,0,0,0,0.012,0.005,165,213.825,83.391,4.725,3.834,14.88,1011.081,340.316,0.05,0.042
2.141,20.496,41.173,45.844,41.441,46.225,2.251,-0.065,2.252,-1.658,4.704,5.923,22.175,120.893,9.788,4.33,-7.353e-7,4.723,-0.228,2.541e4,1.091e4,18.906,0.102,2175.698,1960.282,1.306,0.123,8.204e6,1436.554,15.056,0.626,0.656,0.287,0.216,0.122,0.927,1.195,-3.161e-4,0,0,0,0,0.015,0.006,165,213.825,83.215,5.84,3.765,14.867,1010.846,340.308,0.05,0.042
2.191,22.613,43.493,46.514,43.781,46.927,2.494,-0.074,2.495,-1.703,5.008,6.214,22.175,120.893,9.788,3.802,-1.904e-6,5.414,-0.306,2.528e4,1.078e4,18.847,0.102,2186.722,1956.918,1.393,0.13,8.659e6,1448.404,16.617,0.626,0.65,0.287,0.216,0.122,0.8,1.097,-4.21e-4,0,0,0,0,0.017,0.006,165,213.825,83.006,7.046,3.714,14.853,1010.598,340.3,0.05,0.042
2.241,24.846,45.849,47.221,46.158,47.67,2.752,-0.082,2.753,-1.712,5.326,6.529,22.175,120.893,9.788,3.447,-1.013e-6,6.127,-0.369,2.515e4,1.065e4,18.787,0.102,2194.381,1953.489,1.46,0.137,9.125e6,1461.178,18.353,0.626,0.646,0.287,0.217,0.122,0.717,1.027,-1.678e-4,0,0,0,0,0.02,0.006,165,213.825,82.764,8.321,3.802,14.838,1010.336,340.291,0.05,0.043
2.291,27.198,48.229,47.702,48.56,48.192,3.026,-0.089,3.027,-1.684,5.659,6.854,22.175,120.893,9.788,3.148,-1.547e-6,6.874,-0.426,2.501e4,1.051e4,18.726,0.101,2201.001,1950.006,1.521,0.144,9.597e6,1468.288,20.222,0.627,0.644,0.287,0.217,0.123,0.649,0.964,-2.77e-4,0,0,0,0,0.023,0.007,165,213.825,82.487,9.644,3.952,14.823,1010.06,340.282,0.05,0.043
2.341,29.669,50.612,47.747,50.967,48.291,3.318,-0.094,3.319,-1.617,6.006,7.229,22.175,120.893,9.788,2.638,-1.432e-6,7.619,-0.584,2.488e4,1.038e4,18.664,0.101,2212.579,1946.495,1.613,0.151,1.007e7,1464.702,22.094,0.627,0.639,0.287,0.217,0.123,0.534,0.836,2.539e-4,0,0,0,0,0.025,0.007,165,213.825,82.171,10.993,3.923,14.807,1009.77,340.272,0.05,0.043
2.391,32.259,52.996,47.754,53.377,48.366,3.627,-0.096,3.628,-1.512,6.372,7.667,22.175,120.893,9.788,2.107,-3.6e-6,8.295,-0.835,2.475e4,1.025e4,18.602,0.101,2225.071,1942.956,1.71,0.158,1.053e7,1460.577,24.055,0.628,0.635,0.287,0.217,0.123,0.419,0.689,-4.2e-4,0,0,0,0,0.027,0.007,165,213.825,81.818,12.338,3.871,14.79,1009.467,340.262,0.05,0.043
2.441,34.969,55.382,47.808,55.793,48.483,3.955,-0.094,3.956,-1.365,6.757,8.061,22.175,120.893,9.788,1.946,-2.883e-7,8.956,-0.835,2.461e4,1.011e4,18.539,0.101,2229.028,1939.385,1.755,0.165,1.101e7,1457.734,26.276,0.628,0.635,0.287,0.217,0.124,0.385,0.647,2.974e-4,0,0,0,0,0.029,0.008,165,213.825,81.429,13.651,4.193,14.773,1009.149,340.251,0.05,0.044
2.491,37.797,57.75,47.425,58.192,48.188,4.303,-0.089,4.304,-1.179,7.161,8.545,22.175,120.893,9.788,1.454,-2.744e-6,9.557,-1.248,2.448e4,9982.7,18.477,0.101,2241.203,1935.809,1.851,0.173,1.148e7,1444.705,28.446,0.628,0.632,0.287,0.218,0.124,0.283,0.493,-7.845e-5,0,0,0,0,0.03,0.008,165,213.825,81.005,14.918,4.195,14.754,1008.817,340.24,0.05,0.044
2.541,40.744,60.111,47.283,60.589,48.165,4.671,-0.078,4.672,-0.953,7.591,9.174,22.175,120.893,9.788,0.829,-2.948e-6,9.748,-2.619,2.435e4,9851.919,18.414,0.1,2257.278,1932.21,1.97,0.18,1.194e7,1438.362,30.682,0.629,0.63,0.287,0.218,0.124,0.158,0.282,1.374e-4,0,0,0,0,0.029,0.008,165,213.825,80.55,16.114,4.031,14.735,1008.471,340.228,0.05,0.044
2.591,43.808,62.459,47.002,62.976,48.019,5.062,-0.061,5.062,-0.685,8.05,9.831,22.175,120.893,9.788,0.297,-4.315e-6,5.735,-8.554,2.422e4,9721.977,18.351,0.1,2271.568,1928.595,2.079,0.187,1.24e7,1429.136,33.059,0.629,0.629,0.287,0.218,0.125,0.055,0.106,-3.451e-4,0,0,0,0,0.009,0.008,165,213.825,80.074,17.212,3.842,14.715,1008.112,340.216,0.05,0.044
2.641,46.99,64.815,47.167,65.376,48.336,5.476,-0.036,5.476,-0.377,8.543,10.566,22.175,120.893,9.788,0.44,-1.069e-5,-8.075,-6.297,2.409e4,9591.843,18.287,0.1,2267.849,1924.936,2.078,0.194,1.287e7,1431.244,35.63,0.63,0.63,0.287,0.218,0.125,0.082,0.189,-2.501e-4,0,0,0,0,-0.017,0.009,165,213.825,79.589,18.185,3.751,14.695,1007.739,340.204,0.05,0.045
2.691,50.289,67.175,47.226,67.784,48.543,5.915,-0.003,5.915,-0.027,9.068,11.232,22.175,120.893,9.788,0.71,-7.493e-6,-9.138,-3.812,2.396e4,9461.748,18.222,0.1,2260.822,1921.238,2.058,0.201,1.334e7,1430.823,38.369,0.63,0.631,0.287,0.218,0.125,0.134,0.297,-1.76e-4,0,0,0,0,-0.021,0.009,165,213.825,79.108,19.014,3.859,14.673,1007.352,340.191,0.05,0.045
2.741,53.707,69.544,47.42,70.207,48.9,6.38,0.04,6.38,0.36,9.628,11.942,22.175,120.893,9.788,1.008,-1.045e-5,-8.972,-2.66,2.383e4,9331.363,18.157,0.1,2253.2,1917.492,2.035,0.208,1.382e7,1433.995,41.248,0.631,0.633,0.287,0.219,0.126,0.193,0.411,-4.356e-4,0,0,0,0,-0.018,0.009,165,213.825,78.644,19.698,3.916,14.651,1006.951,340.177,0.05,0.045
2.791,57.244,71.932,47.788,72.655,49.436,6.873,0.094,6.874,0.781,10.223,12.657,22.175,120.893,9.788,1.244,-1.348e-5,-8.321,-2.077,2.37e4,9200.305,18.091,0.099,2247.355,1913.685,2.022,0.215,1.429e7,1441.415,44.277,0.631,0.634,0.287,0.219,0.126,0.24,0.501,-4.636e-4,0,0,0,0,-0.015,0.01,165,213.825,78.209,20.243,4.001,14.628,1006.536,340.163,0.05,0.045
2.841,60.901,74.335,48.095,75.123,49.91,7.396,0.159,7.398,1.232,10.852,13.339,22.175,120.893,9.788,1.464,-1.313e-5,-7.379,-1.723,2.357e4,9068.707,18.023,0.099,2242.005,1909.819,2.013,0.223,1.478e7,1447.346,47.445,0.632,0.636,0.286,0.219,0.126,0.285,0.585,2.906e-4,0,0,0,0,-0.011,0.01,165,213.825,77.813,20.652,4.036,14.604,1006.107,340.149,0.05,0.045
2.891,64.678,76.733,47.989,77.591,49.949,7.949,0.237,7.953,1.707,11.51,13.856,22.175,120.893,9.787,1.612,-1.201e-5,-6.181,-1.498,2.344e4,8937.495,17.955,0.099,2238.498,1905.922,2.016,0.23,1.526e7,1443.113,50.713,0.633,0.637,0.286,0.219,0.127,0.316,0.644,3.161e-4,0,0,0,0,-0.007,0.01,165,213.825,77.469,20.929,4.081,14.58,1005.664,340.134,0.05,0.045
2.941,68.574,79.117,47.711,80.051,49.831,8.535,0.328,8.541,2.202,12.194,14.38,22.175,120.893,9.787,1.898,-1.577e-5,-4.706,-1.39,2.331e4,8806.998,17.887,0.099,2231.725,1902.002,1.998,0.237,1.573e7,1435.232,54.096,0.633,0.64,0.286,0.22,0.127,0.376,0.755,4.222e-4,0,0,0,0,-0.004,0.011,165,213.825,77.189,21.077,3.823,14.554,1005.207,340.119,0.05,0.046
2.991,72.589,81.51,47.926,82.525,50.141,9.153,0.433,9.164,2.711,12.904,14.738,22.175,120.893,9.787,1.887,-1.877e-5,-2.958,-1.306,2.318e4,8676.274,17.818,0.099,2232.182,1898.031,2.025,0.244,1.621e7,1437.734,57.525,0.634,0.64,0.286,0.22,0.128,0.374,0.758,3.816e-4,0,0,0,0,-0.001,0.011,165,213.825,76.986,21.091,3.857,14.528,1004.736,340.103,0.05,0.046
3.041,76.725,83.926,48.388,85.027,50.682,9.806,0.553,9.821,3.229,13.634,15.076,22.175,120.893,9.787,1.89,-1.744e-5,-1.116,-1.27,2.305e4,8544.831,17.748,0.098,2232.305,1893.993,2.05,0.252,1.669e7,1445.651,61.072,0.634,0.641,0.286,0.22,0.128,0.374,0.768,-8.509e-5,0,0,0,0,-1.954e-4,0.011,165,213.825,76.868,20.97,3.739,14.501,1004.251,340.087,0.05,0.046
