# Time (s),Altitude (m),Vertical velocity (m/s),Vertical acceleration (m/s²),Total velocity (m/s),Total acceleration (m/s²),Position East of launch (m),Position North of launch (m),Lateral distance (m),Lateral direction (°),Lateral velocity (m/s),Lateral acceleration (m/s²),Latitude (°),Longitude (°),Gravitational acceleration (m/s²),Angle of attack (°),Roll rate (°/s),Pitch rate (°/s),Yaw rate (°/s),Mass (g),Motor mass (g),Longitudinal moment of inertia (kg·m²),Rotational moment of inertia (kg·m²),CP location (mm),CG location (mm),Stability margin calibers (​),Mach number (​),Reynolds number (​),Thrust (N),Drag force (N),Drag coefficient (​),Axial drag coefficient (​),Friction drag coefficient (​),Pressure drag coefficient (​),Base drag coefficient (​),Normal force coefficient (​),Pitch moment coefficient (​),Yaw moment coefficient (​),Side force coefficient (​),Roll moment coefficient (​),Roll forcing coefficient (​),Roll damping coefficient (​),Pitch damping coefficient (​),Coriolis acceleration (m/s²),Reference length (mm),Reference area (cm²),Vertical orientation (zenith) (°),Lateral orientation (azimuth) (°),Wind velocity (m/s),Air temperature (°C),Air pressure (mbar),Speed of sound (m/s),Simulation time step (s),Computation time (s)
0.01,-4.757e-4,-0.095,-9.511,0.096,9.563,-5e-5,0,5e-5,180,0.01,1,22.175,120.893,9.788,97.445,0,0,0,2.8e4,1.35e4,19.963,0.106,NaN,2019.994,NaN,0.011,7.397e5,4.784,-6.611e-4,0.697,-0.004,0.361,0.215,0.12,NaN,NaN,NaN,NaN,NaN,NaN,NaN,NaN,1.293e-5,165,213.825,84,0,3.761,15,1013.25,340.389,0.01,0.001
0.02,-4.761e-4,-0.095,-9.522,0.096,9.575,-5.004e-5,0,5.004e-5,180,0.01,1.001,22.175,120.893,9.788,97.453,0,0,0,2.8e4,1.35e4,19.963,0.106,NaN,2019.992,NaN,0.011,7.363e5,4.461,-6.575e-4,0.697,-0.004,0.362,0.215,0.12,NaN,NaN,NaN,NaN,NaN,NaN,NaN,NaN,1.294e-5,165,213.825,84,0,3.743,15,1013.25,340.389,0.01,0.001
0.03,-4.763e-4,-0.095,-9.526,0.096,9.579,-5.006e-5,0,5.006e-5,180,0.01,1.001,22.175,120.893,9.788,97.461,0,0,0,2.8e4,1.35e4,19.963,0.106,NaN,2019.991,NaN,0.011,7.329e5,4.343,-6.536e-4,0.697,-0.004,0.362,0.215,0.12,NaN,NaN,NaN,NaN,NaN,NaN,NaN,NaN,1.295e-5,165,213.825,84,0,3.726,15,1013.25,340.389,0.01,0.002
0.04,-4.765e-4,-0.095,-9.53,0.096,9.582,-5.008e-5,0,5.008e-5,180,0.01,1.002,22.175,120.893,9.788,97.468,0,0,0,2.8e4,1.35e4,19.963,0.106,NaN,2019.989,NaN,0.011,7.295e5,4.249,-6.497e-4,0.698,-0.004,0.362,0.215,0.12,NaN,NaN,NaN,NaN,NaN,NaN,NaN,NaN,1.295e-5,165,213.825,84,0,3.708,15,1013.25,340.389,0.01,0.002
0.05,-4.761e-4,-0.095,-9.523,0.096,9.575,-5.004e-5,0,5.004e-5,180,0.01,1.001,22.175,120.893,9.788,97.474,0,0,0,2.8e4,1.35e4,19.963,0.106,NaN,2019.988,NaN,0.011,7.261e5,4.443,-6.455e-4,0.698,-0.004,0.363,0.215,0.12,NaN,NaN,NaN,NaN,NaN,NaN,NaN,NaN,1.294e-5,165,213.825,84,0,3.691,15,1013.25,340.389,0.01,0.002
0.06,-4.757e-4,-0.095,-9.514,0.096,9.567,-5e-5,0,5e-5,180,0.01,1,22.175,120.893,9.788,97.452,0,0,0,2.8e4,1.35e4,19.963,0.106,NaN,2019.986,NaN,0.011,7.362e5,4.681,-6.57e-4,0.697,-0.004,0.362,0.215,0.12,NaN,NaN,NaN,NaN,NaN,NaN,NaN,NaN,1.293e-5,165,213.825,84,0,3.742,15,1013.25,340.389,0.01,0.002
0.07,-4.762e-4,-0.095,-9.523,0.096,9.576,-5.005e-5,0,5.005e-5,180,0.01,1.001,22.175,120.893,9.788,97.434,0,0,0,2.8e4,1.35e4,19.963,0.106,NaN,2019.984,NaN,0.011,7.462e5,4.438,-6.693e-4,0.696,-0.004,0.361,0.215,0.12,NaN,NaN,NaN,NaN,NaN,NaN,NaN,NaN,1.294e-5,165,213.825,84,0,3.794,15,1013.25,340.389,0.01,0.002
0.08,-4.761e-4,-0.095,-9.522,0.096,9.574,-5.004e-5,0,5.004e-5,180,0.01,1.001,22.175,120.893,9.788,97.415,0,0,0,2.8e4,1.35e4,19.963,0.106,NaN,2019.982,NaN,0.011,7.563e5,4.479,-6.814e-4,0.695,-0.003,0.36,0.215,0.12,NaN,NaN,NaN,NaN,NaN,NaN,NaN,NaN,1.294e-5,165,213.825,84,0,3.845,15,1013.25,340.389,0.01,0.003
0.09,-4.759e-4,-0.095,-9.517,0.096,9.57,-5.002e-5,0,5.002e-5,180,0.01,1,22.175,120.893,9.788,97.395,0,0,0,2.8e4,1.35e4,19.963,0.106,NaN,2019.981,NaN,0.011,7.664e5,4.603,-6.934e-4,0.694,-0.003,0.359,0.215,0.12,NaN,NaN,NaN,NaN,NaN,NaN,NaN,NaN,1.294e-5,165,213.825,84,0,3.897,15,1013.25,340.389,0.01,0.003
0.1,-4.764e-4,-0.095,-9.527,0.096,9.58,-5.007e-5,0,5.007e-5,180,0.01,1.001,22.175,120.893,9.788,97.379,0,0,0,2.8e4,1.35e4,19.963,0.106,NaN,2019.979,NaN,0.012,7.765e5,4.315,-7.062e-4,0.693,-0.003,0.358,0.215,0.12,NaN,NaN,NaN,NaN,NaN,NaN,NaN,NaN,1.295e-5,165,213.825,84,0,3.948,15,1013.25,340.389,0.01,0.003
0.11,-4.762e-4,-0.095,-9.523,0.096,9.576,-5.005e-5,0,5.005e-5,180,0.01,1.001,22.175,120.893,9.788,97.379,0,0,0,2.8e4,1.35e4,19.963,0.106,NaN,2019.977,NaN,0.012,7.764e5,4.431,-7.058e-4,0.693,-0.003,0.358,0.215,0.12,NaN,NaN,NaN,NaN,NaN,NaN,NaN,NaN,1.294e-5,165,213.825,84,0,3.947,15,1013.25,340.389,0.01,0.003
0.12,-4.762e-4,-0.095,-9.523,0.096,9.576,-5.005e-5,0,5.005e-5,180,0.01,1.001,22.175,120.893,9.788,97.379,0,0,0,2.8e4,1.35e4,19.962,0.106,NaN,2019.976,NaN,0.012,7.762e5,4.436,-7.056e-4,0.693,-0.003,0.358,0.215,0.12,NaN,NaN,NaN,NaN,NaN,NaN,NaN,NaN,1.294e-5,165,213.825,84,0,3.947,15,1013.25,340.389,0.01,0.003
0.13,-4.758e-4,-0.095,-9.517,0.096,9.569,-5.001e-5,0,5.001e-5,180,0.01,1,22.175,120.893,9.788,97.378,0,0,0,2.8e4,1.35e4,19.962,0.106,NaN,2019.974,NaN,0.012,7.76e5,4.62,-7.051e-4,0.693,-0.003,0.358,0.215,0.12,NaN,NaN,NaN,NaN,NaN,NaN,NaN,NaN,1.294e-5,165,213.825,84,0,3.946,15,1013.25,340.389,0.01,0.004
0.14,-4.762e-4,-0.095,-9.524,0.096,9.577,-5.005e-5,0,5.005e-5,180,0.01,1.001,22.175,120.893,9.788,97.38,0,0,0,2.8e4,1.35e4,19.962,0.106,NaN,2019.972,NaN,0.012,7.758e5,4.404,-7.052e-4,0.693,-0.003,0.358,0.215,0.12,NaN,NaN,NaN,NaN,NaN,NaN,NaN,NaN,1.295e-5,165,213.825,84,0,3.945,15,1013.25,340.389,0.01,0.004
0.15,-4.761e-4,-0.095,-9.523,0.096,9.575,-5.004e-5,0,5.004e-5,180,0.01,1.001,22.175,120.893,9.788,97.38,0,0,0,2.8e4,1.35e4,19.962,0.106,NaN,2019.97,NaN,0.012,7.757e5,4.444,-7.049e-4,0.693,-0.003,0.358,0.215,0.12,NaN,NaN,NaN,NaN,NaN,NaN,NaN,NaN,1.294e-5,165,213.825,84,0,3.944,15,1013.25,340.389,0.01,0.004
0.16,-4.758e-4,-0.095,-9.516,0.096,9.568,-5.001e-5,0,5.001e-5,180,0.01,1,22.175,120.893,9.788,97.383,0,0,0,2.8e4,1.35e4,19.962,0.106,NaN,2019.969,NaN,0.012,7.734e5,4.651,-7.019e-4,0.693,-0.003,0.358,0.215,0.12,NaN,NaN,NaN,NaN,NaN,NaN,NaN,NaN,1.293e-5,165,213.825,84,0,3.932,15,1013.25,340.389,0.01,0.004
0.17,-4.765e-4,-0.095,-9.531,0.096,9.583,-5.009e-5,0,5.009e-5,180,0.01,1.002,22.175,120.893,9.788,97.389,0,0,0,2.8e4,1.35e4,19.962,0.106,NaN,2019.967,NaN,0.012,7.711e5,4.218,-6.997e-4,0.693,-0.003,0.358,0.215,0.12,NaN,NaN,NaN,NaN,NaN,NaN,NaN,NaN,1.295e-5,165,213.825,84,0,3.921,15,1013.25,340.389,0.01,0.004
0.18,-4.765e-4,-0.095,-9.531,0.096,9.583,-5.009e-5,0,5.009e-5,180,0.01,1.002,22.175,120.893,9.788,97.393,0,0,0,2.8e4,1.35e4,19.962,0.106,NaN,2019.965,NaN,0.012,7.689e5,4.225,-6.97e-4,0.694,-0.003,0.359,0.215,0.12,NaN,NaN,NaN,NaN,NaN,NaN,NaN,NaN,1.295e-5,165,213.825,84,0,3.909,15,1013.25,340.389,0.01,0.005
0.19,-4.764e-4,-0.095,-9.527,0.096,9.58,-5.007e-5,0,5.007e-5,180,0.01,1.001,22.175,120.893,9.788,97.397,0,0,0,2.8e4,1.35e4,19.962,0.106,NaN,2019.964,NaN,0.011,7.666e5,4.321,-6.941e-4,0.694,-0.003,0.359,0.215,0.12,NaN,NaN,NaN,NaN,NaN,NaN,NaN,NaN,1.295e-5,165,213.825,84,0,3.898,15,1013.25,340.389,0.01,0.005
0.2,-4.766e-4,-0.095,-9.532,0.096,9.585,-5.01e-5,0,5.01e-5,180,0.01,1.002,22.175,120.893,9.788,97.401,0,0,0,2.8e4,1.35e4,19.962,0.106,NaN,2019.962,NaN,0.011,7.644e5,4.174,-6.916e-4,0.694,-0.003,0.359,0.215,0.12,NaN,NaN,NaN,NaN,NaN,NaN,NaN,NaN,1.296e-5,165,213.825,84,0,3.886,15,1013.25,340.389,0.01,0.005
0.21,-4.763e-4,-0.095,-9.525,0.096,9.578,-5.006e-5,0,5.006e-5,180,0.01,1.001,22.175,120.893,9.788,97.37,0,0,0,2.8e4,1.35e4,19.962,0.106,NaN,2019.961,NaN,0.012,7.812e5,4.381,-7.118e-4,0.693,-0.003,0.357,0.215,0.12,NaN,NaN,NaN,NaN,NaN,NaN,NaN,NaN,1.295e-5,165,213.825,84,0,3.972,15,1013.25,340.389,0.01,0.005
0.22,-4.758e-4,-0.095,-9.515,0.096,9.568,-5.001e-5,0,5.001e-5,180,0.01,1,22.175,120.893,9.788,97.34,0,0,0,2.8e4,1.35e4,19.962,0.106,NaN,2019.959,NaN,0.012,7.98e5,4.657,-7.323e-4,0.691,-0.003,0.356,0.215,0.12,NaN,NaN,NaN,NaN,NaN,NaN,NaN,NaN,1.293e-5,165,213.825,84,0,4.058,15,1013.25,340.389,0.01,0.005
0.23,-4.762e-4,-0.095,-9.525,0.096,9.577,-5.005e-5,0,5.005e-5,180,0.01,1.001,22.175,120.893,9.788,97.314,0,0,0,2.8e4,1.35e4,19.962,0.106,NaN,2019.957,NaN,0.012,8.148e5,4.392,-7.539e-4,0.689,-0.003,0.354,0.215,0.12,NaN,NaN,NaN,NaN,NaN,NaN,NaN,NaN,1.295e-5,165,213.825,84,0,4.144,15,1013.25,340.389,0.01,0.006
0.24,-4.76e-4,-0.095,-9.52,0.096,9.573,-5.003e-5,0,5.003e-5,180,0.01,1.001,22.175,120.893,9.788,97.286,0,0,0,2.8e4,1.35e4,19.962,0.106,NaN,2019.955,NaN,0.012,8.317e5,4.513,-7.752e-4,0.688,-0.003,0.353,0.215,0.12,NaN,NaN,NaN,NaN,NaN,NaN,NaN,NaN,1.294e-5,165,213.825,84,0,4.23,15,1013.25,340.389,0.01,0.006
0.25,-4.759e-4,-0.095,-9.518,0.096,9.57,-5.002e-5,0,5.002e-5,180,0.01,1,22.175,120.893,9.788,97.261,0,0,0,2.8e4,1.35e4,19.962,0.106,NaN,2019.954,NaN,0.013,8.485e5,4.587,-7.969e-4,0.687,-0.003,0.351,0.215,0.12,NaN,NaN,NaN,NaN,NaN,NaN,NaN,NaN,1.294e-5,165,213.825,84,0,4.315,15,1013.25,340.389,0.01,0.006
0.26,-4.762e-4,-0.095,-9.523,0.096,9.576,-5.005e-5,0,5.005e-5,180,0.01,1.001,22.175,120.893,9.788,97.28,0,0,0,2.8e4,1.35e4,19.962,0.106,NaN,2019.952,NaN,0.013,8.363e5,4.429,-7.813e-4,0.688,-0.003,0.353,0.215,0.12,NaN,NaN,NaN,NaN,NaN,NaN,NaN,NaN,1.294e-5,165,213.825,84,0,4.253,15,1013.25,340.389,0.01,0.006
0.27,-4.76e-4,-0.095,-9.52,0.096,9.572,-5.003e-5,0,5.003e-5,180,0.01,1.001,22.175,120.893,9.788,97.298,0,0,0,2.8e4,1.35e4,19.962,0.106,NaN,2019.95,NaN,0.012,8.24e5,4.527,-7.654e-4,0.689,-0.003,0.354,0.215,0.12,NaN,NaN,NaN,NaN,NaN,NaN,NaN,NaN,1.294e-5,165,213.825,84,0,4.191,15,1013.25,340.389,0.01,0.006
0.28,-4.761e-4,-0.095,-9.521,0.096,9.574,-5.004e-5,0,5.004e-5,180,0.01,1.001,22.175,120.893,9.788,97.318,0,0,0,2.8e4,1.35e4,19.962,0.106,NaN,2019.949,NaN,0.012,8.118e5,4.488,-7.499e-4,0.69,-0.003,0.355,0.215,0.12,NaN,NaN,NaN,NaN,NaN,NaN,NaN,NaN,1.294e-5,165,213.825,84,0,4.128,15,1013.25,340.389,0.01,0.006
0.29,-4.758e-4,-0.095,-9.517,0.096,9.569,-5.001e-5,0,5.001e-5,180,0.01,1,22.175,120.893,9.788,97.338,0,0,0,2.8e4,1.35e4,19.962,0.106,NaN,2019.947,NaN,0.012,7.996e5,4.616,-7.343e-4,0.691,-0.003,0.356,0.215,0.12,NaN,NaN,NaN,NaN,NaN,NaN,NaN,NaN,1.294e-5,165,213.825,84,0,4.066,15,1013.25,340.389,0.01,0.007
0.3,-4.76e-4,-0.095,-9.519,0.096,9.572,-5.003e-5,0,5.003e-5,180,0.01,1.001,22.175,120.893,9.788,97.359,0,0,0,2.8e4,1.35e4,19.962,0.106,NaN,2019.945,NaN,0.012,7.874e5,4.548,-7.192e-4,0.692,-0.003,0.357,0.215,0.12,NaN,NaN,NaN,NaN,NaN,NaN,NaN,NaN,1.294e-5,165,213.825,84,0,4.004,15,1013.25,340.389,0.01,0.007
0.31,-4.757e-4,-0.095,-9.514,0.096,9.566,-5e-5,0,5e-5,180,0.01,1,22.175,120.893,9.788,97.348,0,0,0,2.8e4,1.35e4,19.962,0.106,NaN,2019.943,NaN,0.012,7.932e5,4.706,-7.262e-4,0.691,-0.003,0.356,0.215,0.12,NaN,NaN,NaN,NaN,NaN,NaN,NaN,NaN,1.293e-5,165,213.825,84,0,4.033,15,1013.25,340.389,0.01,0.007
0.32,-4.763e-4,-0.095,-9.527,0.096,9.579,-5.007e-5,0,5.007e-5,180,0.01,1.001,22.175,120.893,9.788,97.34,0,0,0,2.8e4,1.35e4,19.962,0.106,NaN,2019.942,NaN,0.012,7.989e5,4.332,-7.339e-4,0.691,-0.003,0.356,0.215,0.12,NaN,NaN,NaN,NaN,NaN,NaN,NaN,NaN,1.295e-5,165,213.825,84,0,4.063,15,1013.25,340.389,0.01,0.007
0.33,-4.761e-4,-0.095,-9.521,0.096,9.574,-5.004e-5,0,5.004e-5,180,0.01,1.001,22.175,120.893,9.788,97.33,0,0,0,2.8e4,1.35e4,19.962,0.106,NaN,2019.94,NaN,0.012,8.047e5,4.483,-7.41e-4,0.69,-0.003,0.355,0.215,0.12,NaN,NaN,NaN,NaN,NaN,NaN,NaN,NaN,1.294e-5,165,213.825,84,0,4.092,15,1013.25,340.389,0.01,0.007
0.34,-4.759e-4,-0.095,-9.518,0.096,9.571,-5.002e-5,0,5.002e-5,180,0.01,1,22.175,120.893,9.788,97.32,0,0,0,2.8e4,1.35e4,19.962,0.106,NaN,2019.938,NaN,0.012,8.105e5,4.57,-7.482e-4,0.69,-0.003,0.355,0.215,0.12,NaN,NaN,NaN,NaN,NaN,NaN,NaN,NaN,1.294e-5,165,213.825,84,0,4.122,15,1013.25,340.389,0.01,0.008
0.35,-4.762e-4,-0.095,-9.524,0.096,9.576,-5.005e-5,0,5.005e-5,180,0.01,1.001,22.175,120.893,9.788,97.311,0,0,0,2.8e4,1.35e4,19.962,0.106,NaN,2019.936,NaN,0.012,8.163e5,4.419,-7.557e-4,0.689,-0.003,0.354,0.215,0.12,NaN,NaN,NaN,NaN,NaN,NaN,NaN,NaN,1.294e-5,165,213.825,84,0,4.151,15,1013.25,340.389,0.01,0.008
0.36,-4.764e-4,-0.095,-9.527,0.096,9.58,-5.007e-5,0,5.007e-5,180,0.01,1.001,22.175,120.893,9.788,97.3,0,0,0,2.8e4,1.35e4,19.962,0.106,NaN,2019.935,NaN,0.012,8.234e5,4.317,-7.649e-4,0.689,-0.003,0.354,0.215,0.12,NaN,NaN,NaN,NaN,NaN,NaN,NaN,NaN,1.295e-5,165,213.825,84,0,4.188,15,1013.25,340.389,0.01,0.008
0.37,-4.76e-4,-0.095,-9.52,0.096,9.573,-5.003e-5,0,5.003e-5,180,0.01,1.001,22.175,120.893,9.788,97.288,0,0,0,2.8e4,1.35e4,19.962,0.106,NaN,2019.933,NaN,0.012,8.305e5,4.522,-7.738e-4,0.688,-0.003,0.353,0.215,0.12,NaN,NaN,NaN,NaN,NaN,NaN,NaN,NaN,1.294e-5,165,213.825,84,0,4.224,15,1013.25,340.389,0.01,0.008
0.38,-4.762e-4,-0.095,-9.523,0.096,9.576,-5.005e-5,0,5.005e-5,180,0.01,1.001,22.175,120.893,9.788,97.278,0,0,0,2.8e4,1.35e4,19.962,0.106,NaN,2019.931,NaN,0.013,8.377e5,4.433,-7.831e-4,0.688,-0.003,0.352,0.215,0.12,NaN,NaN,NaN,NaN,NaN,NaN,NaN,NaN,1.294e-5,165,213.825,84,0,4.26,15,1013.25,340.389,0.01,0.008
0.39,-4.757e-4,-0.095,-9.515,0.096,9.567,-5e-5,0,5e-5,180,0.01,1,22.175,120.893,9.788,97.266,0,0,0,2.8e4,1.35e4,19.962,0.106,NaN,2019.93,NaN,0.013,8.448e5,4.673,-7.92e-4,0.687,-0.003,0.352,0.215,0.12,NaN,NaN,NaN,NaN,NaN,NaN,NaN,NaN,1.293e-5,165,213.825,84,0,4.297,15,1013.25,340.389,0.01,0.008
0.4,-4.755e-4,-0.095,-9.51,0.096,9.562,-4.998e-5,0,4.998e-5,180,0.01,1,22.175,120.893,9.788,97.254,0,0,0,2.8e4,1.35e4,19.962,0.106,NaN,2019.928,NaN,0.013,8.519e5,4.812,-8.01e-4,0.686,-0.003,0.351,0.215,0.12,NaN,NaN,NaN,NaN,NaN,NaN,NaN,NaN,1.293e-5,165,213.825,84,0,4.333,15,1013.25,340.389,0.01,0.009
0.41,-4.759e-4,-0.095,-9.517,0.096,9.57,-5.002e-5,0,5.002e-5,180,0.01,1,22.175,120.893,9.788,97.264,0,0,0,2.8e4,1.35e4,19.962,0.106,NaN,2019.926,NaN,0.013,8.462e5,4.595,-7.939e-4,0.687,-0.003,0.352,0.215,0.12,NaN,NaN,NaN,NaN,NaN,NaN,NaN,NaN,1.294e-5,165,213.825,84,0,4.304,15,1013.25,340.389,0.01,0.009
0.42,-4.758e-4,-0.095,-9.516,0.096,9.568,-5.001e-5,0,5.001e-5,180,0.01,1,22.175,120.893,9.788,97.272,0,0,0,2.8e4,1.35e4,19.962,0.106,NaN,2019.924,NaN,0.013,8.404e5,4.638,-7.864e-4,0.687,-0.003,0.352,0.215,0.12,NaN,NaN,NaN,NaN,NaN,NaN,NaN,NaN,1.293e-5,165,213.825,84,0,4.274,15,1013.25,340.389,0.01,0.009
0.43,-4.755e-4,-0.095,-9.51,0.096,9.562,-4.998e-5,0,4.998e-5,180,0.01,1,22.175,120.893,9.788,97.28,0,0,0,2.8e4,1.35e4,19.962,0.106,NaN,2019.922,NaN,0.013,8.347e5,4.811,-7.787e-4,0.688,-0.003,0.353,0.215,0.12,NaN,NaN,NaN,NaN,NaN,NaN,NaN,NaN,1.293e-5,165,213.825,84,0,4.245,15,1013.25,340.389,0.01,0.009
0.44,-4.753e-4,-0.095,-9.506,0.096,9.558,-4.996e-5,0,4.996e-5,180,0.01,0.999,22.175,120.893,9.788,97.289,0,0,0,2.8e4,1.35e4,19.962,0.106,NaN,2019.921,NaN,0.012,8.29e5,4.919,-7.712e-4,0.688,-0.003,0.353,0.215,0.12,NaN,NaN,NaN,NaN,NaN,NaN,NaN,NaN,1.292e-5,165,213.825,84,0,4.216,15,1013.25,340.389,0.01,0.009
0.45,-4.759e-4,-0.095,-9.518,0.096,9.57,-5.002e-5,0,5.002e-5,180,0.01,1,22.175,120.893,9.788,97.299,0,0,0,2.8e4,1.35e4,19.961,0.106,NaN,2019.919,NaN,0.012,8.232e5,4.583,-7.643e-4,0.689,-0.003,0.354,0.215,0.12,NaN,NaN,NaN,NaN,NaN,NaN,NaN,NaN,1.294e-5,165,213.825,84,0,4.187,15,1013.25,340.389,0.01,0.009
0.46,-4.762e-4,-0.095,-9.523,0.096,9.576,-5.005e-5,0,5.005e-5,180,0.01,1.001,22.175,120.893,9.788,97.307,0,0,0,2.8e4,1.35e4,19.961,0.106,NaN,2019.917,NaN,0.012,8.187e5,4.429,-7.587e-4,0.689,-0.003,0.354,0.215,0.12,NaN,NaN,NaN,NaN,NaN,NaN,NaN,NaN,1.294e-5,165,213.825,84,0,4.163,15,1013.25,340.389,0.01,0.01
0.47,-4.761e-4,-0.095,-9.523,0.096,9.575,-5.004e-5,0,5.004e-5,180,0.01,1.001,22.175,120.893,9.788,97.315,0,0,0,2.8e4,1.35e4,19.961,0.106,NaN,2019.915,NaN,0.012,8.141e5,4.45,-7.528e-4,0.69,-0.003,0.354,0.215,0.12,NaN,NaN,NaN,NaN,NaN,NaN,NaN,NaN,1.294e-5,165,213.825,84,0,4.14,15,1013.25,340.389,0.01,0.01
0.48,-4.753e-4,-0.095,-9.506,0.096,9.559,-4.996e-5,0,4.996e-5,180,0.01,0.999,22.175,120.893,9.788,97.32,0,0,0,2.8e4,1.35e4,19.961,0.106,NaN,2019.914,NaN,0.012,8.095e5,4.905,-7.463e-4,0.69,-0.003,0.355,0.215,0.12,NaN,NaN,NaN,NaN,NaN,NaN,NaN,NaN,1.292e-5,165,213.825,84,0,4.116,15,1013.25,340.389,0.01,0.01
0.49,-4.756e-4,-0.095,-9.512,0.096,9.565,-4.999e-5,0,4.999e-5,180,0.01,1,22.175,120.893,9.788,97.328,0,0,0,2.8e4,1.35e4,19.961,0.106,NaN,2019.912,NaN,0.012,8.049e5,4.746,-7.408e-4,0.69,-0.003,0.355,0.215,0.12,NaN,NaN,NaN,NaN,NaN,NaN,NaN,NaN,1.293e-5,165,213.825,84,0,4.093,15,1013.25,340.389,0.01,0.01
0.5,-4.761e-4,-0.095,-9.522,0.096,9.574,-5.004e-5,0,5.004e-5,180,0.01,1.001,22.175,120.893,9.788,97.337,0,0,0,2.8e4,1.35e4,19.961,0.106,NaN,2019.91,NaN,0.012,8.003e5,4.47,-7.354e-4,0.691,-0.003,0.356,0.215,0.12,NaN,NaN,NaN,NaN,NaN,NaN,NaN,NaN,1.294e-5,165,213.825,84,0,4.07,15,1013.25,340.389,0.01,0.01
0.51,-4.758e-4,-0.095,-9.515,0.096,9.568,-5e-5,0,5e-5,180,0.01,1,22.175,120.893,9.788,97.327,0,0,0,2.8e4,1.35e4,19.961,0.106,NaN,2019.908,NaN,0.012,8.058e5,4.657,-7.421e-4,0.69,-0.003,0.355,0.215,0.12,NaN,NaN,NaN,NaN,NaN,NaN,NaN,NaN,1.293e-5,165,213.825,84,0,4.098,15,1013.25,340.389,0.01,0.011
0.52,-4.75e-4,-0.095,-9.499,0.096,9.551,-4.992e-5,0,4.992e-5,180,0.01,0.998,22.175,120.893,9.788,97.316,0,0,0,2.8e4,1.35e4,19.961,0.106,NaN,2019.906,NaN,0.012,8.114e5,5.115,-7.485e-4,0.69,-0.003,0.355,0.215,0.12,NaN,NaN,NaN,NaN,NaN,NaN,NaN,NaN,1.291e-5,165,213.825,84,0,4.126,15,1013.25,340.389,0.01,0.011
0.53,-4.746e-4,-0.095,-9.491,0.095,9.543,-4.988e-5,0,4.988e-5,180,0.01,0.998,22.175,120.893,9.788,97.306,0,0,0,2.8e4,1.35e4,19.961,0.106,NaN,2019.904,NaN,0.012,8.17e5,5.339,-7.552e-4,0.689,-0.003,0.354,0.215,0.12,NaN,NaN,NaN,NaN,NaN,NaN,NaN,NaN,1.29e-5,165,213.825,84,0,4.155,15,1013.25,340.389,0.01,0.011
0.54,-4.758e-4,-0.095,-9.516,0.096,9.568,-5.001e-5,0,5.001e-5,180,0.01,1,22.175,120.893,9.788,97.3,0,0,0,2.8e4,1.35e4,19.961,0.106,NaN,2019.903,NaN,0.012,8.225e5,4.638,-7.633e-4,0.689,-0.003,0.354,0.215,0.12,NaN,NaN,NaN,NaN,NaN,NaN,NaN,NaN,1.293e-5,165,213.825,84,0,4.183,15,1013.25,340.389,0.01,0.011
0.55,-4.755e-4,-0.095,-9.509,0.096,9.562,-4.997e-5,0,4.997e-5,180,0.01,0.999,22.175,120.893,9.788,97.29,0,0,0,2.8e4,1.35e4,19.961,0.106,NaN,2019.901,NaN,0.012,8.281e5,4.82,-7.702e-4,0.688,-0.003,0.353,0.215,0.12,NaN,NaN,NaN,NaN,NaN,NaN,NaN,NaN,1.293e-5,165,213.825,84,0,4.211,15,1013.25,340.389,0.01,0.011
0.56,-4.749e-4,-0.095,-9.498,0.096,9.55,-4.991e-5,0,4.991e-5,180,0.01,0.998,22.175,120.893,9.788,97.302,0,0,0,2.8e4,1.35e4,19.961,0.106,NaN,2019.899,NaN,0.012,8.197e5,5.14,-7.589e-4,0.689,-0.003,0.354,0.215,0.12,NaN,NaN,NaN,NaN,NaN,NaN,NaN,NaN,1.291e-5,165,213.825,84,0,4.169,15,1013.25,340.389,0.01,0.011
0.57,-4.749e-4,-0.095,-9.497,0.095,9.55,-4.991e-5,0,4.991e-5,180,0.01,0.998,22.175,120.893,9.788,97.316,0,0,0,2.8e4,1.35e4,19.961,0.106,NaN,2019.897,NaN,0.012,8.113e5,5.164,-7.483e-4,0.69,-0.003,0.355,0.215,0.12,NaN,NaN,NaN,NaN,NaN,NaN,NaN,NaN,1.291e-5,165,213.825,84,0,4.126,15,1013.25,340.389,0.01,0.012
0.58,-4.749e-4,-0.095,-9.499,0.096,9.551,-4.992e-5,0,4.992e-5,180,0.01,0.998,22.175,120.893,9.788,97.329,0,0,0,2.8e4,1.35e4,19.961,0.106,NaN,2019.895,NaN,0.012,8.029e5,5.125,-7.377e-4,0.691,-0.003,0.355,0.215,0.12,NaN,NaN,NaN,NaN,NaN,NaN,NaN,NaN,1.291e-5,165,213.825,84,0,4.083,15,1013.25,340.389,0.01,0.012
0.59,-4.746e-4,-0.095,-9.493,0.095,9.545,-4.989e-5,0,4.989e-5,180,0.01,0.998,22.175,120.893,9.788,97.343,0,0,0,2.8e4,1.35e4,19.961,0.106,NaN,2019.893,NaN,0.012,7.945e5,5.296,-7.27e-4,0.691,-0.003,0.356,0.215,0.12,NaN,NaN,NaN,NaN,NaN,NaN,NaN,NaN,1.29e-5,165,213.825,84,0,4.04,15,1013.25,340.389,0.01,0.012
0.6,-4.741e-4,-0.095,-9.483,0.095,9.535,-4.983e-5,0,4.983e-5,180,0.01,0.997,22.175,120.893,9.788,97.356,0,0,0,2.8e4,1.349e4,19.961,0.106,NaN,2019.891,NaN,0.012,7.861e5,5.567,-7.162e-4,0.692,-0.003,0.357,0.215,0.12,NaN,NaN,NaN,NaN,NaN,NaN,NaN,NaN,1.289e-5,165,213.825,84,0,3.997,15,1013.25,340.389,0.01,0.012
0.61,-4.739e-4,-0.095,-9.478,0.095,9.53,-4.981e-5,0,4.981e-5,180,0.01,0.996,22.175,120.893,9.788,97.362,0,0,0,2.8e4,1.349e4,19.961,0.106,NaN,2019.889,NaN,0.012,7.818e5,5.717,-7.107e-4,0.692,-0.003,0.357,0.215,0.12,NaN,NaN,NaN,NaN,NaN,NaN,NaN,NaN,1.288e-5,165,213.825,84,0,3.975,15,1013.25,340.389,0.01,0.012
0.62,-4.745e-4,-0.095,-9.49,0.095,9.542,-4.987e-5,0,4.987e-5,180,0.01,0.997,22.175,120.893,9.788,97.372,0,0,0,2.8e4,1.349e4,19.961,0.106,NaN,2019.887,NaN,0.012,7.776e5,5.366,-7.059e-4,0.693,-0.003,0.358,0.215,0.12,NaN,NaN,NaN,NaN,NaN,NaN,NaN,NaN,1.29e-5,165,213.825,84,0,3.954,15,1013.25,340.389,0.01,0.013
0.63,-4.737e-4,-0.095,-9.473,0.095,9.525,-4.978e-5,0,4.978e-5,180,0.01,0.996,22.175,120.893,9.788,97.377,0,0,0,2.799e4,1.349e4,19.961,0.106,NaN,2019.884,NaN,0.012,7.733e5,5.844,-7e-4,0.693,-0.003,0.358,0.215,0.12,NaN,NaN,NaN,NaN,NaN,NaN,NaN,NaN,1.288e-5,165,213.825,84,0,3.932,15,1013.25,340.389,0.01,0.013
0.64,-4.738e-4,-0.095,-9.475,0.095,9.527,-4.979e-5,0,4.979e-5,180,0.01,0.996,22.175,120.893,9.788,97.385,0,0,0,2.799e4,1.349e4,19.961,0.106,NaN,2019.882,NaN,0.012,7.69e5,5.786,-6.949e-4,0.694,-0.003,0.359,0.215,0.12,NaN,NaN,NaN,NaN,NaN,NaN,NaN,NaN,1.288e-5,165,213.825,84,0,3.91,15,1013.25,340.389,0.01,0.013
0.65,-4.734e-4,-0.095,-9.469,0.095,9.521,-4.976e-5,0,4.976e-5,180,0.01,0.995,22.175,120.893,9.788,97.391,0,0,0,2.799e4,1.349e4,19.961,0.106,NaN,2019.88,NaN,0.011,7.647e5,5.968,-6.894e-4,0.694,-0.003,0.359,0.215,0.12,NaN,NaN,NaN,NaN,NaN,NaN,NaN,NaN,1.287e-5,165,213.825,84,0,3.888,15,1013.25,340.389,0.01,0.013
0.66,-4.724e-4,-0.094,-9.448,0.095,9.5,-4.965e-5,0,4.965e-5,180,0.01,0.993,22.175,120.893,9.788,97.363,0,0,0,2.799e4,1.349e4,19.961,0.106,NaN,2019.877,NaN,0.012,7.792e5,6.551,-7.063e-4,0.693,-0.003,0.358,0.215,0.12,NaN,NaN,NaN,NaN,NaN,NaN,NaN,NaN,1.284e-5,165,213.825,84,0,3.962,15,1013.25,340.389,0.01,0.013
0.67,-4.721e-4,-0.094,-9.442,0.095,9.494,-4.962e-5,0,4.962e-5,180,0.01,0.992,22.175,120.893,9.788,97.337,0,0,0,2.799e4,1.349e4,19.961,0.106,NaN,2019.875,NaN,0.012,7.937e5,6.72,-7.24e-4,0.691,-0.003,0.356,0.215,0.12,NaN,NaN,NaN,NaN,NaN,NaN,NaN,NaN,1.283e-5,165,213.825,84,0,4.036,15,1013.25,340.389,0.01,0.013
0.68,-4.711e-4,-0.094,-9.421,0.095,9.473,-4.951e-5,0,4.951e-5,180,0.01,0.99,22.175,120.893,9.788,97.31,0,0,0,2.799e4,1.349e4,19.961,0.106,NaN,2019.872,NaN,0.012,8.083e5,7.299,-7.413e-4,0.69,-0.003,0.355,0.215,0.12,NaN,NaN,NaN,NaN,NaN,NaN,NaN,NaN,1.281e-5,165,213.825,84,0,4.11,15,1013.25,340.389,0.01,0.014
0.69,-4.708e-4,-0.094,-9.415,0.095,9.467,-4.948e-5,0,4.948e-5,180,0.01,0.99,22.175,120.893,9.788,97.286,0,0,0,2.799e4,1.349e4,19.961,0.106,NaN,2019.869,NaN,0.012,8.228e5,7.467,-7.594e-4,0.689,-0.003,0.354,0.215,0.12,NaN,NaN,NaN,NaN,NaN,NaN,NaN,NaN,1.28e-5,165,213.825,84,0,4.184,15,1013.25,340.389,0.01,0.014
0.7,-4.699e-4,-0.094,-9.398,0.095,9.45,-4.939e-5,0,4.939e-5,180,0.01,0.988,22.175,120.893,9.788,97.261,0,0,0,2.799e4,1.349e4,19.961,0.106,NaN,2019.866,NaN,0.013,8.373e5,7.951,-7.773e-4,0.688,-0.003,0.352,0.215,0.12,NaN,NaN,NaN,NaN,NaN,NaN,NaN,NaN,1.277e-5,165,213.825,84,0,4.258,15,1013.25,340.389,0.01,0.014
0.71,-4.682e-4,-0.094,-9.363,0.094,9.415,-4.921e-5,0,4.921e-5,180,0.01,0.984,22.175,120.893,9.788,97.239,0,0,0,2.799e4,1.349e4,19.96,0.106,NaN,2019.863,NaN,0.013,8.492e5,8.938,-7.913e-4,0.687,-0.003,0.351,0.215,0.12,NaN,NaN,NaN,NaN,NaN,NaN,NaN,NaN,1.273e-5,165,213.825,84,0,4.319,15,1013.25,340.389,0.01,0.014
0.72,-4.676e-4,-0.094,-9.352,0.094,9.403,-4.915e-5,0,4.915e-5,180,0.01,0.983,22.175,120.893,9.788,97.22,0,0,0,2.799e4,1.349e4,19.96,0.106,NaN,2019.859,NaN,0.013,8.612e5,9.255,-8.065e-4,0.686,-0.003,0.35,0.215,0.12,NaN,NaN,NaN,NaN,NaN,NaN,NaN,NaN,1.271e-5,165,213.825,84,0,4.38,15,1013.25,340.389,0.01,0.014
0.73,-4.659e-4,-0.093,-9.319,0.094,9.37,-4.897e-5,0,4.897e-5,180,0.01,0.979,22.175,120.893,9.788,97.199,0,0,0,2.799e4,1.349e4,19.96,0.106,NaN,2019.855,NaN,0.013,8.731e5,10.185,-8.208e-4,0.685,-0.003,0.349,0.215,0.12,NaN,NaN,NaN,NaN,NaN,NaN,NaN,NaN,1.267e-5,165,213.825,84,0,4.441,15,1013.25,340.389,0.01,0.014
0.74,-4.64e-4,-0.093,-9.28,0.093,9.331,-4.877e-5,0,4.877e-5,180,0.01,0.975,22.175,120.893,9.788,97.178,0,0,0,2.799e4,1.349e4,19.96,0.106,NaN,2019.851,NaN,0.013,8.85e5,11.275,-8.35e-4,0.684,-0.003,0.349,0.215,0.12,NaN,NaN,NaN,NaN,NaN,NaN,NaN,NaN,1.261e-5,165,213.825,84,0,4.502,15,1013.25,340.389,0.01,0.015
0.75,-4.621e-4,-0.092,-9.243,0.093,9.294,-4.857e-5,0,4.857e-5,180,0.01,0.971,22.175,120.893,9.788,97.158,0,0,0,2.799e4,1.349e4,19.96,0.106,NaN,2019.846,NaN,0.013,8.97e5,12.322,-8.495e-4,0.683,-0.003,0.348,0.215,0.12,NaN,NaN,NaN,NaN,NaN,NaN,NaN,NaN,1.256e-5,165,213.825,84,0,4.563,15,1013.25,340.389,0.01,0.015
0.76,-4.598e-4,-0.092,-9.195,0.092,9.246,-4.832e-5,0,4.832e-5,180,0.01,0.966,22.175,120.893,9.788,97.155,0,0,0,2.799e4,1.349e4,19.96,0.106,NaN,2019.841,NaN,0.013,8.95e5,13.663,-8.447e-4,0.683,-0.003,0.348,0.215,0.12,NaN,NaN,NaN,NaN,NaN,NaN,NaN,NaN,1.25e-5,165,213.825,84,0,4.553,15,1013.25,340.389,0.01,0.015
0.77,-4.586e-4,-0.092,-9.173,0.092,9.223,-4.82e-5,0,4.82e-5,180,0.01,0.964,22.175,120.893,9.788,97.154,0,0,0,2.799e4,1.349e4,19.96,0.106,NaN,2019.836,NaN,0.013,8.93e5,14.302,-8.411e-4,0.683,-0.003,0.348,0.215,0.12,NaN,NaN,NaN,NaN,NaN,NaN,NaN,NaN,1.247e-5,165,213.825,84,0,4.543,15,1013.25,340.389,0.01,0.015
0.78,-4.56e-4,-0.091,-9.12,0.092,9.171,-4.793e-5,0,4.793e-5,180,0.01,0.959,22.175,120.893,9.788,97.15,0,0,0,2.799e4,1.349e4,19.96,0.106,NaN,2019.83,NaN,0.013,8.91e5,15.77,-8.362e-4,0.683,-0.003,0.348,0.215,0.12,NaN,NaN,NaN,NaN,NaN,NaN,NaN,NaN,1.24e-5,165,213.825,84,0,4.533,15,1013.25,340.389,0.01,0.015
0.79,-4.54e-4,-0.091,-9.079,0.091,9.129,-4.771e-5,0,4.771e-5,180,0.01,0.954,22.175,120.893,9.788,97.148,0,0,0,2.799e4,1.349e4,19.96,0.106,NaN,2019.823,NaN,0.013,8.89e5,16.927,-8.318e-4,0.683,-0.003,0.348,0.215,0.12,NaN,NaN,NaN,NaN,NaN,NaN,NaN,NaN,1.234e-5,165,213.825,84,0,4.523,15,1013.25,340.389,0.01,0.016
0.8,-4.518e-4,-0.09,-9.037,0.091,9.087,-4.749e-5,0,4.749e-5,180,0.009,0.95,22.175,120.893,9.788,97.145,0,0,0,2.799e4,1.349e4,19.96,0.106,NaN,2019.816,NaN,0.013,8.871e5,18.121,-8.273e-4,0.683,-0.003,0.348,0.215,0.12,NaN,NaN,NaN,NaN,NaN,NaN,NaN,NaN,1.228e-5,165,213.825,84,0,4.513,15,1013.25,340.389,0.01,0.016
0.81,-4.495e-4,-0.09,-8.99,0.09,9.04,-4.724e-5,0,4.724e-5,180,0.009,0.945,22.175,120.893,9.788,97.135,0,0,0,2.799e4,1.349e4,19.96,0.106,NaN,2019.809,NaN,0.013,8.903e5,19.438,-8.297e-4,0.683,-0.003,0.348,0.215,0.12,NaN,NaN,NaN,NaN,NaN,NaN,NaN,NaN,1.222e-5,165,213.825,84,0,4.529,15,1013.25,340.389,0.01,0.016
0.82,-4.482e-4,-0.09,-8.965,0.09,9.014,-4.711e-5,0,4.711e-5,180,0.009,0.942,22.175,120.893,9.788,97.127,0,0,0,2.799e4,1.349e4,19.959,0.106,NaN,2019.801,NaN,0.013,8.936e5,20.155,-8.329e-4,0.683,-0.003,0.348,0.215,0.12,NaN,NaN,NaN,NaN,NaN,NaN,NaN,NaN,1.218e-5,165,213.825,84,0,4.546,15,1013.25,340.389,0.01,0.023
0.83,-4.434e-4,-0.089,-8.867,0.089,8.916,-4.66e-5,0,4.66e-5,180,0.009,0.932,22.175,120.893,9.788,97.111,0,0,0,2.799e4,1.349e4,19.959,0.106,NaN,2019.793,NaN,0.013,8.969e5,22.899,-8.331e-4,0.683,-0.003,0.348,0.215,0.12,NaN,NaN,NaN,NaN,NaN,NaN,NaN,NaN,1.205e-5,165,213.825,84,0,4.563,15,1013.25,340.389,0.01,0.023
0.84,-4.345e-4,-0.087,-8.69,0.087,8.738,-4.567e-5,0,4.567e-5,180,0.009,0.913,22.175,120.893,9.788,97.085,0,0,0,2.799e4,1.349e4,19.959,0.106,NaN,2019.782,NaN,0.013,9.001e5,27.886,-8.299e-4,0.682,-0.003,0.347,0.215,0.12,NaN,NaN,NaN,NaN,NaN,NaN,NaN,NaN,1.181e-5,165,213.825,84,0,4.58,15,1013.25,340.389,0.01,0.024
0.85,-4.271e-4,-0.085,-8.542,0.086,8.589,-4.489e-5,0,4.489e-5,180,0.009,0.898,22.175,120.893,9.788,97.063,0,0,0,2.799e4,1.349e4,19.959,0.106,NaN,2019.77,NaN,0.014,9.034e5,32.036,-8.279e-4,0.682,-0.003,0.347,0.215,0.12,NaN,NaN,NaN,NaN,NaN,NaN,NaN,NaN,1.161e-5,165,213.825,84,0,4.597,15,1013.25,340.389,0.01,0.024
0.86,-4.194e-4,-0.084,-8.388,0.084,8.434,-4.408e-5,0,4.408e-5,180,0.009,0.882,22.175,120.893,9.788,97.042,0,0,0,2.799e4,1.349e4,19.959,0.106,NaN,2019.756,NaN,0.014,9.042e5,36.392,-8.225e-4,0.682,-0.003,0.347,0.215,0.12,NaN,NaN,NaN,NaN,NaN,NaN,NaN,NaN,1.14e-5,165,213.825,84,0,4.601,15,1013.25,340.389,0.01,0.024
0.87,-4.119e-4,-0.082,-8.239,0.083,8.284,-4.33e-5,0,4.33e-5,180,0.009,0.866,22.175,120.893,9.788,97.023,0,0,0,2.799e4,1.349e4,19.958,0.106,NaN,2019.74,NaN,0.014,9.05e5,40.581,-8.173e-4,0.682,-0.003,0.347,0.215,0.12,NaN,NaN,NaN,NaN,NaN,NaN,NaN,NaN,1.12e-5,165,213.825,84,0,4.605,15,1013.25,340.389,0.01,0.024
0.88,-4.047e-4,-0.081,-8.093,0.081,8.138,-4.253e-5,0,4.253e-5,180,0.009,0.851,22.175,120.893,9.788,97.004,0,0,0,2.799e4,1.349e4,19.958,0.106,NaN,2019.723,NaN,0.014,9.059e5,44.682,-8.123e-4,0.682,-0.003,0.347,0.215,0.12,NaN,NaN,NaN,NaN,NaN,NaN,NaN,NaN,1.1e-5,165,213.825,84,0,4.61,15,1013.25,340.389,0.01,0.024
0.89,-3.982e-4,-0.08,-7.965,0.08,8.008,-4.186e-5,0,4.186e-5,180,0.008,0.837,22.175,120.893,9.788,96.987,0,0,0,2.799e4,1.349e4,19.958,0.106,NaN,2019.705,NaN,0.014,9.067e5,48.294,-8.08e-4,0.682,-0.003,0.347,0.215,0.12,NaN,NaN,NaN,NaN,NaN,NaN,NaN,NaN,1.083e-5,165,213.825,84,0,4.614,15,1013.25,340.389,0.01,0.025
0.9,-3.921e-4,-0.078,-7.842,0.079,7.885,-4.121e-5,0,4.121e-5,180,0.008,0.824,22.175,120.893,9.788,96.971,0,0,0,2.799e4,1.349e4,19.957,0.106,NaN,2019.685,NaN,0.014,9.076e5,51.752,-8.04e-4,0.682,-0.003,0.347,0.215,0.12,NaN,NaN,NaN,NaN,NaN,NaN,NaN,NaN,1.066e-5,165,213.825,84,0,4.619,15,1013.25,340.389,0.01,0.025
0.91,-3.84e-4,-0.077,-7.679,0.077,7.722,-4.036e-5,0,4.036e-5,180,0.008,0.807,22.175,120.893,9.788,96.943,0,0,0,2.798e4,1.348e4,19.957,0.106,NaN,2019.664,NaN,0.014,9.155e5,56.319,-8.076e-4,0.681,-0.003,0.346,0.215,0.12,NaN,NaN,NaN,NaN,NaN,NaN,NaN,NaN,1.044e-5,165,213.825,84,0,4.659,15,1013.25,340.389,0.01,0.025
0.92,-3.761e-4,-0.075,-7.522,0.076,7.563,-3.953e-5,0,3.953e-5,180,0.008,0.791,22.175,120.893,9.788,96.915,0,0,0,2.798e4,1.348e4,19.957,0.106,NaN,2019.641,NaN,0.014,9.234e5,60.748,-8.115e-4,0.681,-0.003,0.346,0.215,0.12,NaN,NaN,NaN,NaN,NaN,NaN,NaN,NaN,1.022e-5,165,213.825,84,0,4.7,15,1013.25,340.389,0.01,0.025
0.93,-3.643e-4,-0.073,-7.286,0.073,7.326,-3.829e-5,0,3.829e-5,180,0.008,0.766,22.175,120.893,9.788,96.879,0,0,0,2.798e4,1.348e4,19.956,0.106,NaN,2019.615,NaN,0.014,9.312e5,67.387,-8.122e-4,0.68,-0.003,0.345,0.215,0.12,NaN,NaN,NaN,NaN,NaN,NaN,NaN,NaN,9.903e-6,165,213.825,84,0,4.74,15,1013.25,340.389,0.01,0.025
0.94,-3.499e-4,-0.07,-6.999,0.07,7.037,-3.678e-5,0,3.678e-5,180,0.007,0.736,22.175,120.893,9.788,96.837,0,0,0,2.798e4,1.348e4,19.956,0.106,NaN,2019.586,NaN,0.014,9.391e5,75.455,-8.107e-4,0.68,-0.003,0.344,0.215,0.12,NaN,NaN,NaN,NaN,NaN,NaN,NaN,NaN,9.513e-6,165,213.825,84,0,4.781,15,1013.25,340.389,0.01,0.026
0.95,-3.337e-4,-0.067,-6.673,0.067,6.71,-3.507e-5,0,3.507e-5,180,0.007,0.701,22.175,120.893,9.788,96.792,0,0,0,2.798e4,1.348e4,19.955,0.106,NaN,2019.554,NaN,0.014,9.47e5,84.603,-8.077e-4,0.679,-0.003,0.344,0.215,0.12,NaN,NaN,NaN,NaN,NaN,NaN,NaN,NaN,9.071e-6,165,213.825,84,0,4.821,15,1013.25,340.389,0.01,0.026
0.96,-3.135e-4,-0.063,-6.271,0.063,6.305,-3.295e-5,0,3.295e-5,180,0.007,0.659,22.175,120.893,9.788,96.752,0,0,0,2.798e4,1.348e4,19.954,0.106,NaN,2019.517,NaN,0.014,9.373e5,95.934,-7.784e-4,0.68,-0.003,0.345,0.215,0.12,NaN,NaN,NaN,NaN,NaN,NaN,NaN,NaN,8.523e-6,165,213.825,84,0,4.772,15,1013.25,340.389,0.01,0.026
0.97,-2.933e-4,-0.059,-5.865,0.059,5.898,-3.082e-5,0,3.082e-5,180,0.006,0.616,22.175,120.893,9.788,96.711,0,0,0,2.798e4,1.348e4,19.954,0.106,NaN,2019.476,NaN,0.014,9.276e5,107.326,-7.497e-4,0.68,-0.003,0.345,0.215,0.12,NaN,NaN,NaN,NaN,NaN,NaN,NaN,NaN,7.972e-6,165,213.825,84,0,4.723,15,1013.25,340.389,0.01,0.026
0.98,-2.671e-4,-0.053,-5.342,0.054,5.372,-2.808e-5,0,2.808e-5,180,0.006,0.561,22.175,120.893,9.788,96.654,0,0,0,2.797e4,1.347e4,19.953,0.106,NaN,2019.43,NaN,0.014,9.178e5,122.033,-7.168e-4,0.681,-0.002,0.346,0.215,0.12,NaN,NaN,NaN,NaN,NaN,NaN,NaN,NaN,7.261e-6,165,213.825,84,0,4.674,15,1013.25,340.389,0.01,0.026
0.99,-2.333e-4,-0.047,-4.667,0.047,4.692,-2.453e-5,0,2.453e-5,180,0.005,0.49,22.175,120.893,9.788,96.577,0,0,0,2.797e4,1.347e4,19.952,0.106,NaN,2019.376,NaN,0.014,9.081e5,141.022,-6.791e-4,0.682,-0.002,0.347,0.215,0.12,NaN,NaN,NaN,NaN,NaN,NaN,NaN,NaN,6.343e-6,165,213.825,84,0,4.625,15,1013.25,340.389,0.01,0.026
1,-1.839e-4,-0.037,-3.678,0.037,3.699,-1.933e-5,0,1.933e-5,180,0.004,0.387,22.175,120.893,9.788,96.46,0,0,0,2.797e4,1.347e4,19.951,0.106,NaN,2019.312,NaN,0.013,8.983e5,168.795,-6.31e-4,0.683,-0.002,0.347,0.215,0.12,NaN,NaN,NaN,NaN,NaN,NaN,NaN,NaN,5e-6,165,213.825,84,0,4.576,15,1013.25,340.389,0.01,0.027
1.01,-1.138e-4,-0.023,-2.275,0.023,2.288,-1.196e-5,0,1.196e-5,180,0.002,0.239,22.175,120.893,9.788,96.284,0,0,0,2.796e4,1.346e4,19.949,0.106,NaN,2019.232,NaN,0.013,9.004e5,208.221,-5.846e-4,0.682,-0.002,0.347,0.215,0.12,NaN,NaN,NaN,NaN,NaN,NaN,NaN,NaN,3.094e-6,165,213.825,84,0,4.589,15,1013.25,340.389,0.01,0.027
1.02,-4.855e-5,-0.01,-0.97,0.01,0.975,-5.103e-6,0,5.103e-6,180,0.001,0.102,22.175,120.893,9.788,96.121,0,0,0,2.796e4,1.346e4,19.948,0.106,NaN,2019.139,NaN,0.014,9.026e5,244.886,-5.437e-4,0.682,-0.002,0.347,0.215,0.12,NaN,NaN,NaN,NaN,NaN,NaN,NaN,NaN,1.32e-6,165,213.825,84,0,4.602,15,1013.25,340.389,0.01,0.027
1.03,2.205e-5,0.004,0.442,0.004,0.445,2.317e-6,0,2.317e-6,0,4.638e-4,0.046,22.175,120.893,9.788,95.945,0,0,0,2.795e4,1.345e4,19.946,0.106,NaN,2019.03,NaN,0.014,9.048e5,284.538,-5.015e-4,0.682,-0.002,0.347,0.215,0.12,NaN,NaN,NaN,NaN,NaN,NaN,NaN,NaN,5.998e-7,165,213.825,84,0,4.614,15,1013.25,340.389,0.01,0.027
1.04,1.641e-4,0.024,1.96,0.024,1.971,1.725e-5,0,1.725e-5,0,0.003,0.206,22.175,120.893,9.788,95.703,0,0,0,2.795e4,1.345e4,19.943,0.106,NaN,2018.905,NaN,0.014,9.069e5,327.142,-4.457e-4,0.682,-0.002,0.347,0.215,0.12,NaN,NaN,NaN,NaN,NaN,NaN,NaN,NaN,3.263e-6,165,213.825,84,0,4.627,15,1013.25,340.389,0.01,0.027
1.05,5.833e-4,0.06,3.585,0.06,3.604,6.13e-5,0,6.13e-5,0,0.006,0.377,22.175,120.893,9.788,95.26,0,0,0,2.794e4,1.344e4,19.941,0.106,NaN,2018.763,NaN,0.014,9.087e5,372.693,-3.528e-4,0.682,-0.001,0.347,0.215,0.12,NaN,NaN,NaN,NaN,NaN,NaN,NaN,NaN,8.133e-6,165,213.825,84,0,4.64,15,1013.25,340.389,0.01,0.028
1.06,0.001,0.115,5.563,0.116,5.594,1.534e-4,0,1.534e-4,0,0.012,0.585,22.175,120.893,9.788,94.557,0,0,0,2.793e4,1.343e4,19.938,0.106,NaN,2018.599,NaN,0.013,8.993e5,428.171,-2.267e-4,0.683,-8.232e-4,0.347,0.215,0.12,NaN,NaN,NaN,NaN,NaN,NaN,NaN,NaN,1.569e-5,165,213.825,84,0,4.596,15,1013.25,340.389,0.01,0.028
1.07,0.003,0.191,7.517,0.192,7.558,3.142e-4,0,3.142e-4,0,0.02,0.79,22.175,120.893,9.788,93.593,0,0,0,2.792e4,1.342e4,19.935,0.106,NaN,2018.415,NaN,0.013,8.898e5,482.882,-1.1e-4,0.683,-4.079e-4,0.348,0.215,0.12,NaN,NaN,NaN,NaN,NaN,NaN,NaN,NaN,2.59e-5,165,213.825,84,0,4.553,15,1013.25,340.389,0.01,0.028
1.08,0.005,0.288,9.758,0.29,9.812,5.658e-4,0,5.658e-4,0,0.03,1.026,22.175,120.893,9.788,92.32,0,0,0,2.791e4,1.341e4,19.931,0.106,NaN,2018.206,NaN,0.013,8.804e5,545.617,-2.942e-5,0.684,-1.115e-4,0.349,0.215,0.12,NaN,NaN,NaN,NaN,NaN,NaN,NaN,NaN,3.916e-5,165,213.825,84,0,4.51,15,1013.249,340.389,0.01,0.028
1.09,0.009,0.411,12.305,0.413,12.373,9.333e-4,0,9.333e-4,0,0.043,1.293,22.175,120.893,9.788,90.69,0,0,0,2.79e4,1.34e4,19.927,0.106,NaN,2017.969,NaN,0.013,8.713e5,616.859,-7.732e-7,0.685,-2.991e-6,0.35,0.215,0.12,NaN,NaN,NaN,NaN,NaN,NaN,NaN,NaN,5.588e-5,165,213.825,84,0,4.467,15,1013.249,340.389,0.01,0.028
1.1,0.014,0.563,15.219,0.566,15.303,0.001,0,0.001,0,0.059,1.6,22.175,120.893,9.788,88.647,0,0,0,2.789e4,1.339e4,19.922,0.106,NaN,2017.702,NaN,0.013,8.631e5,698.307,5.681e-6,0.685,2.24e-5,0.35,0.215,0.12,NaN,NaN,NaN,NaN,NaN,NaN,NaN,NaN,7.656e-5,165,213.825,84,0,4.424,15,1013.248,340.389,0.01,0.028
1.11,0.02,0.746,18.29,0.75,18.39,0.002,0,0.002,0,0.078,1.922,22.175,120.893,9.788,86.247,0,0,0,2.788e4,1.338e4,19.917,0.106,NaN,2017.401,NaN,0.013,8.638e5,784.022,1.183e-4,0.685,4.655e-4,0.35,0.215,0.12,NaN,NaN,NaN,NaN,NaN,NaN,NaN,NaN,1.014e-4,165,213.825,84,0,4.419,15,1013.248,340.389,0.01,0.029
1.12,0.029,0.96,21.441,0.966,21.559,0.003,0,0.003,0,0.101,2.254,22.175,120.893,9.788,83.448,0,0,0,2.786e4,1.336e4,19.911,0.106,NaN,2017.066,NaN,0.013,8.667e5,871.849,6.145e-4,0.685,0.002,0.35,0.215,0.12,NaN,NaN,NaN,NaN,NaN,NaN,NaN,NaN,1.305e-4,165,213.825,84,0,4.414,15,1013.247,340.389,0.01,0.029
1.13,0.04,1.207,24.646,1.213,24.782,0.004,0,0.004,0,0.127,2.59,22.175,120.893,9.788,80.264,0,0,0,2.784e4,1.334e4,19.904,0.106,NaN,2016.696,NaN,0.013,8.726e5,961.049,0.002,0.685,0.008,0.349,0.215,0.12,NaN,NaN,NaN,NaN,NaN,NaN,NaN,NaN,1.64e-4,165,213.825,84,0,4.41,15,1013.245,340.389,0.01,0.029
1.14,0.053,1.482,27.565,1.49,27.717,0.006,0,0.006,0,0.156,2.897,22.175,120.893,9.788,76.769,0,0,0,2.782e4,1.332e4,19.897,0.106,NaN,2016.295,NaN,0.013,8.826e5,1042.073,0.005,0.684,0.018,0.349,0.215,0.12,NaN,NaN,NaN,NaN,NaN,NaN,NaN,NaN,2.015e-4,165,213.825,84,0,4.405,15,1013.244,340.389,0.01,0.029
1.15,0.069,1.783,30.095,1.793,30.26,0.007,0,0.007,0,0.187,3.163,22.175,120.893,9.788,73.059,0,0,0,2.78e4,1.33e4,19.889,0.106,NaN,2015.866,NaN,0.013,8.972e5,1112.029,0.01,0.683,0.037,0.348,0.215,0.12,NaN,NaN,NaN,NaN,NaN,NaN,NaN,NaN,2.424e-4,165,213.825,84,0,4.4,15,1013.242,340.389,0.01,0.029
1.16,0.089,2.106,32.291,2.117,32.469,0.009,0,0.009,0,0.221,3.394,22.175,120.893,9.788,69.172,0,0,0,2.778e4,1.328e4,19.881,0.106,NaN,2015.413,NaN,0.014,9.151e5,1172.553,0.018,0.681,0.065,0.346,0.215,0.12,NaN,NaN,NaN,NaN,NaN,NaN,NaN,NaN,2.862e-4,165,213.825,84,0,4.385,14.999,1013.24,340.389,0.01,0.029
1.17,0.112,2.446,34.031,2.459,34.218,0.012,0,0.012,0,0.257,3.577,22.175,120.893,9.788,65.26,0,0,0,2.776e4,1.326e4,19.873,0.105,NaN,2014.941,NaN,0.014,9.385e5,1220.187,0.031,0.68,0.103,0.344,0.215,0.12,NaN,NaN,NaN,NaN,NaN,NaN,NaN,NaN,3.325e-4,165,213.825,84,0,4.37,14.999,1013.237,340.388,0.01,0.03
1.18,0.138,2.799,35.308,2.814,35.502,0.014,0,0.014,0,0.294,3.711,22.175,120.893,9.788,61.424,0,0,0,2.774e4,1.324e4,19.864,0.105,NaN,2014.455,NaN,0.014,9.672e5,1254.818,0.048,0.678,0.149,0.342,0.215,0.12,NaN,NaN,NaN,NaN,NaN,NaN,NaN,NaN,3.804e-4,165,213.825,84,0,4.355,14.999,1013.234,340.388,0.01,0.03
1.19,0.168,3.16,36.11,3.177,36.309,0.018,0,0.018,0,0.332,3.795,22.175,120.893,9.788,57.747,0,0,0,2.771e4,1.321e4,19.855,0.105,NaN,2013.959,NaN,0.015,1.001e6,1276.135,0.069,0.675,0.202,0.34,0.215,0.12,NaN,NaN,NaN,NaN,NaN,NaN,NaN,NaN,4.295e-4,165,213.825,84,0,4.34,14.999,1013.23,340.388,0.01,0.03
1.2,0.201,3.526,36.663,3.546,36.865,0.021,0,0.021,0,0.371,3.853,22.175,120.893,9.788,54.274,0,0,0,2.769e4,1.319e4,19.846,0.105,NaN,2013.458,NaN,0.016,1.039e6,1290.479,0.095,0.673,0.26,0.338,0.215,0.12,NaN,NaN,NaN,NaN,NaN,NaN,NaN,NaN,4.793e-4,165,213.825,84,0,4.325,14.999,1013.226,340.388,0.01,0.03
1.21,0.238,3.896,36.969,3.917,37.173,0.025,0,0.025,0,0.409,3.886,22.175,120.893,9.788,51.044,0,0,0,2.767e4,1.317e4,19.837,0.105,NaN,2012.952,NaN,0.016,1.081e6,1297.933,0.126,0.67,0.318,0.335,0.215,0.12,NaN,NaN,NaN,NaN,NaN,NaN,NaN,NaN,5.295e-4,165,213.825,84,0,4.311,14.998,1013.222,340.388,0.01,0.03
1.22,0.279,4.266,37.028,4.289,37.232,0.029,0,0.029,0,0.448,3.892,22.175,120.893,9.788,48.06,0,0,0,2.764e4,1.314e4,19.828,0.105,NaN,2012.446,NaN,0.017,1.127e6,1298.512,0.162,0.667,0.375,0.332,0.215,0.12,NaN,NaN,NaN,NaN,NaN,NaN,NaN,NaN,5.798e-4,165,213.825,84,0,4.297,14.998,1013.217,340.388,0.01,0.031
1.23,0.324,4.636,37.071,4.662,37.276,0.034,0,0.034,0,0.487,3.896,22.175,120.893,9.788,45.312,0,0,0,2.762e4,1.312e4,19.819,0.105,NaN,2011.938,NaN,0.018,1.175e6,1298.633,0.202,0.665,0.429,0.329,0.215,0.12,NaN,NaN,NaN,NaN,NaN,NaN,NaN,NaN,6.302e-4,165,213.825,84,0,4.284,14.998,1013.212,340.388,0.01,0.031
1.24,0.372,5.006,36.977,5.033,37.181,0.039,0,0.039,0,0.526,3.886,22.175,120.893,9.788,42.792,0,0,0,2.76e4,1.31e4,19.81,0.105,NaN,2011.431,NaN,0.018,1.226e6,1294.965,0.245,0.662,0.479,0.327,0.215,0.12,NaN,NaN,NaN,NaN,NaN,NaN,NaN,NaN,6.804e-4,165,213.825,84,0,4.27,14.998,1013.206,340.387,0.01,0.031
1.25,0.424,5.375,36.892,5.404,37.095,0.045,0,0.045,0,0.565,3.877,22.175,120.893,9.788,40.482,0,0,0,2.757e4,1.307e4,19.801,0.105,NaN,2010.925,NaN,0.019,1.279e6,1291.53,0.293,0.659,0.526,0.324,0.215,0.12,NaN,NaN,NaN,NaN,NaN,NaN,NaN,NaN,7.305e-4,165,213.825,84,0,4.256,14.997,1013.2,340.387,0.01,0.031
1.26,0.479,5.742,36.804,5.774,37.007,0.05,0,0.05,0,0.604,3.868,22.175,120.893,9.788,38.467,0,0,0,2.755e4,1.305e4,19.792,0.105,NaN,2010.419,NaN,0.02,1.335e6,1288.052,0.343,0.657,0.565,0.321,0.215,0.12,NaN,NaN,NaN,NaN,NaN,NaN,NaN,NaN,7.805e-4,165,213.825,84,0,4.257,14.997,1013.194,340.387,0.01,0.031
1.27,0.538,6.109,36.692,6.143,36.894,0.057,0,0.057,0,0.642,3.856,22.175,120.893,9.788,36.621,0,0,0,2.753e4,1.303e4,19.783,0.105,NaN,2009.914,NaN,0.021,1.392e6,1283.912,0.396,0.654,0.6,0.319,0.215,0.12,NaN,NaN,NaN,NaN,NaN,NaN,NaN,NaN,8.304e-4,165,213.825,84,0,4.258,14.996,1013.187,340.387,0.01,0.031
1.28,0.601,6.476,36.659,6.511,36.861,0.063,0,0.063,0,0.681,3.853,22.175,120.893,9.788,34.926,0,0,0,2.75e4,1.3e4,19.774,0.105,NaN,2009.409,NaN,0.022,1.451e6,1281.967,0.453,0.652,0.632,0.316,0.215,0.12,NaN,NaN,NaN,NaN,NaN,NaN,NaN,NaN,8.802e-4,165,213.825,84,0,4.259,14.996,1013.179,340.387,0.01,0.032
1.29,0.668,6.841,36.576,6.879,36.777,0.07,0,0.07,0,0.719,3.844,22.175,120.893,9.788,33.366,0,0,0,2.748e4,1.298e4,19.765,0.105,NaN,2008.904,NaN,0.023,1.511e6,1278.651,0.512,0.649,0.659,0.314,0.215,0.12,NaN,NaN,NaN,NaN,NaN,NaN,NaN,NaN,9.299e-4,165,213.825,84,0,4.26,14.996,1013.172,340.386,0.01,0.032
1.3,0.738,7.206,36.534,7.246,36.735,0.078,0,0.078,0,0.757,3.84,22.175,120.893,9.788,31.928,0,0,0,2.746e4,1.296e4,19.756,0.105,NaN,2008.399,NaN,0.024,1.571e6,1276.485,0.574,0.647,0.683,0.312,0.215,0.12,NaN,NaN,NaN,NaN,NaN,NaN,NaN,NaN,9.795e-4,165,213.825,84,0,4.261,14.995,1013.163,340.386,0.01,0.032
1.31,0.812,7.571,36.529,7.613,36.73,0.085,0,0.085,0,0.796,3.839,22.175,120.893,9.788,30.815,0,0,0,2.743e4,1.293e4,19.747,0.105,NaN,2007.894,NaN,0.025,1.636e6,1275.318,0.638,0.644,0.7,0.309,0.215,0.12,NaN,NaN,NaN,NaN,NaN,NaN,NaN,NaN,0.001,165,213.825,84,0,4.297,14.995,1013.155,340.386,0.01,0.032
1.32,0.89,7.936,36.5,7.98,36.701,0.094,0,0.094,0,0.834,3.836,22.175,120.893,9.788,29.788,0,0,0,2.741e4,1.291e4,19.738,0.105,NaN,2007.388,NaN,0.025,1.701e6,1273.528,0.704,0.642,0.715,0.307,0.215,0.12,NaN,NaN,NaN,NaN,NaN,NaN,NaN,NaN,0.001,165,213.825,84,0,4.332,14.994,1013.146,340.385,0.01,0.032
1.33,0.971,8.302,36.55,8.347,36.751,0.102,0,0.102,0,0.873,3.842,22.175,120.893,9.788,28.835,0,0,0,2.739e4,1.289e4,19.729,0.105,NaN,2006.882,NaN,0.026,1.766e6,1273.891,0.773,0.64,0.727,0.305,0.215,0.12,NaN,NaN,NaN,NaN,NaN,NaN,NaN,NaN,0.001,165,213.825,84,0,4.368,14.994,1013.136,340.385,0.01,0.033
1.34,1.056,8.667,36.527,8.714,36.728,0.111,0,0.111,0,0.911,3.839,22.175,120.893,9.788,27.951,0,0,0,2.736e4,1.286e4,19.72,0.105,NaN,2006.376,NaN,0.027,1.832e6,1272.247,0.844,0.638,0.738,0.303,0.215,0.12,NaN,NaN,NaN,NaN,NaN,NaN,NaN,NaN,0.001,165,213.825,84,0,4.404,14.993,1013.126,340.385,0.01,0.033
1.35,1.144,9.032,36.537,9.082,36.738,0.12,0,0.12,0,0.949,3.84,22.175,120.893,9.788,27.128,0,0,0,2.734e4,1.284e4,19.711,0.105,NaN,2005.868,NaN,0.028,1.899e6,1271.517,0.918,0.636,0.748,0.301,0.215,0.12,NaN,NaN,NaN,NaN,NaN,NaN,NaN,NaN,0.001,165,213.825,84,0,4.44,14.993,1013.116,340.384,0.01,0.033
1.36,1.236,9.397,36.574,9.449,36.775,0.13,0,0.13,0,0.988,3.844,22.175,120.893,9.788,25.899,0,0,0,2.732e4,1.282e4,19.702,0.105,NaN,2005.361,NaN,0.029,1.96e6,1271.539,0.997,0.634,0.762,0.299,0.215,0.12,NaN,NaN,NaN,NaN,NaN,NaN,NaN,NaN,0.001,165,213.825,84,0,4.389,14.992,1013.105,340.384,0.01,0.033
1.37,1.332,9.763,36.589,9.817,36.791,0.14,0,0.14,0,1.026,3.846,22.175,120.893,9.788,24.744,0,0,0,2.729e4,1.279e4,19.693,0.105,NaN,2004.852,NaN,0.03,2.022e6,1270.983,1.078,0.632,0.774,0.297,0.215,0.12,NaN,NaN,NaN,NaN,NaN,NaN,NaN,NaN,0.001,165,213.825,84,0,4.339,14.991,1013.094,340.384,0.01,0.033
1.38,1.432,10.13,36.705,10.186,36.908,0.15,0,0.15,0,1.065,3.858,22.175,120.893,9.788,23.656,0,0,0,2.727e4,1.277e4,19.684,0.105,NaN,2004.342,NaN,0.031,2.085e6,1273.167,1.16,0.631,0.784,0.295,0.215,0.12,NaN,NaN,NaN,NaN,NaN,NaN,NaN,NaN,0.001,165,213.825,84,0,4.289,14.991,1013.082,340.383,0.01,0.033
1.39,1.535,10.497,36.746,10.555,36.948,0.161,0,0.161,0,1.103,3.862,22.175,120.893,9.788,22.631,0,0,0,2.725e4,1.275e4,19.675,0.105,NaN,2003.83,NaN,0.032,2.148e6,1273.278,1.244,0.629,0.792,0.294,0.215,0.12,NaN,NaN,NaN,NaN,NaN,NaN,NaN,NaN,0.001,165,213.825,84,0,4.239,14.99,1013.07,340.383,0.01,0.034
1.4,1.642,10.865,36.833,10.925,37.036,0.173,0,0.173,0,1.142,3.871,22.175,120.893,9.788,21.663,0,0,0,2.723e4,1.273e4,19.666,0.105,NaN,2003.318,NaN,0.033,2.213e6,1274.663,1.33,0.628,0.798,0.292,0.215,0.12,NaN,NaN,NaN,NaN,NaN,NaN,NaN,NaN,0.001,165,213.825,84,0,4.189,14.989,1013.057,340.382,0.01,0.034
1.41,1.752,11.235,36.94,11.297,37.143,0.184,0,0.184,0,1.181,3.883,22.175,120.893,9.788,21.101,0,0,0,2.72e4,1.27e4,19.657,0.105,NaN,2002.803,NaN,0.034,2.282e6,1276.588,1.418,0.626,0.799,0.291,0.215,0.12,NaN,NaN,NaN,NaN,NaN,NaN,NaN,NaN,0.002,165,213.825,84,0,4.212,14.989,1013.045,340.382,0.01,0.034
1.42,1.866,11.605,37.007,11.668,37.211,0.196,0,0.196,0,1.22,3.89,22.175,120.893,9.788,20.571,0,0,0,2.718e4,1.268e4,19.648,0.105,NaN,2002.288,NaN,0.035,2.351e6,1277.444,1.507,0.624,0.801,0.289,0.215,0.12,NaN,NaN,NaN,NaN,NaN,NaN,NaN,NaN,0.002,165,213.825,84,0,4.236,14.988,1013.031,340.382,0.01,0.034
1.43,1.984,11.976,37.143,12.042,37.347,0.209,0,0.209,0,1.259,3.904,22.175,120.893,9.788,20.068,0,0,0,2.716e4,1.266e4,19.639,0.105,NaN,2001.77,NaN,0.036,2.421e6,1280.14,1.601,0.623,0.802,0.288,0.215,0.12,NaN,NaN,NaN,NaN,NaN,NaN,NaN,NaN,0.002,165,213.825,84,0,4.26,14.987,1013.017,340.381,0.01,0.034
1.44,2.106,12.348,37.199,12.416,37.404,0.221,0,0.221,0,1.298,3.91,22.175,120.893,9.788,19.593,0,0,0,2.713e4,1.263e4,19.629,0.105,NaN,2001.252,NaN,0.037,2.491e6,1280.681,1.7,0.623,0.804,0.288,0.215,0.12,NaN,NaN,NaN,NaN,NaN,NaN,NaN,NaN,0.002,165,213.825,84,0,4.283,14.986,1013.003,340.381,0.01,0.035
1.45,2.231,12.72,37.308,12.791,37.514,0.234,0,0.234,0,1.337,3.921,22.175,120.893,9.788,19.143,0,0,0,2.711e4,1.261e4,19.62,0.105,NaN,2000.731,NaN,0.038,2.561e6,1282.653,1.801,0.623,0.806,0.288,0.215,0.12,NaN,NaN,NaN,NaN,NaN,NaN,NaN,NaN,0.002,165,213.825,84,0,4.307,14.985,1012.988,340.38,0.01,0.035
1.46,2.36,13.095,37.426,13.167,37.632,0.248,0,0.248,0,1.376,3.934,22.175,120.893,9.788,18.849,0,0,0,2.709e4,1.259e4,19.611,0.104,NaN,2000.209,NaN,0.039,2.634e6,1284.861,1.907,0.623,0.807,0.288,0.215,0.12,NaN,NaN,NaN,NaN,NaN,NaN,NaN,NaN,0.002,165,213.825,84,0,4.363,14.985,1012.973,340.38,0.01,0.035
1.47,2.493,13.469,37.478,13.543,37.685,0.262,0,0.262,0,1.416,3.939,22.175,120.893,9.788,18.57,0,0,0,2.706e4,1.256e4,19.602,0.104,NaN,1999.686,NaN,0.041,2.706e6,1285.292,2.015,0.623,0.808,0.288,0.215,0.12,NaN,NaN,NaN,NaN,NaN,NaN,NaN,NaN,0.002,165,213.825,84,0,4.419,14.984,1012.958,340.379,0.01,0.035
1.48,2.63,13.845,37.6,13.921,37.807,0.276,0,0.276,0,1.455,3.952,22.175,120.893,9.788,18.304,0,0,0,2.704e4,1.254e4,19.592,0.104,NaN,1999.161,NaN,0.042,2.779e6,1287.587,2.126,0.623,0.809,0.288,0.215,0.12,NaN,NaN,NaN,NaN,NaN,NaN,NaN,NaN,0.002,165,213.825,84,0,4.475,14.983,1012.942,340.379,0.01,0.035
1.49,2.77,14.221,37.645,14.3,37.853,0.291,0,0.291,0,1.495,3.957,22.175,120.893,9.788,18.051,0,0,0,2.702e4,1.252e4,19.583,0.104,NaN,1998.635,NaN,0.043,2.851e6,1287.832,2.241,0.623,0.809,0.288,0.215,0.12,NaN,NaN,NaN,NaN,NaN,NaN,NaN,NaN,0.002,165,213.825,84,0,4.531,14.982,1012.925,340.378,0.01,0.035
1.5,2.914,14.598,37.715,14.679,37.923,0.306,0,0.306,0,1.534,3.964,22.175,120.893,9.788,17.809,0,0,0,2.699e4,1.249e4,19.574,0.104,NaN,1998.108,NaN,0.044,2.924e6,1288.735,2.358,0.623,0.81,0.288,0.215,0.12,NaN,NaN,NaN,NaN,NaN,NaN,NaN,NaN,0.002,165,213.825,84,0,4.587,14.981,1012.908,340.377,0.01,0.036
1.51,3.062,14.976,37.797,15.058,38.005,0.322,0,0.322,0,1.574,3.973,22.175,120.893,9.788,17.335,0,0,0,2.697e4,1.247e4,19.564,0.104,NaN,1997.579,NaN,0.045,2.995e6,1289.948,2.475,0.623,0.81,0.288,0.215,0.12,NaN,NaN,NaN,NaN,NaN,NaN,NaN,NaN,0.002,165,213.825,84,0,4.576,14.98,1012.891,340.377,0.01,0.036
1.52,3.213,15.354,37.813,15.439,38.021,0.338,0,0.338,0,1.614,3.974,22.175,120.893,9.788,16.882,0,0,0,2.695e4,1.244e4,19.555,0.104,NaN,1997.049,NaN,0.046,3.066e6,1289.376,2.594,0.623,0.81,0.288,0.215,0.12,NaN,NaN,NaN,NaN,NaN,NaN,NaN,NaN,0.002,165,213.825,84,0,4.566,14.979,1012.873,340.376,0.01,0.036
1.53,3.369,15.733,37.953,15.82,38.162,0.354,0,0.354,0,1.654,3.989,22.175,120.893,9.788,16.449,0,0,0,2.692e4,1.242e4,19.546,0.104,NaN,1996.518,NaN,0.047,3.137e6,1292.164,2.714,0.623,0.81,0.288,0.215,0.12,NaN,NaN,NaN,NaN,NaN,NaN,NaN,NaN,0.002,165,213.825,84,0,4.555,14.978,1012.855,340.376,0.01,0.036
1.54,3.528,16.113,38.023,16.202,38.232,0.371,0,0.371,0,1.694,3.996,22.175,120.893,9.788,16.034,0,0,0,2.69e4,1.24e4,19.536,0.104,NaN,1995.985,NaN,0.048,3.208e6,1293.051,2.835,0.623,0.809,0.288,0.215,0.12,NaN,NaN,NaN,NaN,NaN,NaN,NaN,NaN,0.002,165,213.825,84,0,4.545,14.977,1012.836,340.375,0.01,0.036
1.55,3.691,16.494,38.128,16.585,38.338,0.388,0,0.388,0,1.734,4.007,22.175,120.893,9.788,15.636,0,0,0,2.687e4,1.237e4,19.527,0.104,NaN,1995.451,NaN,0.049,3.28e6,1294.89,2.958,0.623,0.807,0.288,0.215,0.12,NaN,NaN,NaN,NaN,NaN,NaN,NaN,NaN,0.002,165,213.825,84,0,4.534,14.976,1012.817,340.374,0.01,0.037
1.56,3.858,16.877,38.253,16.97,38.464,0.405,0,0.405,0,1.774,4.021,22.175,120.893,9.788,15.294,0,0,0,2.685e4,1.235e4,19.517,0.104,NaN,1994.914,NaN,0.05,3.353e6,1297.251,3.083,0.623,0.805,0.288,0.215,0.12,NaN,NaN,NaN,NaN,NaN,NaN,NaN,NaN,0.002,165,213.825,84,0,4.536,14.975,1012.798,340.374,0.01,0.037
1.57,4.029,17.259,38.273,17.354,38.484,0.423,0,0.423,0,1.814,4.023,22.175,120.893,9.788,14.967,0,0,0,2.683e4,1.233e4,19.508,0.104,NaN,1994.377,NaN,0.051,3.426e6,1296.778,3.21,0.623,0.803,0.288,0.215,0.12,NaN,NaN,NaN,NaN,NaN,NaN,NaN,NaN,0.002,165,213.825,84,0,4.537,14.974,1012.777,340.373,0.01,0.037
1.585,4.292,17.832,38.225,17.933,38.646,0.451,1.14e-8,0.451,1.447e-6,1.899,5.693,22.175,120.893,9.788,14.423,0,0.021,-4.182e-6,2.679e4,1.229e4,19.493,0.104,2024.563,1993.568,0.188,0.053,3.534e6,1298.654,3.399,0.624,0.799,0.288,0.215,0.12,4.067,0.764,1.156e-4,0,0,0,0,1.561e-6,0.002,165,213.825,84,-1.33e-7,4.54,14.972,1012.747,340.372,0.015,0.037
1.608,4.703,18.696,38.426,18.805,38.85,0.495,7.282e-8,0.495,8.421e-6,2.028,5.724,22.175,120.893,9.788,13.617,0,0.062,-7.45e-6,2.674e4,1.224e4,19.472,0.104,2033.488,1992.348,0.249,0.055,3.698e6,1301.804,3.686,0.624,0.791,0.288,0.215,0.12,3.769,0.94,-1.041e-5,0,0,0,0,1.259e-5,0.003,165,213.825,84.001,-1.27e-6,4.529,14.969,1012.698,340.37,0.023,0.037
1.641,5.356,20.002,38.763,20.125,39.189,0.567,2.713e-7,0.567,2.741e-5,2.222,5.763,22.175,120.893,9.788,12.396,0,0.149,-1.348e-5,2.666e4,1.216e4,19.439,0.104,2047.842,1990.501,0.348,0.059,3.946e6,1307.398,4.12,0.624,0.777,0.288,0.215,0.12,3.331,1.157,-3.845e-4,0,0,0,0,6.283e-5,0.003,165,213.825,84.005,-5.619e-6,4.466,14.965,1012.622,340.368,0.034,0.037
1.691,6.405,21.956,39.185,22.099,39.614,0.686,8.21e-7,0.686,6.862e-5,2.512,5.815,22.175,120.893,9.788,10.969,0,0.328,5.864e-6,2.654e4,1.204e4,19.39,0.104,2065.978,1987.731,0.474,0.065,4.32e6,1313.533,4.813,0.624,0.757,0.288,0.215,0.121,2.844,1.348,-4.971e-4,0,0,0,0,2.55e-4,0.003,165,213.825,84.016,-1.122e-5,4.427,14.958,1012.499,340.364,0.05,0.038
1.741,7.552,23.939,39.775,24.103,40.198,0.818,1.708e-6,0.818,1.196e-4,2.804,5.818,22.175,120.893,9.788,9.136,0,0.568,1.78e-5,2.642e4,1.192e4,19.34,0.104,2091.701,1984.915,0.647,0.07,4.699e6,1323.765,5.477,0.624,0.728,0.288,0.216,0.121,2.256,1.459,-4.583e-4,0,0,0,0,6.447e-4,0.003,165,213.825,84.038,-1.699e-5,4.132,14.951,1012.364,340.359,0.05,0.038
1.791,8.799,25.955,40.411,26.139,40.832,0.966,2.967e-6,0.966,1.76e-4,3.097,5.845,22.175,120.893,9.788,7.918,0,0.861,-3.822e-5,2.63e4,1.18e4,19.29,0.103,2110.492,1982.048,0.778,0.076,5.09e6,1335.184,6.249,0.624,0.708,0.288,0.216,0.121,1.889,1.47,-3.593e-4,0,0,0,0,0.001,0.004,165,213.825,84.074,-1.246e-5,4,14.943,1012.218,340.354,0.05,0.038
1.841,10.148,28.004,41.092,28.209,41.511,1.128,4.638e-6,1.128,2.355e-4,3.391,5.879,22.175,120.893,9.788,7.055,0,1.203,3.613e-5,2.617e4,1.167e4,19.238,0.103,2124.738,1979.127,0.882,0.082,5.489e6,1347.677,7.127,0.624,0.694,0.288,0.216,0.121,1.642,1.447,-2.677e-4,0,0,0,0,0.002,0.004,165,213.825,84.125,-1.155e-6,3.968,14.934,1012.06,340.349,0.05,0.038
1.891,11.601,30.094,41.898,30.319,42.321,1.305,6.757e-6,1.305,2.966e-4,3.689,5.97,22.175,120.893,9.788,6.813,0,1.596,-4.808e-5,2.605e4,1.155e4,19.185,0.103,2128.925,1976.143,0.926,0.088,5.898e6,1363.475,8.184,0.624,0.691,0.288,0.216,0.121,1.574,1.454,4.106e-4,0,0,0,0,0.003,0.004,165,213.825,84.195,1.135e-5,4.218,14.925,1011.889,340.343,0.05,0.038
1.941,13.158,32.217,42.576,32.463,42.988,1.497,9.363e-6,1.497,3.583e-4,3.988,5.936,22.175,120.893,9.788,5.915,0,2.044,-3.918e-5,2.593e4,1.143e4,19.132,0.103,2144.876,1973.105,1.041,0.095,6.312e6,1375.364,9.19,0.625,0.677,0.288,0.216,0.121,1.331,1.381,-2.753e-4,0,0,0,0,0.005,0.004,165,213.825,84.286,1.133e-5,4.101,14.914,1011.707,340.337,0.05,0.039
1.991,14.823,34.378,43.347,34.644,43.744,1.704,1.249e-5,1.704,4.2e-4,4.285,5.877,22.175,120.893,9.788,5.087,0,2.52,1.822e-5,2.58e4,1.13e4,19.077,0.103,2160.46,1970.006,1.154,0.101,6.735e6,1389.417,10.283,0.625,0.665,0.288,0.216,0.121,1.115,1.281,-1.049e-4,0,0,0,0,0.006,0.005,165,213.825,84.4,3.935e-5,3.977,14.904,1011.511,340.331,0.05,0.039
2.041,16.597,36.591,44.38,36.876,44.751,1.926,1.618e-5,1.926,4.815e-4,4.578,5.749,22.175,120.893,9.788,3.96,0,3.01,-2.223e-5,2.567e4,1.117e4,19.021,0.102,2183.117,1966.831,1.311,0.108,7.17e6,1409.711,11.404,0.625,0.651,0.288,0.216,0.122,0.837,1.09,-2.687e-5,0,0,0,0,0.008,0.005,165,213.825,84.538,5.894e-5,3.619,14.892,1011.303,340.324,0.05,0.039
2.091,18.483,38.849,45.291,39.153,45.638,2.162,2.047e-5,2.162,5.426e-4,4.863,5.612,22.175,120.893,9.788,3.172,3.602e-7,3.472,-6.596e-5,2.554e4,1.104e4,18.964,0.102,2200.076,1963.584,1.433,0.114,7.614e6,1426.753,12.696,0.625,0.643,0.287,0.216,0.122,0.653,0.927,-2.864e-4,0,0,0,0,0.009,0.005,165,213.825,84.7,5.889e-5,3.419,14.88,1011.082,340.316,0.05,0.039
2.141,20.483,41.139,45.922,41.459,46.246,2.412,2.539e-5,2.412,6.032e-4,5.141,5.467,22.175,120.893,9.788,2.737,0,3.929,4.491e-5,2.541e4,1.091e4,18.906,0.102,2209.888,1960.282,1.513,0.121,8.063e6,1436.554,14.154,0.626,0.639,0.287,0.216,0.122,0.556,0.83,1.791e-4,0,0,0,0,0.01,0.006,165,213.825,84.885,9.133e-5,3.432,14.867,1010.848,340.308,0.05,0.039
2.191,22.598,43.465,46.632,43.801,46.939,2.676,3.098e-5,2.676,6.633e-4,5.413,5.356,22.175,120.893,9.788,2.611,0,4.406,-1.258e-4,2.528e4,1.078e4,18.847,0.102,2212.833,1956.918,1.551,0.128,8.516e6,1448.404,15.775,0.626,0.638,0.287,0.216,0.122,0.528,0.807,-1.531e-4,0,0,0,0,0.012,0.006,165,213.825,85.093,1.34e-4,3.671,14.853,1010.6,340.3,0.05,0.039
2.241,24.83,45.828,47.39,46.178,47.673,2.953,3.726e-5,2.953,7.23e-4,5.678,5.189,22.175,120.893,9.788,2.371,-9.32e-7,4.921,-4.381e-4,2.515e4,1.065e4,18.787,0.102,2218.483,1953.489,1.606,0.135,8.978e6,1461.178,17.488,0.626,0.636,0.287,0.217,0.122,0.476,0.75,2.359e-4,0,0,0,0,0.013,0.006,165,213.825,85.327,2.042e-4,3.835,14.839,1010.338,340.291,0.05,0.04
2.291,27.181,48.218,47.934,48.581,48.186,3.243,4.429e-5,3.243,7.825e-4,5.931,4.928,22.175,120.893,9.788,1.979,8.887e-7,5.432,-1.908e-4,2.501e4,1.051e4,18.726,0.101,2227.846,1950.006,1.684,0.142,9.446e6,1468.288,19.282,0.627,0.634,0.287,0.217,0.123,0.392,0.645,3.256e-4,0,0,0,0,0.015,0.007,165,213.825,85.585,2.829e-4,3.881,14.823,1010.062,340.282,0.05,0.04
2.341,29.652,50.614,48.052,50.989,48.27,3.546,5.21e-5,3.546,8.419e-4,6.169,4.583,22.175,120.893,9.788,1.565,-1.561e-6,5.904,-7.381e-4,2.488e4,1.038e4,18.664,0.101,2238.049,1946.495,1.767,0.149,9.914e6,1464.702,21.172,0.627,0.632,0.287,0.217,0.123,0.305,0.523,2.852e-4,0,0,0,0,0.016,0.007,165,213.825,85.869,4.025e-4,3.9,14.807,1009.772,340.272,0.05,0.04
2.391,32.243,53.015,48.152,53.398,48.327,3.86,6.073e-5,3.86,9.015e-4,6.386,4.103,22.175,120.893,9.788,0.829,0,6.274,-7.619e-4,2.475e4,1.025e4,18.602,0.101,2256.872,1942.956,1.903,0.156,1.039e7,1460.577,23.136,0.627,0.629,0.287,0.217,0.123,0.157,0.283,2.816e-4,0,0,0,0,0.016,0.007,165,213.825,86.174,5.48e-4,3.61,14.79,1009.468,340.262,0.05,0.04
2.441,34.954,55.423,48.294,55.813,48.431,4.184,7.022e-5,4.184,9.615e-4,6.58,3.633,22.175,120.893,9.788,0.262,0,6.441,-0.004,2.461e4,1.011e4,18.539,0.101,2272.106,1939.385,2.016,0.163,1.086e7,1457.734,25.261,0.628,0.628,0.287,0.217,0.123,0.049,0.082,3.884e-4,0,0,0,0,0.015,0.008,165,213.825,86.492,7.991e-4,3.436,14.773,1009.15,340.251,0.05,0.04
2.491,37.785,57.818,48.011,58.21,48.113,4.517,8.061e-5,4.517,0.001,6.748,3.135,22.175,120.893,9.788,0.224,-6.052e-7,-6.431,-0.004,2.448e4,9982.7,18.477,0.101,2273.281,1935.809,2.045,0.17,1.133e7,1444.705,27.51,0.628,0.628,0.287,0.217,0.124,0.042,0.099,-1.376e-4,0,0,0,0,-0.014,0.008,165,213.825,86.815,9.372e-4,3.304,14.754,1008.818,340.24,0.05,0.041
2.541,40.735,60.211,47.987,60.605,48.063,4.858,9.193e-5,4.858,0.001,6.893,2.692,22.175,120.893,9.788,0.531,6.653e-7,-6.24,-0.002,2.435e4,9851.919,18.414,0.1,2265.088,1932.21,2.017,0.177,1.179e7,1438.362,29.868,0.629,0.629,0.287,0.218,0.124,0.1,0.214,3.099e-4,0,0,0,0,-0.012,0.008,165,213.825,87.132,0.001,3.316,14.735,1008.472,340.228,0.05,0.041
2.591,43.806,62.598,47.834,62.989,47.887,5.206,1.042e-4,5.206,0.001,7.016,2.25,22.175,120.893,9.788,0.8,-1.347e-6,-5.906,-0.001,2.422e4,9721.977,18.351,0.1,2258.111,1928.595,1.997,0.184,1.226e7,1429.136,32.328,0.629,0.63,0.287,0.218,0.124,0.152,0.314,-4.905e-4,0,0,0,0,-0.01,0.009,165,213.825,87.437,0.002,3.336,14.715,1008.112,340.216,0.05,0.041
2.641,46.996,64.999,48.141,65.388,48.178,5.56,1.174e-4,5.56,0.001,7.12,1.902,22.175,120.893,9.788,0.904,8.869e-7,-5.438,-0.001,2.409e4,9591.843,18.287,0.1,2255.536,1924.936,2.004,0.191,1.272e7,1431.244,34.878,0.63,0.631,0.287,0.218,0.125,0.172,0.354,-8.575e-5,0,0,0,0,-0.008,0.009,165,213.825,87.721,0.002,3.503,14.695,1007.738,340.204,0.05,0.041
2.691,50.306,67.411,48.338,67.795,48.361,5.918,1.317e-4,5.918,0.001,7.204,1.486,22.175,120.893,9.788,1.166,1.27e-6,-4.853,-0.001,2.396e4,9461.748,18.222,0.1,2248.955,1921.238,1.986,0.198,1.319e7,1430.823,37.592,0.63,0.633,0.287,0.218,0.125,0.225,0.452,9.929e-5,0,0,0,0,-0.006,0.009,165,213.825,87.978,0.003,3.45,14.673,1007.35,340.191,0.05,0.041
2.741,53.737,69.839,48.68,70.217,48.695,6.28,1.47e-4,6.28,0.001,7.271,1.2,22.175,120.893,9.788,1.213,0,-4.094,-0.001,2.383e4,9331.363,18.157,0.1,2247.918,1917.492,2.003,0.206,1.366e7,1433.995,40.369,0.631,0.633,0.287,0.218,0.125,0.234,0.472,-3.23e-4,0,0,0,0,-0.004,0.009,165,213.825,88.202,0.004,3.597,14.651,1006.948,340.177,0.05,0.041
2.791,57.29,72.294,49.199,72.664,49.208,6.645,1.635e-4,6.645,0.001,7.324,0.918,22.175,120.893,9.788,1.315,1.644e-6,-3.256,-0.001,2.37e4,9200.305,18.091,0.099,2245.499,1913.685,2.011,0.213,1.414e7,1441.415,43.305,0.631,0.634,0.287,0.219,0.126,0.255,0.515,4.48e-4,0,0,0,0,-0.002,0.01,165,213.825,88.387,0.005,3.626,14.628,1006.531,340.163,0.05,0.042
2.841,60.967,74.772,49.654,75.133,49.658,7.012,1.812e-4,7.012,0.001,7.363,0.617,22.175,120.893,9.788,1.498,9.424e-7,-2.238,-0.001,2.357e4,9068.707,18.023,0.099,2241.089,1909.819,2.008,0.22,1.462e7,1447.346,46.422,0.632,0.636,0.286,0.219,0.126,0.292,0.588,-1.921e-4,0,0,0,0,-0.001,0.01,165,213.825,88.524,0.007,3.478,14.604,1006.1,340.149,0.05,0.042
2.891,64.767,77.251,49.675,77.603,49.679,7.381,2.002e-4,7.381,0.002,7.391,0.57,22.175,120.893,9.787,1.342,0,-1.095,-4.822e-4,2.344e4,8937.495,17.955,0.099,2245.153,1905.922,2.056,0.227,1.509e7,1443.113,49.496,0.632,0.636,0.286,0.219,0.127,0.26,0.535,-3.208e-4,0,0,0,0,-2.301e-4,0.01,165,213.825,88.608,0.009,3.701,14.579,1005.654,340.134,0.05,0.042
2.941,68.692,79.722,49.533,80.067,49.537,7.751,2.207e-4,7.751,0.002,7.42,0.601,22.175,120.893,9.787,1.168,0,-0.037,-9.979e-4,2.331e4,8806.998,17.887,0.099,2249.737,1902.002,2.107,0.235,1.557e7,1435.232,52.661,0.633,0.635,0.286,0.219,0.127,0.225,0.475,4.881e-4,0,0,0,0,-2.409e-7,0.011,165,213.825,88.636,0.011,3.895,14.554,1005.194,340.118,0.05,0.042
2.991,72.74,82.209,49.831,82.546,49.836,8.123,2.428e-4,8.123,0.002,7.453,0.725,22.175,120.893,9.787,0.973,0,0.959,-0.002,2.318e4,8676.274,17.818,0.099,2254.911,1898.031,2.163,0.242,1.605e7,1437.734,55.95,0.634,0.635,0.286,0.22,0.128,0.186,0.403,-4.484e-5,0,0,0,0,1.562e-4,0.011,165,213.825,88.612,0.014,4.064,14.527,1004.719,340.102,0.05,0.042
3.041,76.913,84.723,50.361,85.053,50.37,8.497,2.669e-4,8.497,0.002,7.495,0.959,22.175,120.893,9.787,0.728,2.953e-7,1.822,-9.65e-4,2.305e4,8544.831,17.748,0.098,2261.491,1893.993,2.227,0.249,1.653e7,1445.651,59.373,0.634,0.635,0.286,0.22,0.128,0.138,0.307,-2.796e-4,0,0,0,0,5.307e-4,0.011,165,213.825,88.542,0.017,4.261,14.5,1004.229,340.086,0.05,0.043
