# Time (s),Altitude (m),Vertical velocity (m/s),Vertical acceleration (m/s²),Total velocity (m/s),Total acceleration (m/s²),Position East of launch (m),Position North of launch (m),Lateral distance (m),Lateral direction (°),Lateral velocity (m/s),Lateral acceleration (m/s²),Latitude (°),Longitude (°),Gravitational acceleration (m/s²),Angle of attack (°),Roll rate (°/s),Pitch rate (°/s),Yaw rate (°/s),Mass (g),Motor mass (g),Longitudinal moment of inertia (kg·m²),Rotational moment of inertia (kg·m²),CP location (mm),CG location (mm),Stability margin calibers (​),Mach number (​),Reynolds number (​),Thrust (N),Drag force (N),Drag coefficient (​),Axial drag coefficient (​),Friction drag coefficient (​),Pressure drag coefficient (​),Base drag coefficient (​),Normal force coefficient (​),Pitch moment coefficient (​),Yaw moment coefficient (​),Side force coefficient (​),Roll moment coefficient (​),Roll forcing coefficient (​),Roll damping coefficient (​),Pitch damping coefficient (​),Coriolis acceleration (m/s²),Reference length (mm),Reference area (cm²),Vertical orientation (zenith) (°),Lateral orientation (azimuth) (°),Wind velocity (m/s),Air temperature (°C),Air pressure (mbar),Speed of sound (m/s),Simulation time step (s),Computation time (s)
0.01,-4.757e-4,-0.095,-9.511,0.096,9.563,-5e-5,0,5e-5,180,0.01,1,22.175,120.893,9.788,91.383,0,0,0,2.8e4,1.35e4,19.963,0.106,NaN,2019.994,NaN,0.012,7.77e5,4.784,-4.966e-6,0.693,-2.416e-5,0.358,0.215,0.12,NaN,NaN,NaN,NaN,NaN,NaN,NaN,NaN,1.293e-5,165,213.825,84,0,3.961,15,1013.25,340.389,0.01,0.001
0.02,-4.761e-4,-0.095,-9.522,0.096,9.575,-5.004e-5,0,5.004e-5,180,0.01,1.001,22.175,120.893,9.788,91.388,0,0,0,2.8e4,1.35e4,19.963,0.106,NaN,2019.992,NaN,0.012,7.753e5,4.461,-4.996e-6,0.693,-2.441e-5,0.358,0.215,0.12,NaN,NaN,NaN,NaN,NaN,NaN,NaN,NaN,1.294e-5,165,213.825,84,0,3.952,15,1013.25,340.389,0.01,0.001
0.03,-4.763e-4,-0.095,-9.526,0.096,9.579,-5.006e-5,0,5.006e-5,180,0.01,1.001,22.175,120.893,9.788,91.391,0,0,0,2.8e4,1.35e4,19.963,0.106,NaN,2019.991,NaN,0.012,7.736e5,4.343,-5.015e-6,0.693,-2.461e-5,0.358,0.215,0.12,NaN,NaN,NaN,NaN,NaN,NaN,NaN,NaN,1.295e-5,165,213.825,84,0,3.944,15,1013.25,340.389,0.01,0.002
0.04,-4.765e-4,-0.095,-9.53,0.096,9.582,-5.008e-5,0,5.008e-5,180,0.01,1.002,22.175,120.893,9.788,91.395,0,0,0,2.8e4,1.35e4,19.963,0.106,NaN,2019.989,NaN,0.012,7.719e5,4.249,-5.032e-6,0.693,-2.48e-5,0.358,0.215,0.12,NaN,NaN,NaN,NaN,NaN,NaN,NaN,NaN,1.295e-5,165,213.825,84,0,3.935,15,1013.25,340.389,0.01,0.002
0.05,-4.761e-4,-0.095,-9.523,0.096,9.575,-5.005e-5,0,5.005e-5,180,0.01,1.001,22.175,120.893,9.788,91.397,0,0,0,2.8e4,1.35e4,19.963,0.106,NaN,2019.988,NaN,0.012,7.702e5,4.443,-5.034e-6,0.694,-2.492e-5,0.358,0.215,0.12,NaN,NaN,NaN,NaN,NaN,NaN,NaN,NaN,1.294e-5,165,213.825,84,0,3.926,15,1013.25,340.389,0.01,0.002
0.06,-4.757e-4,-0.095,-9.514,0.096,9.567,-5e-5,0,5e-5,180,0.01,1,22.175,120.893,9.788,91.369,0,0,0,2.8e4,1.35e4,19.963,0.106,NaN,2019.986,NaN,0.012,7.853e5,4.681,-4.915e-6,0.692,-2.341e-5,0.357,0.215,0.12,NaN,NaN,NaN,NaN,NaN,NaN,NaN,NaN,1.293e-5,165,213.825,84,0,4.003,15,1013.25,340.389,0.01,0.002
0.07,-4.762e-4,-0.095,-9.523,0.096,9.576,-5.005e-5,0,5.005e-5,180,0.01,1.001,22.175,120.893,9.788,91.345,0,0,0,2.8e4,1.35e4,19.963,0.106,NaN,2019.984,NaN,0.012,8.003e5,4.438,-4.828e-6,0.691,-2.214e-5,0.356,0.215,0.12,NaN,NaN,NaN,NaN,NaN,NaN,NaN,NaN,1.294e-5,165,213.825,84,0,4.08,15,1013.25,340.389,0.01,0.002
0.08,-4.761e-4,-0.095,-9.522,0.096,9.574,-5.004e-5,0,5.004e-5,180,0.01,1.001,22.175,120.893,9.788,91.32,0,0,0,2.8e4,1.35e4,19.963,0.106,NaN,2019.982,NaN,0.012,8.154e5,4.479,-4.728e-6,0.689,-2.089e-5,0.354,0.215,0.12,NaN,NaN,NaN,NaN,NaN,NaN,NaN,NaN,1.294e-5,165,213.825,84,0,4.156,15,1013.25,340.389,0.01,0.003
0.09,-4.759e-4,-0.095,-9.517,0.096,9.57,-5.002e-5,0,5.002e-5,180,0.01,1,22.175,120.893,9.788,91.295,0,0,0,2.8e4,1.35e4,19.963,0.106,NaN,2019.981,NaN,0.012,8.304e5,4.603,-4.629e-6,0.688,-1.971e-5,0.353,0.215,0.12,NaN,NaN,NaN,NaN,NaN,NaN,NaN,NaN,1.294e-5,165,213.825,84,0,4.233,15,1013.25,340.389,0.01,0.003
0.1,-4.764e-4,-0.095,-9.527,0.096,9.58,-5.007e-5,0,5.007e-5,180,0.01,1.001,22.175,120.893,9.788,91.273,0,0,0,2.8e4,1.35e4,19.963,0.106,NaN,2019.979,NaN,0.013,8.455e5,4.315,-4.553e-6,0.687,-1.871e-5,0.352,0.215,0.12,NaN,NaN,NaN,NaN,NaN,NaN,NaN,NaN,1.295e-5,165,213.825,84,0,4.31,15,1013.25,340.389,0.01,0.003
0.11,-4.762e-4,-0.095,-9.523,0.096,9.576,-5.005e-5,0,5.005e-5,180,0.01,1.001,22.175,120.893,9.788,91.287,0,0,0,2.8e4,1.35e4,19.963,0.106,NaN,2019.977,NaN,0.013,8.364e5,4.431,-4.601e-6,0.688,-1.932e-5,0.352,0.215,0.12,NaN,NaN,NaN,NaN,NaN,NaN,NaN,NaN,1.294e-5,165,213.825,84,0,4.264,15,1013.25,340.389,0.01,0.003
0.12,-4.762e-4,-0.095,-9.523,0.096,9.576,-5.005e-5,0,5.005e-5,180,0.01,1.001,22.175,120.893,9.788,91.301,0,0,0,2.8e4,1.35e4,19.962,0.106,NaN,2019.976,NaN,0.012,8.273e5,4.436,-4.656e-6,0.688,-1.998e-5,0.353,0.215,0.12,NaN,NaN,NaN,NaN,NaN,NaN,NaN,NaN,1.294e-5,165,213.825,84,0,4.218,15,1013.25,340.389,0.01,0.003
0.13,-4.758e-4,-0.095,-9.517,0.096,9.569,-5.001e-5,0,5.001e-5,180,0.01,1,22.175,120.893,9.788,91.314,0,0,0,2.8e4,1.35e4,19.962,0.106,NaN,2019.974,NaN,0.012,8.183e5,4.62,-4.703e-6,0.689,-2.062e-5,0.354,0.215,0.12,NaN,NaN,NaN,NaN,NaN,NaN,NaN,NaN,1.294e-5,165,213.825,84,0,4.171,15,1013.25,340.389,0.01,0.004
0.14,-4.762e-4,-0.095,-9.524,0.096,9.577,-5.005e-5,0,5.005e-5,180,0.01,1.001,22.175,120.893,9.788,91.33,0,0,0,2.8e4,1.35e4,19.962,0.106,NaN,2019.972,NaN,0.012,8.092e5,4.404,-4.771e-6,0.69,-2.14e-5,0.355,0.215,0.12,NaN,NaN,NaN,NaN,NaN,NaN,NaN,NaN,1.295e-5,165,213.825,84,0,4.125,15,1013.25,340.389,0.01,0.004
0.15,-4.761e-4,-0.095,-9.523,0.096,9.575,-5.004e-5,0,5.004e-5,180,0.01,1.001,22.175,120.893,9.788,91.345,0,0,0,2.8e4,1.35e4,19.962,0.106,NaN,2019.97,NaN,0.012,8.002e5,4.444,-4.828e-6,0.691,-2.215e-5,0.356,0.215,0.12,NaN,NaN,NaN,NaN,NaN,NaN,NaN,NaN,1.294e-5,165,213.825,84,0,4.079,15,1013.25,340.389,0.01,0.004
0.16,-4.758e-4,-0.095,-9.516,0.096,9.568,-5.001e-5,0,5.001e-5,180,0.01,1,22.175,120.893,9.788,91.347,0,0,0,2.8e4,1.35e4,19.962,0.106,NaN,2019.969,NaN,0.012,7.981e5,4.651,-4.831e-6,0.691,-2.227e-5,0.356,0.215,0.12,NaN,NaN,NaN,NaN,NaN,NaN,NaN,NaN,1.293e-5,165,213.825,84,0,4.068,15,1013.25,340.389,0.01,0.004
0.17,-4.765e-4,-0.095,-9.531,0.096,9.583,-5.009e-5,0,5.009e-5,180,0.01,1.002,22.175,120.893,9.788,91.353,0,0,0,2.8e4,1.35e4,19.962,0.106,NaN,2019.967,NaN,0.012,7.96e5,4.218,-4.868e-6,0.691,-2.256e-5,0.356,0.215,0.12,NaN,NaN,NaN,NaN,NaN,NaN,NaN,NaN,1.295e-5,165,213.825,84,0,4.058,15,1013.25,340.389,0.01,0.004
0.18,-4.765e-4,-0.095,-9.531,0.096,9.583,-5.009e-5,0,5.009e-5,180,0.01,1.002,22.175,120.893,9.788,91.356,0,0,0,2.8e4,1.35e4,19.962,0.106,NaN,2019.965,NaN,0.012,7.94e5,4.225,-4.881e-6,0.691,-2.274e-5,0.356,0.215,0.12,NaN,NaN,NaN,NaN,NaN,NaN,NaN,NaN,1.295e-5,165,213.825,84,0,4.047,15,1013.25,340.389,0.01,0.005
0.19,-4.764e-4,-0.095,-9.527,0.096,9.58,-5.007e-5,0,5.007e-5,180,0.01,1.001,22.175,120.893,9.788,91.359,0,0,0,2.8e4,1.35e4,19.962,0.106,NaN,2019.964,NaN,0.012,7.919e5,4.321,-4.89e-6,0.692,-2.29e-5,0.356,0.215,0.12,NaN,NaN,NaN,NaN,NaN,NaN,NaN,NaN,1.295e-5,165,213.825,84,0,4.037,15,1013.25,340.389,0.01,0.005
0.2,-4.766e-4,-0.095,-9.532,0.096,9.585,-5.01e-5,0,5.01e-5,180,0.01,1.002,22.175,120.893,9.788,91.364,0,0,0,2.8e4,1.35e4,19.962,0.106,NaN,2019.962,NaN,0.012,7.899e5,4.174,-4.912e-6,0.692,-2.312e-5,0.357,0.215,0.12,NaN,NaN,NaN,NaN,NaN,NaN,NaN,NaN,1.296e-5,165,213.825,84,0,4.026,15,1013.25,340.389,0.01,0.005
0.21,-4.763e-4,-0.095,-9.525,0.096,9.578,-5.006e-5,0,5.006e-5,180,0.01,1.001,22.175,120.893,9.788,91.357,0,0,0,2.8e4,1.35e4,19.962,0.106,NaN,2019.961,NaN,0.012,7.929e5,4.381,-4.88e-6,0.691,-2.279e-5,0.356,0.215,0.12,NaN,NaN,NaN,NaN,NaN,NaN,NaN,NaN,1.295e-5,165,213.825,84,0,4.042,15,1013.25,340.389,0.01,0.005
0.22,-4.758e-4,-0.095,-9.515,0.096,9.568,-5.001e-5,0,5.001e-5,180,0.01,1,22.175,120.893,9.788,91.351,0,0,0,2.8e4,1.35e4,19.962,0.106,NaN,2019.959,NaN,0.012,7.96e5,4.657,-4.844e-6,0.691,-2.245e-5,0.356,0.215,0.12,NaN,NaN,NaN,NaN,NaN,NaN,NaN,NaN,1.293e-5,165,213.825,84,0,4.058,15,1013.25,340.389,0.01,0.005
0.23,-4.762e-4,-0.095,-9.525,0.096,9.577,-5.005e-5,0,5.005e-5,180,0.01,1.001,22.175,120.893,9.788,91.347,0,0,0,2.8e4,1.35e4,19.962,0.106,NaN,2019.957,NaN,0.012,7.991e5,4.392,-4.838e-6,0.691,-2.225e-5,0.356,0.215,0.12,NaN,NaN,NaN,NaN,NaN,NaN,NaN,NaN,1.295e-5,165,213.825,84,0,4.073,15,1013.25,340.389,0.01,0.006
0.24,-4.76e-4,-0.095,-9.52,0.096,9.573,-5.003e-5,0,5.003e-5,180,0.01,1.001,22.175,120.893,9.788,91.341,0,0,0,2.8e4,1.35e4,19.962,0.106,NaN,2019.955,NaN,0.012,8.021e5,4.513,-4.812e-6,0.691,-2.196e-5,0.355,0.215,0.12,NaN,NaN,NaN,NaN,NaN,NaN,NaN,NaN,1.294e-5,165,213.825,84,0,4.089,15,1013.25,340.389,0.01,0.006
0.25,-4.759e-4,-0.095,-9.518,0.096,9.57,-5.002e-5,0,5.002e-5,180,0.01,1,22.175,120.893,9.788,91.336,0,0,0,2.8e4,1.35e4,19.962,0.106,NaN,2019.954,NaN,0.012,8.052e5,4.587,-4.788e-6,0.69,-2.169e-5,0.355,0.215,0.12,NaN,NaN,NaN,NaN,NaN,NaN,NaN,NaN,1.294e-5,165,213.825,84,0,4.105,15,1013.25,340.389,0.01,0.006
0.26,-4.762e-4,-0.095,-9.523,0.096,9.576,-5.005e-5,0,5.005e-5,180,0.01,1.001,22.175,120.893,9.788,91.326,0,0,0,2.8e4,1.35e4,19.962,0.106,NaN,2019.952,NaN,0.012,8.113e5,4.429,-4.757e-6,0.69,-2.122e-5,0.355,0.215,0.12,NaN,NaN,NaN,NaN,NaN,NaN,NaN,NaN,1.294e-5,165,213.825,84,0,4.136,15,1013.25,340.389,0.01,0.006
0.27,-4.76e-4,-0.095,-9.52,0.096,9.572,-5.003e-5,0,5.003e-5,180,0.01,1.001,22.175,120.893,9.788,91.316,0,0,0,2.8e4,1.35e4,19.962,0.106,NaN,2019.95,NaN,0.012,8.175e5,4.527,-4.713e-6,0.689,-2.071e-5,0.354,0.215,0.12,NaN,NaN,NaN,NaN,NaN,NaN,NaN,NaN,1.294e-5,165,213.825,84,0,4.167,15,1013.25,340.389,0.01,0.006
0.28,-4.761e-4,-0.095,-9.521,0.096,9.574,-5.004e-5,0,5.004e-5,180,0.01,1.001,22.175,120.893,9.788,91.306,0,0,0,2.8e4,1.35e4,19.962,0.106,NaN,2019.949,NaN,0.012,8.236e5,4.488,-4.676e-6,0.689,-2.025e-5,0.354,0.215,0.12,NaN,NaN,NaN,NaN,NaN,NaN,NaN,NaN,1.294e-5,165,213.825,84,0,4.198,15,1013.25,340.389,0.01,0.007
0.29,-4.758e-4,-0.095,-9.517,0.096,9.569,-5.001e-5,0,5.001e-5,180,0.01,1,22.175,120.893,9.788,91.296,0,0,0,2.8e4,1.35e4,19.962,0.106,NaN,2019.947,NaN,0.012,8.297e5,4.616,-4.632e-6,0.688,-1.976e-5,0.353,0.215,0.12,NaN,NaN,NaN,NaN,NaN,NaN,NaN,NaN,1.294e-5,165,213.825,84,0,4.23,15,1013.25,340.389,0.01,0.007
0.3,-4.76e-4,-0.095,-9.519,0.096,9.572,-5.003e-5,0,5.003e-5,180,0.01,1.001,22.175,120.893,9.788,91.287,0,0,0,2.8e4,1.35e4,19.962,0.106,NaN,2019.945,NaN,0.013,8.359e5,4.548,-4.598e-6,0.688,-1.933e-5,0.353,0.215,0.12,NaN,NaN,NaN,NaN,NaN,NaN,NaN,NaN,1.294e-5,165,213.825,84,0,4.261,15,1013.25,340.389,0.01,0.007
0.31,-4.757e-4,-0.095,-9.514,0.096,9.566,-5e-5,0,5e-5,180,0.01,1,22.175,120.893,9.788,91.298,0,0,0,2.8e4,1.35e4,19.962,0.106,NaN,2019.943,NaN,0.012,8.28e5,4.706,-4.638e-6,0.688,-1.987e-5,0.353,0.215,0.12,NaN,NaN,NaN,NaN,NaN,NaN,NaN,NaN,1.293e-5,165,213.825,84,0,4.221,15,1013.25,340.389,0.01,0.007
0.32,-4.763e-4,-0.095,-9.527,0.096,9.579,-5.007e-5,0,5.007e-5,180,0.01,1.001,22.175,120.893,9.788,91.313,0,0,0,2.8e4,1.35e4,19.962,0.106,NaN,2019.942,NaN,0.012,8.201e5,4.332,-4.706e-6,0.689,-2.055e-5,0.354,0.215,0.12,NaN,NaN,NaN,NaN,NaN,NaN,NaN,NaN,1.295e-5,165,213.825,84,0,4.18,15,1013.25,340.389,0.01,0.007
0.33,-4.761e-4,-0.095,-9.521,0.096,9.574,-5.004e-5,0,5.004e-5,180,0.01,1.001,22.175,120.893,9.788,91.325,0,0,0,2.8e4,1.35e4,19.962,0.106,NaN,2019.94,NaN,0.012,8.122e5,4.483,-4.748e-6,0.69,-2.114e-5,0.355,0.215,0.12,NaN,NaN,NaN,NaN,NaN,NaN,NaN,NaN,1.294e-5,165,213.825,84,0,4.14,15,1013.25,340.389,0.01,0.008
0.34,-4.759e-4,-0.095,-9.518,0.096,9.571,-5.002e-5,0,5.002e-5,180,0.01,1,22.175,120.893,9.788,91.337,0,0,0,2.8e4,1.35e4,19.962,0.106,NaN,2019.938,NaN,0.012,8.043e5,4.57,-4.794e-6,0.69,-2.176e-5,0.355,0.215,0.12,NaN,NaN,NaN,NaN,NaN,NaN,NaN,NaN,1.294e-5,165,213.825,84,0,4.1,15,1013.25,340.389,0.01,0.008
0.35,-4.762e-4,-0.095,-9.524,0.096,9.576,-5.005e-5,0,5.005e-5,180,0.01,1.001,22.175,120.893,9.788,91.351,0,0,0,2.8e4,1.35e4,19.962,0.106,NaN,2019.936,NaN,0.012,7.964e5,4.419,-4.854e-6,0.691,-2.248e-5,0.356,0.215,0.12,NaN,NaN,NaN,NaN,NaN,NaN,NaN,NaN,1.294e-5,165,213.825,84,0,4.06,15,1013.25,340.389,0.01,0.008
0.36,-4.764e-4,-0.095,-9.527,0.096,9.58,-5.007e-5,0,5.007e-5,180,0.01,1.001,22.175,120.893,9.788,91.37,0,0,0,2.8e4,1.35e4,19.962,0.106,NaN,2019.935,NaN,0.012,7.856e5,4.317,-4.933e-6,0.692,-2.347e-5,0.357,0.215,0.12,NaN,NaN,NaN,NaN,NaN,NaN,NaN,NaN,1.295e-5,165,213.825,84,0,4.005,15,1013.25,340.389,0.01,0.008
0.37,-4.76e-4,-0.095,-9.52,0.096,9.573,-5.003e-5,0,5.003e-5,180,0.01,1.001,22.175,120.893,9.788,91.389,0,0,0,2.8e4,1.35e4,19.962,0.106,NaN,2019.933,NaN,0.012,7.747e5,4.522,-4.997e-6,0.693,-2.445e-5,0.358,0.215,0.12,NaN,NaN,NaN,NaN,NaN,NaN,NaN,NaN,1.294e-5,165,213.825,84,0,3.949,15,1013.25,340.389,0.01,0.008
0.38,-4.762e-4,-0.095,-9.523,0.096,9.576,-5.005e-5,0,5.005e-5,180,0.01,1.001,22.175,120.893,9.788,91.409,0,0,0,2.8e4,1.35e4,19.962,0.106,NaN,2019.931,NaN,0.011,7.639e5,4.433,-5.08e-6,0.694,-2.556e-5,0.359,0.215,0.12,NaN,NaN,NaN,NaN,NaN,NaN,NaN,NaN,1.294e-5,165,213.825,84,0,3.894,15,1013.25,340.389,0.01,0.008
0.39,-4.757e-4,-0.095,-9.515,0.096,9.567,-5e-5,0,5e-5,180,0.01,1,22.175,120.893,9.788,91.428,0,0,0,2.8e4,1.35e4,19.962,0.106,NaN,2019.93,NaN,0.011,7.531e5,4.673,-5.146e-6,0.695,-2.665e-5,0.36,0.215,0.12,NaN,NaN,NaN,NaN,NaN,NaN,NaN,NaN,1.293e-5,165,213.825,84,0,3.839,15,1013.25,340.389,0.01,0.009
0.4,-4.755e-4,-0.095,-9.51,0.096,9.562,-4.998e-5,0,4.998e-5,180,0.01,1,22.175,120.893,9.788,91.448,0,0,0,2.8e4,1.35e4,19.962,0.106,NaN,2019.928,NaN,0.011,7.422e5,4.812,-5.22e-6,0.696,-2.783e-5,0.361,0.215,0.12,NaN,NaN,NaN,NaN,NaN,NaN,NaN,NaN,1.293e-5,165,213.825,84,0,3.783,15,1013.25,340.389,0.01,0.009
0.41,-4.759e-4,-0.095,-9.518,0.096,9.57,-5.002e-5,0,5.002e-5,180,0.01,1,22.175,120.893,9.788,91.425,0,0,0,2.8e4,1.35e4,19.962,0.106,NaN,2019.926,NaN,0.011,7.549e5,4.595,-5.136e-6,0.695,-2.647e-5,0.36,0.215,0.12,NaN,NaN,NaN,NaN,NaN,NaN,NaN,NaN,1.294e-5,165,213.825,84,0,3.848,15,1013.25,340.389,0.01,0.009
0.42,-4.758e-4,-0.095,-9.516,0.096,9.568,-5.001e-5,0,5.001e-5,180,0.01,1,22.175,120.893,9.788,91.401,0,0,0,2.8e4,1.35e4,19.962,0.106,NaN,2019.924,NaN,0.011,7.677e5,4.638,-5.041e-6,0.694,-2.512e-5,0.359,0.215,0.12,NaN,NaN,NaN,NaN,NaN,NaN,NaN,NaN,1.293e-5,165,213.825,84,0,3.913,15,1013.25,340.389,0.01,0.009
0.43,-4.755e-4,-0.095,-9.51,0.096,9.562,-4.998e-5,0,4.998e-5,180,0.01,1,22.175,120.893,9.788,91.377,0,0,0,2.8e4,1.35e4,19.962,0.106,NaN,2019.922,NaN,0.012,7.804e5,4.811,-4.942e-6,0.693,-2.383e-5,0.357,0.215,0.12,NaN,NaN,NaN,NaN,NaN,NaN,NaN,NaN,1.293e-5,165,213.825,84,0,3.978,15,1013.25,340.389,0.01,0.009
0.44,-4.753e-4,-0.095,-9.506,0.096,9.558,-4.996e-5,0,4.996e-5,180,0.01,0.999,22.175,120.893,9.788,91.354,0,0,0,2.8e4,1.35e4,19.962,0.106,NaN,2019.921,NaN,0.012,7.931e5,4.919,-4.849e-6,0.691,-2.264e-5,0.356,0.215,0.12,NaN,NaN,NaN,NaN,NaN,NaN,NaN,NaN,1.292e-5,165,213.825,84,0,4.043,15,1013.25,340.389,0.01,0.01
0.45,-4.759e-4,-0.095,-9.518,0.096,9.57,-5.002e-5,0,5.002e-5,180,0.01,1,22.175,120.893,9.788,91.335,0,0,0,2.8e4,1.35e4,19.961,0.106,NaN,2019.919,NaN,0.012,8.058e5,4.583,-4.784e-6,0.69,-2.164e-5,0.355,0.215,0.12,NaN,NaN,NaN,NaN,NaN,NaN,NaN,NaN,1.294e-5,165,213.825,84,0,4.108,15,1013.25,340.389,0.01,0.01
0.46,-4.762e-4,-0.095,-9.523,0.096,9.576,-5.005e-5,0,5.005e-5,180,0.01,1.001,22.175,120.893,9.788,91.338,0,0,0,2.8e4,1.35e4,19.961,0.106,NaN,2019.917,NaN,0.012,8.04e5,4.429,-4.804e-6,0.69,-2.182e-5,0.355,0.215,0.12,NaN,NaN,NaN,NaN,NaN,NaN,NaN,NaN,1.294e-5,165,213.825,84,0,4.099,15,1013.25,340.389,0.01,0.01
0.47,-4.761e-4,-0.095,-9.523,0.096,9.575,-5.004e-5,0,5.004e-5,180,0.01,1.001,22.175,120.893,9.788,91.341,0,0,0,2.8e4,1.35e4,19.961,0.106,NaN,2019.915,NaN,0.012,8.022e5,4.45,-4.815e-6,0.691,-2.197e-5,0.355,0.215,0.12,NaN,NaN,NaN,NaN,NaN,NaN,NaN,NaN,1.294e-5,165,213.825,84,0,4.089,15,1013.25,340.389,0.01,0.01
0.48,-4.753e-4,-0.095,-9.507,0.096,9.559,-4.996e-5,0,4.996e-5,180,0.01,0.999,22.175,120.893,9.788,91.342,0,0,0,2.8e4,1.35e4,19.961,0.106,NaN,2019.914,NaN,0.012,8.004e5,4.905,-4.802e-6,0.691,-2.201e-5,0.356,0.215,0.12,NaN,NaN,NaN,NaN,NaN,NaN,NaN,NaN,1.292e-5,165,213.825,84,0,4.08,15,1013.25,340.389,0.01,0.01
0.49,-4.756e-4,-0.095,-9.512,0.096,9.565,-4.999e-5,0,4.999e-5,180,0.01,1,22.175,120.893,9.788,91.346,0,0,0,2.8e4,1.35e4,19.961,0.106,NaN,2019.912,NaN,0.012,7.986e5,4.746,-4.823e-6,0.691,-2.221e-5,0.356,0.215,0.12,NaN,NaN,NaN,NaN,NaN,NaN,NaN,NaN,1.293e-5,165,213.825,84,0,4.071,15,1013.25,340.389,0.01,0.011
0.5,-4.761e-4,-0.095,-9.522,0.096,9.574,-5.004e-5,0,5.004e-5,180,0.01,1.001,22.175,120.893,9.788,91.35,0,0,0,2.8e4,1.35e4,19.961,0.106,NaN,2019.91,NaN,0.012,7.967e5,4.47,-4.849e-6,0.691,-2.243e-5,0.356,0.215,0.12,NaN,NaN,NaN,NaN,NaN,NaN,NaN,NaN,1.294e-5,165,213.825,84,0,4.061,15,1013.25,340.389,0.01,0.011
0.51,-4.758e-4,-0.095,-9.515,0.096,9.568,-5.001e-5,0,5.001e-5,180,0.01,1,22.175,120.893,9.788,91.375,0,0,0,2.8e4,1.35e4,19.961,0.106,NaN,2019.908,NaN,0.012,7.818e5,4.657,-4.94e-6,0.692,-2.374e-5,0.357,0.215,0.12,NaN,NaN,NaN,NaN,NaN,NaN,NaN,NaN,1.293e-5,165,213.825,84,0,3.985,15,1013.25,340.389,0.01,0.011
0.52,-4.75e-4,-0.095,-9.499,0.096,9.551,-4.992e-5,0,4.992e-5,180,0.01,0.998,22.175,120.893,9.788,91.4,0,0,0,2.8e4,1.35e4,19.961,0.106,NaN,2019.906,NaN,0.011,7.668e5,5.115,-5.02e-6,0.694,-2.507e-5,0.359,0.215,0.12,NaN,NaN,NaN,NaN,NaN,NaN,NaN,NaN,1.291e-5,165,213.825,84,0,3.909,15,1013.25,340.389,0.01,0.011
0.53,-4.746e-4,-0.095,-9.491,0.095,9.543,-4.988e-5,0,4.988e-5,180,0.01,0.998,22.175,120.893,9.788,91.426,0,0,0,2.8e4,1.35e4,19.961,0.106,NaN,2019.904,NaN,0.011,7.519e5,5.339,-5.116e-6,0.695,-2.658e-5,0.36,0.215,0.12,NaN,NaN,NaN,NaN,NaN,NaN,NaN,NaN,1.29e-5,165,213.825,84,0,3.833,15,1013.25,340.389,0.01,0.011
0.54,-4.758e-4,-0.095,-9.516,0.096,9.568,-5.001e-5,0,5.001e-5,180,0.01,1,22.175,120.893,9.788,91.459,0,0,0,2.8e4,1.35e4,19.961,0.106,NaN,2019.903,NaN,0.011,7.369e5,4.638,-5.271e-6,0.697,-2.85e-5,0.362,0.215,0.12,NaN,NaN,NaN,NaN,NaN,NaN,NaN,NaN,1.293e-5,165,213.825,84,0,3.756,15,1013.25,340.389,0.01,0.011
0.55,-4.755e-4,-0.095,-9.509,0.096,9.562,-4.997e-5,0,4.997e-5,180,0.01,0.999,22.175,120.893,9.788,91.488,0,0,0,2.8e4,1.35e4,19.961,0.106,NaN,2019.901,NaN,0.011,7.22e5,4.82,-5.379e-6,0.698,-3.031e-5,0.363,0.215,0.12,NaN,NaN,NaN,NaN,NaN,NaN,NaN,NaN,1.293e-5,165,213.825,84,0,3.68,15,1013.25,340.389,0.01,0.012
0.56,-4.749e-4,-0.095,-9.498,0.096,9.55,-4.991e-5,0,4.991e-5,180,0.01,0.998,22.175,120.893,9.788,91.487,0,0,0,2.8e4,1.35e4,19.961,0.106,NaN,2019.899,NaN,0.011,7.218e5,5.14,-5.361e-6,0.698,-3.021e-5,0.363,0.215,0.12,NaN,NaN,NaN,NaN,NaN,NaN,NaN,NaN,1.291e-5,165,213.825,84,0,3.679,15,1013.25,340.389,0.01,0.012
0.57,-4.749e-4,-0.095,-9.497,0.095,9.55,-4.991e-5,0,4.991e-5,180,0.01,0.998,22.175,120.893,9.788,91.487,0,0,0,2.8e4,1.35e4,19.961,0.106,NaN,2019.897,NaN,0.011,7.217e5,5.164,-5.361e-6,0.698,-3.022e-5,0.363,0.215,0.12,NaN,NaN,NaN,NaN,NaN,NaN,NaN,NaN,1.291e-5,165,213.825,84,0,3.679,15,1013.25,340.389,0.01,0.012
0.58,-4.749e-4,-0.095,-9.499,0.096,9.551,-4.992e-5,0,4.992e-5,180,0.01,0.998,22.175,120.893,9.788,91.487,0,0,0,2.8e4,1.35e4,19.961,0.106,NaN,2019.895,NaN,0.011,7.216e5,5.125,-5.364e-6,0.698,-3.025e-5,0.363,0.215,0.12,NaN,NaN,NaN,NaN,NaN,NaN,NaN,NaN,1.291e-5,165,213.825,84,0,3.678,15,1013.25,340.389,0.01,0.012
0.59,-4.746e-4,-0.095,-9.493,0.095,9.545,-4.989e-5,0,4.989e-5,180,0.01,0.998,22.175,120.893,9.788,91.487,0,0,0,2.8e4,1.35e4,19.961,0.106,NaN,2019.893,NaN,0.011,7.214e5,5.296,-5.355e-6,0.698,-3.021e-5,0.363,0.215,0.12,NaN,NaN,NaN,NaN,NaN,NaN,NaN,NaN,1.29e-5,165,213.825,84,0,3.677,15,1013.25,340.389,0.01,0.012
0.6,-4.741e-4,-0.095,-9.483,0.095,9.535,-4.984e-5,0,4.984e-5,180,0.01,0.997,22.175,120.893,9.788,91.486,0,0,0,2.8e4,1.349e4,19.961,0.106,NaN,2019.891,NaN,0.011,7.213e5,5.567,-5.34e-6,0.698,-3.014e-5,0.363,0.215,0.12,NaN,NaN,NaN,NaN,NaN,NaN,NaN,NaN,1.289e-5,165,213.825,84,0,3.677,15,1013.25,340.389,0.01,0.012
0.61,-4.739e-4,-0.095,-9.478,0.095,9.53,-4.981e-5,0,4.981e-5,180,0.01,0.996,22.175,120.893,9.788,91.499,0,0,0,2.8e4,1.349e4,19.961,0.106,NaN,2019.889,NaN,0.011,7.145e5,5.717,-5.386e-6,0.699,-3.098e-5,0.364,0.215,0.12,NaN,NaN,NaN,NaN,NaN,NaN,NaN,NaN,1.288e-5,165,213.825,84,0,3.642,15,1013.25,340.389,0.01,0.013
0.62,-4.745e-4,-0.095,-9.49,0.095,9.542,-4.987e-5,0,4.987e-5,180,0.01,0.997,22.175,120.893,9.788,91.515,0,0,0,2.8e4,1.349e4,19.961,0.106,NaN,2019.887,NaN,0.011,7.077e5,5.366,-5.464e-6,0.7,-3.203e-5,0.365,0.215,0.12,NaN,NaN,NaN,NaN,NaN,NaN,NaN,NaN,1.29e-5,165,213.825,84,0,3.608,15,1013.25,340.389,0.01,0.013
0.63,-4.737e-4,-0.095,-9.473,0.095,9.525,-4.978e-5,0,4.978e-5,180,0.01,0.996,22.175,120.893,9.788,91.527,0,0,0,2.799e4,1.349e4,19.961,0.106,NaN,2019.884,NaN,0.011,7.01e5,5.844,-5.492e-6,0.701,-3.283e-5,0.365,0.215,0.12,NaN,NaN,NaN,NaN,NaN,NaN,NaN,NaN,1.288e-5,165,213.825,84,0,3.573,15,1013.25,340.389,0.01,0.013
0.64,-4.738e-4,-0.095,-9.475,0.095,9.527,-4.979e-5,0,4.979e-5,180,0.01,0.996,22.175,120.893,9.788,91.542,0,0,0,2.799e4,1.349e4,19.961,0.106,NaN,2019.882,NaN,0.01,6.942e5,5.786,-5.554e-6,0.701,-3.385e-5,0.366,0.215,0.12,NaN,NaN,NaN,NaN,NaN,NaN,NaN,NaN,1.288e-5,165,213.825,84,0,3.538,15,1013.25,340.389,0.01,0.013
0.65,-4.734e-4,-0.095,-9.469,0.095,9.521,-4.976e-5,0,4.976e-5,180,0.01,0.995,22.175,120.893,9.788,91.557,0,0,0,2.799e4,1.349e4,19.961,0.106,NaN,2019.88,NaN,0.01,6.874e5,5.968,-5.603e-6,0.702,-3.482e-5,0.367,0.215,0.12,NaN,NaN,NaN,NaN,NaN,NaN,NaN,NaN,1.287e-5,165,213.825,84,0,3.504,15,1013.25,340.389,0.01,0.013
0.66,-4.724e-4,-0.094,-9.448,0.095,9.5,-4.965e-5,0,4.965e-5,180,0.01,0.993,22.175,120.893,9.788,91.548,0,0,0,2.799e4,1.349e4,19.961,0.106,NaN,2019.877,NaN,0.01,6.895e5,6.551,-5.547e-6,0.702,-3.426e-5,0.367,0.215,0.12,NaN,NaN,NaN,NaN,NaN,NaN,NaN,NaN,1.284e-5,165,213.825,84,0,3.515,15,1013.25,340.389,0.01,0.014
0.67,-4.721e-4,-0.094,-9.442,0.095,9.494,-4.962e-5,0,4.962e-5,180,0.01,0.992,22.175,120.893,9.788,91.542,0,0,0,2.799e4,1.349e4,19.961,0.106,NaN,2019.875,NaN,0.01,6.917e5,6.72,-5.518e-6,0.702,-3.387e-5,0.366,0.215,0.12,NaN,NaN,NaN,NaN,NaN,NaN,NaN,NaN,1.283e-5,165,213.825,84,0,3.526,15,1013.25,340.389,0.01,0.014
0.68,-4.711e-4,-0.094,-9.421,0.095,9.473,-4.951e-5,0,4.951e-5,180,0.01,0.99,22.175,120.893,9.788,91.534,0,0,0,2.799e4,1.349e4,19.961,0.106,NaN,2019.872,NaN,0.01,6.939e5,7.299,-5.464e-6,0.701,-3.333e-5,0.366,0.215,0.12,NaN,NaN,NaN,NaN,NaN,NaN,NaN,NaN,1.281e-5,165,213.825,84,0,3.537,15,1013.25,340.389,0.01,0.014
0.69,-4.708e-4,-0.094,-9.415,0.095,9.467,-4.948e-5,0,4.948e-5,180,0.01,0.99,22.175,120.893,9.788,91.529,0,0,0,2.799e4,1.349e4,19.961,0.106,NaN,2019.869,NaN,0.01,6.96e5,7.467,-5.435e-6,0.701,-3.295e-5,0.366,0.215,0.12,NaN,NaN,NaN,NaN,NaN,NaN,NaN,NaN,1.28e-5,165,213.825,84,0,3.548,15,1013.25,340.389,0.01,0.014
0.7,-4.699e-4,-0.094,-9.398,0.095,9.45,-4.939e-5,0,4.939e-5,180,0.01,0.988,22.175,120.893,9.788,91.521,0,0,0,2.799e4,1.349e4,19.961,0.106,NaN,2019.866,NaN,0.01,6.982e5,7.951,-5.387e-6,0.701,-3.245e-5,0.366,0.215,0.12,NaN,NaN,NaN,NaN,NaN,NaN,NaN,NaN,1.277e-5,165,213.825,84,0,3.559,15,1013.25,340.389,0.01,0.014
0.71,-4.682e-4,-0.094,-9.363,0.094,9.415,-4.921e-5,0,4.921e-5,180,0.01,0.984,22.175,120.893,9.788,91.498,0,0,0,2.799e4,1.349e4,19.96,0.106,NaN,2019.863,NaN,0.011,7.061e5,8.938,-5.262e-6,0.7,-3.099e-5,0.365,0.215,0.12,NaN,NaN,NaN,NaN,NaN,NaN,NaN,NaN,1.273e-5,165,213.825,84,0,3.599,15,1013.25,340.389,0.01,0.014
0.72,-4.676e-4,-0.094,-9.352,0.094,9.403,-4.915e-5,0,4.915e-5,180,0.01,0.983,22.175,120.893,9.788,91.48,0,0,0,2.799e4,1.349e4,19.96,0.106,NaN,2019.859,NaN,0.011,7.14e5,9.255,-5.179e-6,0.699,-2.983e-5,0.364,0.215,0.12,NaN,NaN,NaN,NaN,NaN,NaN,NaN,NaN,1.271e-5,165,213.825,84,0,3.64,15,1013.25,340.389,0.01,0.015
0.73,-4.659e-4,-0.093,-9.319,0.094,9.37,-4.897e-5,0,4.897e-5,180,0.01,0.979,22.175,120.893,9.788,91.458,0,0,0,2.799e4,1.349e4,19.96,0.106,NaN,2019.855,NaN,0.011,7.22e5,10.185,-5.063e-6,0.698,-2.853e-5,0.363,0.215,0.12,NaN,NaN,NaN,NaN,NaN,NaN,NaN,NaN,1.267e-5,165,213.825,84,0,3.68,15,1013.25,340.389,0.01,0.015
0.74,-4.64e-4,-0.093,-9.28,0.093,9.331,-4.877e-5,0,4.877e-5,180,0.01,0.975,22.175,120.893,9.788,91.437,0,0,0,2.799e4,1.349e4,19.96,0.106,NaN,2019.851,NaN,0.011,7.299e5,11.275,-4.942e-6,0.698,-2.724e-5,0.362,0.215,0.12,NaN,NaN,NaN,NaN,NaN,NaN,NaN,NaN,1.261e-5,165,213.825,84,0,3.721,15,1013.25,340.389,0.01,0.015
0.75,-4.621e-4,-0.092,-9.243,0.093,9.294,-4.857e-5,0,4.857e-5,180,0.01,0.971,22.175,120.893,9.788,91.415,0,0,0,2.799e4,1.349e4,19.96,0.106,NaN,2019.846,NaN,0.011,7.379e5,12.322,-4.825e-6,0.697,-2.603e-5,0.362,0.215,0.12,NaN,NaN,NaN,NaN,NaN,NaN,NaN,NaN,1.256e-5,165,213.825,84,0,3.761,15,1013.25,340.389,0.01,0.015
0.76,-4.598e-4,-0.092,-9.195,0.092,9.246,-4.832e-5,0,4.832e-5,180,0.01,0.966,22.175,120.893,9.788,91.423,0,0,0,2.799e4,1.349e4,19.96,0.106,NaN,2019.841,NaN,0.011,7.301e5,13.663,-4.807e-6,0.697,-2.648e-5,0.362,0.215,0.12,NaN,NaN,NaN,NaN,NaN,NaN,NaN,NaN,1.25e-5,165,213.825,84,0,3.721,15,1013.25,340.389,0.01,0.015
0.77,-4.586e-4,-0.092,-9.173,0.092,9.223,-4.82e-5,0,4.82e-5,180,0.01,0.964,22.175,120.893,9.788,91.435,0,0,0,2.799e4,1.349e4,19.96,0.106,NaN,2019.836,NaN,0.011,7.223e5,14.302,-4.828e-6,0.698,-2.718e-5,0.363,0.215,0.12,NaN,NaN,NaN,NaN,NaN,NaN,NaN,NaN,1.247e-5,165,213.825,84,0,3.682,15,1013.25,340.389,0.01,0.016
0.78,-4.56e-4,-0.091,-9.12,0.092,9.171,-4.793e-5,0,4.793e-5,180,0.01,0.959,22.175,120.893,9.788,91.442,0,0,0,2.799e4,1.349e4,19.96,0.106,NaN,2019.83,NaN,0.011,7.145e5,15.77,-4.803e-6,0.699,-2.763e-5,0.364,0.215,0.12,NaN,NaN,NaN,NaN,NaN,NaN,NaN,NaN,1.24e-5,165,213.825,84,0,3.642,15,1013.25,340.389,0.01,0.016
0.79,-4.54e-4,-0.091,-9.079,0.091,9.129,-4.771e-5,0,4.771e-5,180,0.01,0.954,22.175,120.893,9.788,91.452,0,0,0,2.799e4,1.349e4,19.96,0.106,NaN,2019.823,NaN,0.011,7.067e5,16.927,-4.795e-6,0.7,-2.82e-5,0.365,0.215,0.12,NaN,NaN,NaN,NaN,NaN,NaN,NaN,NaN,1.234e-5,165,213.825,84,0,3.602,15,1013.25,340.389,0.01,0.016
0.8,-4.518e-4,-0.09,-9.037,0.091,9.087,-4.749e-5,0,4.749e-5,180,0.009,0.95,22.175,120.893,9.788,91.461,0,0,0,2.799e4,1.349e4,19.96,0.106,NaN,2019.816,NaN,0.01,6.989e5,18.121,-4.786e-6,0.701,-2.877e-5,0.366,0.215,0.12,NaN,NaN,NaN,NaN,NaN,NaN,NaN,NaN,1.228e-5,165,213.825,84,0,3.563,15,1013.25,340.389,0.01,0.016
0.81,-4.495e-4,-0.09,-8.99,0.09,9.04,-4.725e-5,0,4.725e-5,180,0.009,0.945,22.175,120.893,9.788,91.442,0,0,0,2.799e4,1.349e4,19.96,0.106,NaN,2019.809,NaN,0.011,7.044e5,19.438,-4.673e-6,0.7,-2.766e-5,0.365,0.215,0.12,NaN,NaN,NaN,NaN,NaN,NaN,NaN,NaN,1.222e-5,165,213.825,84,0,3.59,15,1013.25,340.389,0.01,0.016
0.82,-4.482e-4,-0.09,-8.965,0.09,9.014,-4.711e-5,0,4.711e-5,180,0.009,0.942,22.175,120.893,9.788,91.427,0,0,0,2.799e4,1.349e4,19.959,0.106,NaN,2019.801,NaN,0.011,7.098e5,20.155,-4.595e-6,0.7,-2.678e-5,0.364,0.215,0.12,NaN,NaN,NaN,NaN,NaN,NaN,NaN,NaN,1.218e-5,165,213.825,84,0,3.618,15,1013.25,340.389,0.01,0.016
0.83,-4.434e-4,-0.089,-8.867,0.089,8.916,-4.66e-5,0,4.66e-5,180,0.009,0.932,22.175,120.893,9.788,91.401,0,0,0,2.799e4,1.349e4,19.959,0.106,NaN,2019.793,NaN,0.011,7.152e5,22.899,-4.41e-6,0.699,-2.532e-5,0.364,0.215,0.12,NaN,NaN,NaN,NaN,NaN,NaN,NaN,NaN,1.205e-5,165,213.825,84,0,3.646,15,1013.25,340.389,0.01,0.017
0.84,-4.345e-4,-0.087,-8.69,0.087,8.738,-4.567e-5,0,4.567e-5,180,0.009,0.913,22.175,120.893,9.788,91.363,0,0,0,2.799e4,1.349e4,19.959,0.106,NaN,2019.782,NaN,0.011,7.206e5,27.886,-4.118e-6,0.698,-2.329e-5,0.363,0.215,0.12,NaN,NaN,NaN,NaN,NaN,NaN,NaN,NaN,1.181e-5,165,213.825,84,0,3.674,15,1013.25,340.389,0.01,0.017
0.85,-4.271e-4,-0.085,-8.542,0.086,8.589,-4.489e-5,0,4.489e-5,180,0.009,0.898,22.175,120.893,9.788,91.329,0,0,0,2.799e4,1.349e4,19.959,0.106,NaN,2019.77,NaN,0.011,7.261e5,32.036,-3.881e-6,0.698,-2.162e-5,0.363,0.215,0.12,NaN,NaN,NaN,NaN,NaN,NaN,NaN,NaN,1.161e-5,165,213.825,84,0,3.701,15,1013.25,340.389,0.01,0.017
0.86,-4.194e-4,-0.084,-8.388,0.084,8.434,-4.408e-5,0,4.408e-5,180,0.009,0.882,22.175,120.893,9.788,91.3,0,0,0,2.799e4,1.349e4,19.959,0.106,NaN,2019.756,NaN,0.011,7.292e5,36.392,-3.658e-6,0.698,-2.02e-5,0.362,0.215,0.12,NaN,NaN,NaN,NaN,NaN,NaN,NaN,NaN,1.14e-5,165,213.825,84,0,3.717,15,1013.25,340.389,0.01,0.017
0.87,-4.119e-4,-0.082,-8.239,0.083,8.284,-4.33e-5,0,4.33e-5,180,0.009,0.866,22.175,120.893,9.788,91.271,0,0,0,2.799e4,1.349e4,19.958,0.106,NaN,2019.74,NaN,0.011,7.323e5,40.581,-3.451e-6,0.697,-1.89e-5,0.362,0.215,0.12,NaN,NaN,NaN,NaN,NaN,NaN,NaN,NaN,1.12e-5,165,213.825,84,0,3.733,15,1013.25,340.389,0.01,0.017
0.88,-4.047e-4,-0.081,-8.093,0.081,8.138,-4.253e-5,0,4.253e-5,180,0.009,0.851,22.175,120.893,9.788,91.243,0,0,0,2.799e4,1.349e4,19.958,0.106,NaN,2019.723,NaN,0.011,7.354e5,44.682,-3.257e-6,0.697,-1.768e-5,0.362,0.215,0.12,NaN,NaN,NaN,NaN,NaN,NaN,NaN,NaN,1.1e-5,165,213.825,84,0,3.749,15,1013.25,340.389,0.01,0.018
0.89,-3.982e-4,-0.08,-7.965,0.08,8.008,-4.186e-5,0,4.186e-5,180,0.008,0.837,22.175,120.893,9.788,91.219,0,0,0,2.799e4,1.349e4,19.958,0.106,NaN,2019.705,NaN,0.011,7.385e5,48.294,-3.09e-6,0.697,-1.664e-5,0.362,0.215,0.12,NaN,NaN,NaN,NaN,NaN,NaN,NaN,NaN,1.083e-5,165,213.825,84,0,3.765,15,1013.25,340.389,0.01,0.018
0.9,-3.921e-4,-0.078,-7.842,0.079,7.885,-4.121e-5,0,4.121e-5,180,0.008,0.824,22.175,120.893,9.788,91.195,0,0,0,2.799e4,1.349e4,19.957,0.106,NaN,2019.685,NaN,0.011,7.416e5,51.752,-2.936e-6,0.696,-1.568e-5,0.361,0.215,0.12,NaN,NaN,NaN,NaN,NaN,NaN,NaN,NaN,1.066e-5,165,213.825,84,0,3.781,15,1013.25,340.389,0.01,0.018
0.91,-3.84e-4,-0.077,-7.679,0.077,7.722,-4.036e-5,0,4.036e-5,180,0.008,0.807,22.175,120.893,9.788,91.167,0,0,0,2.798e4,1.348e4,19.957,0.106,NaN,2019.664,NaN,0.011,7.439e5,56.319,-2.749e-6,0.696,-1.459e-5,0.361,0.215,0.12,NaN,NaN,NaN,NaN,NaN,NaN,NaN,NaN,1.044e-5,165,213.825,84,0,3.792,15,1013.25,340.389,0.01,0.018
0.92,-3.761e-4,-0.075,-7.522,0.076,7.563,-3.953e-5,0,3.953e-5,180,0.008,0.791,22.175,120.893,9.788,91.139,0,0,0,2.798e4,1.348e4,19.957,0.106,NaN,2019.641,NaN,0.011,7.461e5,60.748,-2.576e-6,0.696,-1.359e-5,0.361,0.215,0.12,NaN,NaN,NaN,NaN,NaN,NaN,NaN,NaN,1.022e-5,165,213.825,84,0,3.803,15,1013.25,340.389,0.01,0.018
0.93,-3.643e-4,-0.073,-7.286,0.073,7.326,-3.829e-5,0,3.829e-5,180,0.008,0.766,22.175,120.893,9.788,91.1,0,0,0,2.798e4,1.348e4,19.956,0.106,NaN,2019.615,NaN,0.011,7.483e5,67.387,-2.334e-6,0.696,-1.224e-5,0.361,0.215,0.12,NaN,NaN,NaN,NaN,NaN,NaN,NaN,NaN,9.903e-6,165,213.825,84,0,3.815,15,1013.25,340.389,0.01,0.018
0.94,-3.499e-4,-0.07,-6.999,0.07,7.037,-3.678e-5,0,3.678e-5,180,0.007,0.736,22.175,120.893,9.788,91.054,0,0,0,2.798e4,1.348e4,19.956,0.106,NaN,2019.586,NaN,0.011,7.505e5,75.455,-2.064e-6,0.695,-1.076e-5,0.36,0.215,0.12,NaN,NaN,NaN,NaN,NaN,NaN,NaN,NaN,9.513e-6,165,213.825,84,0,3.826,15,1013.25,340.389,0.01,0.019
0.95,-3.337e-4,-0.067,-6.674,0.067,6.71,-3.507e-5,0,3.507e-5,180,0.007,0.701,22.175,120.893,9.788,91.002,0,0,0,2.798e4,1.348e4,19.955,0.106,NaN,2019.554,NaN,0.011,7.527e5,84.603,-1.784e-6,0.695,-9.249e-6,0.36,0.215,0.12,NaN,NaN,NaN,NaN,NaN,NaN,NaN,NaN,9.071e-6,165,213.825,84,0,3.837,15,1013.25,340.389,0.01,0.019
0.96,-3.135e-4,-0.063,-6.271,0.063,6.305,-3.295e-5,0,3.295e-5,180,0.007,0.659,22.175,120.893,9.788,90.961,0,0,0,2.798e4,1.348e4,19.954,0.106,NaN,2019.517,NaN,0.011,7.369e5,95.934,-1.516e-6,0.697,-8.197e-6,0.362,0.215,0.12,NaN,NaN,NaN,NaN,NaN,NaN,NaN,NaN,8.523e-6,165,213.825,84,0,3.757,15,1013.25,340.389,0.01,0.019
0.97,-2.933e-4,-0.059,-5.865,0.059,5.898,-3.082e-5,0,3.082e-5,180,0.006,0.616,22.175,120.893,9.788,90.919,0,0,0,2.798e4,1.348e4,19.954,0.106,NaN,2019.476,NaN,0.011,7.212e5,107.326,-1.271e-6,0.698,-7.176e-6,0.363,0.215,0.12,NaN,NaN,NaN,NaN,NaN,NaN,NaN,NaN,7.972e-6,165,213.825,84,0,3.677,15,1013.25,340.389,0.01,0.019
0.98,-2.671e-4,-0.053,-5.342,0.054,5.372,-2.808e-5,0,2.808e-5,180,0.006,0.561,22.175,120.893,9.788,90.856,0,0,0,2.797e4,1.347e4,19.953,0.106,NaN,2019.43,NaN,0.011,7.055e5,122.033,-9.847e-7,0.7,-5.81e-6,0.365,0.215,0.12,NaN,NaN,NaN,NaN,NaN,NaN,NaN,NaN,7.261e-6,165,213.825,84,0,3.597,15,1013.25,340.389,0.01,0.019
0.99,-2.333e-4,-0.047,-4.667,0.047,4.692,-2.453e-5,0,2.453e-5,180,0.005,0.49,22.175,120.893,9.788,90.764,0,0,0,2.797e4,1.347e4,19.952,0.106,NaN,2019.376,NaN,0.01,6.897e5,141.022,-6.736e-7,0.702,-4.158e-6,0.367,0.215,0.12,NaN,NaN,NaN,NaN,NaN,NaN,NaN,NaN,6.343e-6,165,213.825,84,0,3.517,15,1013.25,340.389,0.01,0.019
1,-1.839e-4,-0.037,-3.678,0.037,3.699,-1.933e-5,0,1.933e-5,180,0.004,0.387,22.175,120.893,9.788,90.617,0,0,0,2.797e4,1.347e4,19.951,0.106,NaN,2019.312,NaN,0.01,6.74e5,168.795,-3.39e-7,0.703,-2.192e-6,0.368,0.215,0.12,NaN,NaN,NaN,NaN,NaN,NaN,NaN,NaN,5e-6,165,213.825,84,0,3.437,15,1013.25,340.389,0.01,0.02
1.01,-1.138e-4,-0.023,-2.275,0.023,2.288,-1.196e-5,0,1.196e-5,180,0.002,0.239,22.175,120.893,9.788,90.382,0,0,0,2.796e4,1.346e4,19.949,0.106,NaN,2019.232,NaN,0.01,6.729e5,208.221,-8.061e-8,0.704,-5.228e-7,0.368,0.215,0.12,NaN,NaN,NaN,NaN,NaN,NaN,NaN,NaN,3.094e-6,165,213.825,84,0,3.431,15,1013.25,340.389,0.01,0.02
1.02,-4.855e-5,-0.01,-0.97,0.01,0.975,-5.103e-6,0,5.103e-6,180,0.001,0.102,22.175,120.893,9.788,90.163,0,0,0,2.796e4,1.346e4,19.948,0.106,NaN,2019.139,NaN,0.01,6.719e5,244.886,-6.281e-9,0.704,-4.086e-8,0.369,0.215,0.12,NaN,NaN,NaN,NaN,NaN,NaN,NaN,NaN,1.32e-6,165,213.825,84,0,3.426,15,1013.25,340.389,0.01,0.02
1.03,2.205e-5,0.004,0.442,0.004,0.445,2.317e-6,0,2.317e-6,0,4.638e-4,0.046,22.175,120.893,9.788,89.926,0,0,0,2.795e4,1.345e4,19.946,0.106,NaN,2019.03,NaN,0.01,6.708e5,284.538,0,0.704,0,0.369,0.215,0.12,NaN,NaN,NaN,NaN,NaN,NaN,NaN,NaN,5.998e-7,165,213.825,84,0,3.421,15,1013.25,340.389,0.01,0.02
1.04,1.641e-4,0.024,1.96,0.024,1.971,1.725e-5,0,1.725e-5,0,0.003,0.206,22.175,120.893,9.788,89.595,0,0,0,2.795e4,1.345e4,19.943,0.106,NaN,2018.905,NaN,0.01,6.698e5,327.142,9.503e-8,0.704,6.22e-7,0.369,0.215,0.12,NaN,NaN,NaN,NaN,NaN,NaN,NaN,NaN,3.263e-6,165,213.825,84,0,3.415,15,1013.25,340.389,0.01,0.02
1.05,5.833e-4,0.06,3.585,0.06,3.604,6.13e-5,0,6.13e-5,0,0.006,0.377,22.175,120.893,9.788,88.989,0,0,0,2.794e4,1.344e4,19.941,0.106,NaN,2018.763,NaN,0.01,6.689e5,372.693,1.465e-6,0.704,9.617e-6,0.369,0.215,0.12,NaN,NaN,NaN,NaN,NaN,NaN,NaN,NaN,8.133e-6,165,213.825,84,0,3.41,15,1013.25,340.389,0.01,0.021
1.06,0.001,0.115,5.563,0.116,5.594,1.534e-4,0,1.534e-4,0,0.012,0.585,22.175,120.893,9.788,88.111,0,0,0,2.793e4,1.343e4,19.938,0.106,NaN,2018.599,NaN,0.01,6.908e5,428.171,1.007e-5,0.702,6.196e-5,0.367,0.215,0.12,NaN,NaN,NaN,NaN,NaN,NaN,NaN,NaN,1.569e-5,165,213.825,84,0,3.52,15,1013.25,340.389,0.01,0.021
1.07,0.003,0.191,7.517,0.192,7.558,3.142e-4,0,3.142e-4,0,0.02,0.79,22.175,120.893,9.788,86.978,0,0,0,2.792e4,1.342e4,19.935,0.106,NaN,2018.415,NaN,0.011,7.13e5,482.882,4.325e-5,0.699,2.499e-4,0.364,0.215,0.12,NaN,NaN,NaN,NaN,NaN,NaN,NaN,NaN,2.59e-5,165,213.825,84,0,3.63,15,1013.25,340.389,0.01,0.021
1.08,0.005,0.288,9.758,0.29,9.812,5.658e-4,0,5.658e-4,0,0.03,1.026,22.175,120.893,9.788,85.571,0,0,0,2.791e4,1.341e4,19.931,0.106,NaN,2018.206,NaN,0.011,7.358e5,545.617,1.424e-4,0.697,7.724e-4,0.362,0.215,0.12,NaN,NaN,NaN,NaN,NaN,NaN,NaN,NaN,3.916e-5,165,213.825,84,0,3.741,15,1013.249,340.389,0.01,0.021
1.09,0.009,0.411,12.305,0.413,12.373,9.333e-4,0,9.333e-4,0,0.043,1.293,22.175,120.893,9.788,83.872,0,0,0,2.79e4,1.34e4,19.927,0.106,NaN,2017.969,NaN,0.011,7.595e5,616.859,3.932e-4,0.695,0.002,0.359,0.215,0.12,NaN,NaN,NaN,NaN,NaN,NaN,NaN,NaN,5.588e-5,165,213.825,84,0,3.851,15,1013.249,340.389,0.01,0.021
1.1,0.014,0.563,15.219,0.566,15.303,0.001,0,0.001,0,0.059,1.6,22.175,120.893,9.788,81.862,0,0,0,2.789e4,1.339e4,19.922,0.106,NaN,2017.702,NaN,0.012,7.847e5,698.307,9.58e-4,0.692,0.005,0.357,0.215,0.12,NaN,NaN,NaN,NaN,NaN,NaN,NaN,NaN,7.656e-5,165,213.825,84,0,3.961,15,1013.248,340.389,0.01,0.021
1.11,0.02,0.746,18.29,0.75,18.39,0.002,0,0.002,0,0.078,1.922,22.175,120.893,9.788,79.245,0,0,0,2.788e4,1.338e4,19.917,0.106,NaN,2017.401,NaN,0.012,7.884e5,784.022,0.002,0.692,0.01,0.357,0.215,0.12,NaN,NaN,NaN,NaN,NaN,NaN,NaN,NaN,1.014e-4,165,213.825,84,0,3.95,15,1013.248,340.389,0.01,0.022
1.12,0.029,0.96,21.44,0.966,21.559,0.003,0,0.003,0,0.101,2.253,22.175,120.893,9.788,76.223,0,0,0,2.786e4,1.336e4,19.911,0.106,NaN,2017.066,NaN,0.012,7.953e5,871.849,0.004,0.691,0.021,0.356,0.215,0.12,NaN,NaN,NaN,NaN,NaN,NaN,NaN,NaN,1.305e-4,165,213.825,84,0,3.939,15,1013.247,340.389,0.01,0.022
1.13,0.04,1.207,24.646,1.213,24.782,0.004,0,0.004,0,0.127,2.59,22.175,120.893,9.788,72.831,0,0,0,2.784e4,1.334e4,19.904,0.106,NaN,2016.696,NaN,0.012,8.061e5,961.049,0.009,0.69,0.038,0.355,0.215,0.12,NaN,NaN,NaN,NaN,NaN,NaN,NaN,NaN,1.64e-4,165,213.825,84,0,3.927,15,1013.245,340.389,0.01,0.022
1.14,0.053,1.482,27.565,1.49,27.717,0.006,0,0.006,0,0.156,2.897,22.175,120.893,9.788,69.164,0,0,0,2.782e4,1.332e4,19.897,0.106,NaN,2016.295,NaN,0.012,8.218e5,1042.073,0.015,0.689,0.065,0.354,0.215,0.12,NaN,NaN,NaN,NaN,NaN,NaN,NaN,NaN,2.015e-4,165,213.825,84,0,3.916,15,1013.244,340.389,0.01,0.022
1.15,0.069,1.783,30.094,1.793,30.26,0.007,0,0.007,0,0.187,3.163,22.175,120.893,9.788,65.338,0,0,0,2.78e4,1.33e4,19.889,0.106,NaN,2015.866,NaN,0.013,8.427e5,1112.029,0.025,0.687,0.103,0.352,0.215,0.12,NaN,NaN,NaN,NaN,NaN,NaN,NaN,NaN,2.424e-4,165,213.825,84,0,3.905,15,1013.242,340.389,0.01,0.022
1.16,0.089,2.106,32.291,2.117,32.468,0.009,0,0.009,0,0.221,3.394,22.175,120.893,9.788,61.076,0,0,0,2.778e4,1.328e4,19.881,0.106,NaN,2015.413,NaN,0.013,8.586e5,1172.553,0.039,0.686,0.156,0.351,0.215,0.12,NaN,NaN,NaN,NaN,NaN,NaN,NaN,NaN,2.862e-4,165,213.825,84,0,3.832,14.999,1013.24,340.389,0.01,0.023
1.17,0.112,2.446,34.03,2.459,34.217,0.012,0,0.012,0,0.257,3.577,22.175,120.893,9.788,56.803,0,0,0,2.776e4,1.326e4,19.873,0.105,NaN,2014.941,NaN,0.013,8.809e5,1220.187,0.058,0.684,0.22,0.349,0.215,0.12,NaN,NaN,NaN,NaN,NaN,NaN,NaN,NaN,3.325e-4,165,213.825,84,0,3.759,14.999,1013.237,340.388,0.01,0.023
1.18,0.138,2.799,35.307,2.814,35.501,0.014,0,0.014,0,0.294,3.711,22.175,120.893,9.788,52.637,0,0,0,2.774e4,1.324e4,19.864,0.105,NaN,2014.455,NaN,0.014,9.094e5,1254.818,0.082,0.682,0.293,0.347,0.215,0.12,NaN,NaN,NaN,NaN,NaN,NaN,NaN,NaN,3.804e-4,165,213.825,84,0,3.686,14.999,1013.234,340.388,0.01,0.023
1.19,0.168,3.16,36.108,3.177,36.307,0.018,0,0.018,0,0.332,3.795,22.175,120.893,9.788,48.67,0,0,0,2.771e4,1.321e4,19.855,0.105,NaN,2013.959,NaN,0.014,9.435e5,1276.135,0.112,0.679,0.369,0.344,0.215,0.12,NaN,NaN,NaN,NaN,NaN,NaN,NaN,NaN,4.295e-4,165,213.825,84,0,3.613,14.999,1013.23,340.388,0.01,0.023
1.2,0.201,3.526,36.661,3.546,36.863,0.021,0,0.021,0,0.371,3.853,22.175,120.893,9.788,44.952,0,0,0,2.769e4,1.319e4,19.846,0.105,NaN,2013.458,NaN,0.015,9.825e5,1290.479,0.146,0.676,0.444,0.341,0.215,0.12,NaN,NaN,NaN,NaN,NaN,NaN,NaN,NaN,4.793e-4,165,213.825,84,0,3.54,14.999,1013.226,340.388,0.01,0.023
1.21,0.238,3.896,36.967,3.917,37.171,0.025,0,0.025,0,0.409,3.885,22.175,120.893,9.788,42.393,0,0,0,2.767e4,1.317e4,19.837,0.105,NaN,2012.952,NaN,0.016,1.04e6,1297.933,0.183,0.673,0.496,0.337,0.215,0.12,NaN,NaN,NaN,NaN,NaN,NaN,NaN,NaN,5.295e-4,165,213.825,84,0,3.576,14.998,1013.222,340.388,0.01,0.023
1.22,0.279,4.266,37.026,4.289,37.23,0.029,0,0.029,0,0.448,3.892,22.175,120.893,9.788,40.103,0,0,0,2.764e4,1.314e4,19.828,0.105,NaN,2012.446,NaN,0.016,1.1e6,1298.512,0.223,0.669,0.541,0.334,0.215,0.12,NaN,NaN,NaN,NaN,NaN,NaN,NaN,NaN,5.798e-4,165,213.825,84,0,3.612,14.998,1013.217,340.388,0.01,0.024
1.23,0.324,4.636,37.069,4.662,37.273,0.034,0,0.034,0,0.487,3.896,22.175,120.893,9.788,38.048,0,0,0,2.762e4,1.312e4,19.819,0.105,NaN,2011.938,NaN,0.017,1.161e6,1298.633,0.267,0.665,0.582,0.33,0.215,0.12,NaN,NaN,NaN,NaN,NaN,NaN,NaN,NaN,6.302e-4,165,213.825,84,0,3.648,14.998,1013.212,340.388,0.01,0.024
1.24,0.372,5.006,36.975,5.033,37.179,0.039,0,0.039,0,0.526,3.886,22.175,120.893,9.788,36.206,0,0,0,2.76e4,1.31e4,19.81,0.105,NaN,2011.431,NaN,0.018,1.223e6,1294.965,0.314,0.662,0.616,0.327,0.215,0.12,NaN,NaN,NaN,NaN,NaN,NaN,NaN,NaN,6.804e-4,165,213.825,84,0,3.685,14.998,1013.206,340.387,0.01,0.024
1.25,0.424,5.374,36.889,5.404,37.092,0.045,0,0.045,0,0.565,3.877,22.175,120.893,9.788,34.549,0,0,0,2.757e4,1.307e4,19.801,0.105,NaN,2010.925,NaN,0.019,1.287e6,1291.53,0.364,0.659,0.646,0.324,0.215,0.12,NaN,NaN,NaN,NaN,NaN,NaN,NaN,NaN,7.305e-4,165,213.825,84,0,3.721,14.997,1013.2,340.387,0.01,0.024
1.26,0.479,5.742,36.801,5.774,37.004,0.05,0,0.05,0,0.604,3.868,22.175,120.893,9.788,32.784,0,0,0,2.755e4,1.305e4,19.792,0.105,NaN,2010.419,NaN,0.02,1.347e6,1288.052,0.418,0.656,0.677,0.321,0.215,0.12,NaN,NaN,NaN,NaN,NaN,NaN,NaN,NaN,7.805e-4,165,213.825,84,0,3.719,14.997,1013.194,340.387,0.01,0.024
1.27,0.538,6.109,36.689,6.143,36.891,0.057,0,0.057,0,0.642,3.856,22.175,120.893,9.788,31.175,0,0,0,2.753e4,1.303e4,19.783,0.105,NaN,2009.914,NaN,0.021,1.408e6,1283.912,0.475,0.653,0.703,0.318,0.215,0.12,NaN,NaN,NaN,NaN,NaN,NaN,NaN,NaN,8.303e-4,165,213.825,84,0,3.717,14.997,1013.187,340.387,0.01,0.025
1.28,0.601,6.475,36.656,6.511,36.858,0.063,0,0.063,0,0.681,3.853,22.175,120.893,9.788,29.703,0,0,0,2.75e4,1.3e4,19.774,0.105,NaN,2009.409,NaN,0.022,1.47e6,1281.967,0.534,0.651,0.726,0.316,0.215,0.12,NaN,NaN,NaN,NaN,NaN,NaN,NaN,NaN,8.801e-4,165,213.825,84,0,3.714,14.996,1013.179,340.387,0.01,0.025
1.29,0.668,6.841,36.573,6.879,36.774,0.07,0,0.07,0,0.719,3.844,22.175,120.893,9.788,28.354,0,0,0,2.748e4,1.298e4,19.765,0.105,NaN,2008.904,NaN,0.023,1.533e6,1278.651,0.595,0.648,0.744,0.313,0.215,0.12,NaN,NaN,NaN,NaN,NaN,NaN,NaN,NaN,9.298e-4,165,213.825,84,0,3.712,14.996,1013.172,340.386,0.01,0.025
1.3,0.738,7.206,36.531,7.246,36.732,0.078,0,0.078,0,0.757,3.84,22.175,120.893,9.788,27.112,0,0,0,2.746e4,1.296e4,19.756,0.105,NaN,2008.399,NaN,0.024,1.596e6,1276.485,0.659,0.646,0.76,0.311,0.215,0.12,NaN,NaN,NaN,NaN,NaN,NaN,NaN,NaN,9.795e-4,165,213.825,84,0,3.71,14.995,1013.163,340.386,0.01,0.025
1.31,0.812,7.571,36.525,7.613,36.727,0.085,0,0.085,0,0.796,3.839,22.175,120.893,9.788,26.27,0,0,0,2.743e4,1.293e4,19.747,0.105,NaN,2007.894,NaN,0.025,1.665e6,1275.318,0.725,0.643,0.769,0.308,0.215,0.12,NaN,NaN,NaN,NaN,NaN,NaN,NaN,NaN,0.001,165,213.825,84,0,3.758,14.995,1013.155,340.386,0.01,0.025
1.32,0.89,7.936,36.497,7.98,36.698,0.094,0,0.094,0,0.834,3.836,22.175,120.893,9.788,25.496,0,0,0,2.741e4,1.291e4,19.738,0.105,NaN,2007.388,NaN,0.026,1.734e6,1273.528,0.794,0.641,0.776,0.306,0.215,0.12,NaN,NaN,NaN,NaN,NaN,NaN,NaN,NaN,0.001,165,213.825,84,0,3.805,14.994,1013.146,340.385,0.01,0.025
1.33,0.971,8.301,36.547,8.347,36.748,0.102,0,0.102,0,0.872,3.841,22.175,120.893,9.788,24.779,0,0,0,2.739e4,1.289e4,19.729,0.105,NaN,2006.882,NaN,0.027,1.803e6,1273.891,0.865,0.639,0.782,0.304,0.215,0.12,NaN,NaN,NaN,NaN,NaN,NaN,NaN,NaN,0.001,165,213.825,84,0,3.853,14.994,1013.136,340.385,0.01,0.026
1.34,1.056,8.666,36.523,8.714,36.724,0.111,0,0.111,0,0.911,3.839,22.175,120.893,9.788,24.116,0,0,0,2.736e4,1.286e4,19.72,0.105,NaN,2006.376,NaN,0.028,1.872e6,1272.247,0.939,0.637,0.786,0.301,0.215,0.12,NaN,NaN,NaN,NaN,NaN,NaN,NaN,NaN,0.001,165,213.825,84,0,3.901,14.993,1013.126,340.385,0.01,0.026
1.35,1.144,9.031,36.533,9.081,36.734,0.12,0,0.12,0,0.949,3.84,22.175,120.893,9.788,23.5,0,0,0,2.734e4,1.284e4,19.711,0.105,NaN,2005.868,NaN,0.029,1.942e6,1271.517,1.015,0.635,0.79,0.299,0.215,0.12,NaN,NaN,NaN,NaN,NaN,NaN,NaN,NaN,0.001,165,213.825,84,0,3.949,14.993,1013.116,340.384,0.01,0.026
1.36,1.236,9.397,36.57,9.449,36.771,0.13,0,0.13,0,0.988,3.844,22.175,120.893,9.788,22.723,0,0,0,2.732e4,1.282e4,19.702,0.105,NaN,2005.361,NaN,0.03,2.009e6,1271.539,1.093,0.633,0.795,0.297,0.215,0.12,NaN,NaN,NaN,NaN,NaN,NaN,NaN,NaN,0.001,165,213.825,84,0,3.957,14.992,1013.105,340.384,0.01,0.026
1.37,1.332,9.763,36.586,9.816,36.788,0.14,0,0.14,0,1.026,3.845,22.175,120.893,9.788,21.997,0,0,0,2.729e4,1.279e4,19.693,0.105,NaN,2004.852,NaN,0.031,2.076e6,1270.983,1.173,0.631,0.799,0.296,0.215,0.12,NaN,NaN,NaN,NaN,NaN,NaN,NaN,NaN,0.001,165,213.825,84,0,3.965,14.991,1013.094,340.384,0.01,0.026
1.38,1.432,10.129,36.702,10.185,36.904,0.15,0,0.15,0,1.065,3.858,22.175,120.893,9.788,21.314,0,0,0,2.727e4,1.277e4,19.684,0.105,NaN,2004.342,NaN,0.032,2.144e6,1273.167,1.256,0.629,0.802,0.294,0.215,0.12,NaN,NaN,NaN,NaN,NaN,NaN,NaN,NaN,0.001,165,213.825,84,0,3.974,14.991,1013.082,340.383,0.01,0.027
1.39,1.535,10.497,36.742,10.554,36.945,0.161,0,0.161,0,1.103,3.862,22.175,120.893,9.788,20.672,0,0,0,2.725e4,1.275e4,19.675,0.105,NaN,2003.83,NaN,0.033,2.212e6,1273.278,1.34,0.628,0.804,0.292,0.215,0.12,NaN,NaN,NaN,NaN,NaN,NaN,NaN,NaN,0.001,165,213.825,84,0,3.982,14.99,1013.07,340.383,0.01,0.027
1.4,1.641,10.865,36.829,10.925,37.032,0.173,0,0.173,0,1.142,3.871,22.175,120.893,9.788,20.067,0,0,0,2.723e4,1.273e4,19.666,0.105,NaN,2003.318,NaN,0.034,2.281e6,1274.663,1.427,0.626,0.806,0.291,0.215,0.12,NaN,NaN,NaN,NaN,NaN,NaN,NaN,NaN,0.001,165,213.825,84,0,3.991,14.989,1013.057,340.382,0.01,0.027
1.41,1.752,11.234,36.936,11.296,37.139,0.184,0,0.184,0,1.181,3.882,22.175,120.893,9.788,19.627,0,0,0,2.72e4,1.27e4,19.657,0.105,NaN,2002.803,NaN,0.035,2.352e6,1276.588,1.517,0.624,0.806,0.289,0.215,0.12,NaN,NaN,NaN,NaN,NaN,NaN,NaN,NaN,0.002,165,213.825,84,0,4.028,14.989,1013.045,340.382,0.01,0.027
1.42,1.866,11.604,37.004,11.668,37.208,0.196,0,0.196,0,1.22,3.889,22.175,120.893,9.788,19.212,0,0,0,2.718e4,1.268e4,19.648,0.105,NaN,2002.288,NaN,0.036,2.423e6,1277.444,1.611,0.623,0.806,0.288,0.215,0.12,NaN,NaN,NaN,NaN,NaN,NaN,NaN,NaN,0.002,165,213.825,84,0,4.066,14.988,1013.031,340.382,0.01,0.027
1.43,1.984,11.975,37.139,12.041,37.343,0.209,0,0.209,0,1.259,3.903,22.175,120.893,9.788,18.818,0,0,0,2.716e4,1.266e4,19.639,0.105,NaN,2001.77,NaN,0.037,2.494e6,1280.14,1.711,0.623,0.807,0.288,0.215,0.12,NaN,NaN,NaN,NaN,NaN,NaN,NaN,NaN,0.002,165,213.825,84,0,4.103,14.987,1013.017,340.381,0.01,0.027
1.44,2.106,12.347,37.195,12.415,37.4,0.221,0,0.221,0,1.298,3.909,22.175,120.893,9.788,18.446,0,0,0,2.713e4,1.263e4,19.629,0.105,NaN,2001.252,NaN,0.038,2.566e6,1280.681,1.813,0.623,0.808,0.288,0.215,0.12,NaN,NaN,NaN,NaN,NaN,NaN,NaN,NaN,0.002,165,213.825,84,0,4.141,14.986,1013.003,340.381,0.01,0.028
1.45,2.231,12.72,37.304,12.79,37.509,0.234,0,0.234,0,1.337,3.921,22.175,120.893,9.788,18.093,0,0,0,2.711e4,1.261e4,19.62,0.105,NaN,2000.731,NaN,0.04,2.638e6,1282.653,1.918,0.623,0.809,0.288,0.215,0.12,NaN,NaN,NaN,NaN,NaN,NaN,NaN,NaN,0.002,165,213.825,84,0,4.179,14.985,1012.988,340.38,0.01,0.028
1.46,2.36,13.094,37.422,13.166,37.628,0.248,0,0.248,0,1.376,3.933,22.175,120.893,9.788,17.571,0,0,0,2.709e4,1.259e4,19.611,0.104,NaN,2000.209,NaN,0.041,2.708e6,1284.861,2.023,0.623,0.81,0.288,0.215,0.12,NaN,NaN,NaN,NaN,NaN,NaN,NaN,NaN,0.002,165,213.825,84,0,4.169,14.985,1012.973,340.38,0.01,0.028
1.47,2.493,13.468,37.474,13.542,37.681,0.262,0,0.262,0,1.416,3.939,22.175,120.893,9.788,17.074,0,0,0,2.706e4,1.256e4,19.602,0.104,NaN,1999.686,NaN,0.042,2.778e6,1285.292,2.129,0.623,0.81,0.288,0.215,0.12,NaN,NaN,NaN,NaN,NaN,NaN,NaN,NaN,0.002,165,213.825,84,0,4.159,14.984,1012.958,340.379,0.01,0.028
1.48,2.629,13.844,37.595,13.92,37.803,0.276,0,0.276,0,1.455,3.951,22.175,120.893,9.788,16.601,0,0,0,2.704e4,1.254e4,19.592,0.104,NaN,1999.161,NaN,0.043,2.848e6,1287.587,2.238,0.623,0.81,0.288,0.215,0.12,NaN,NaN,NaN,NaN,NaN,NaN,NaN,NaN,0.002,165,213.825,84,0,4.15,14.983,1012.942,340.379,0.01,0.028
1.49,2.77,14.22,37.641,14.299,37.849,0.291,0,0.291,0,1.495,3.956,22.175,120.893,9.788,16.149,0,0,0,2.702e4,1.252e4,19.583,0.104,NaN,1998.635,NaN,0.044,2.919e6,1287.832,2.347,0.623,0.809,0.288,0.215,0.12,NaN,NaN,NaN,NaN,NaN,NaN,NaN,NaN,0.002,165,213.825,84,0,4.14,14.982,1012.925,340.378,0.01,0.029
1.5,2.914,14.597,37.712,14.678,37.919,0.306,0,0.306,0,1.534,3.964,22.175,120.893,9.788,15.719,0,0,0,2.699e4,1.249e4,19.574,0.104,NaN,1998.108,NaN,0.045,2.99e6,1288.735,2.458,0.623,0.807,0.288,0.215,0.12,NaN,NaN,NaN,NaN,NaN,NaN,NaN,NaN,0.002,165,213.825,84,0,4.131,14.981,1012.908,340.377,0.01,0.029
1.51,3.062,14.975,37.794,15.057,38.002,0.322,0,0.322,0,1.574,3.972,22.175,120.893,9.788,15.306,0,0,0,2.697e4,1.247e4,19.564,0.104,NaN,1997.579,NaN,0.046,3.061e6,1289.948,2.569,0.623,0.805,0.288,0.215,0.12,NaN,NaN,NaN,NaN,NaN,NaN,NaN,NaN,0.002,165,213.825,84,0,4.121,14.98,1012.891,340.377,0.01,0.029
1.52,3.213,15.353,37.81,15.437,38.018,0.338,0,0.338,0,1.614,3.974,22.175,120.893,9.788,14.912,0,0,0,2.695e4,1.244e4,19.555,0.104,NaN,1997.049,NaN,0.047,3.132e6,1289.376,2.682,0.623,0.803,0.288,0.215,0.12,NaN,NaN,NaN,NaN,NaN,NaN,NaN,NaN,0.002,165,213.825,84,0,4.111,14.979,1012.873,340.376,0.01,0.029
1.53,3.369,15.732,37.95,15.819,38.159,0.354,0,0.354,0,1.654,3.989,22.175,120.893,9.788,14.534,0,0,0,2.692e4,1.242e4,19.546,0.104,NaN,1996.518,NaN,0.048,3.204e6,1292.164,2.796,0.623,0.8,0.288,0.215,0.12,NaN,NaN,NaN,NaN,NaN,NaN,NaN,NaN,0.002,165,213.825,84,0,4.101,14.978,1012.855,340.376,0.01,0.029
1.54,3.528,16.112,38.02,16.201,38.229,0.371,0,0.371,0,1.693,3.996,22.175,120.893,9.788,14.172,0,0,0,2.69e4,1.24e4,19.536,0.104,NaN,1995.985,NaN,0.049,3.276e6,1293.051,2.912,0.623,0.797,0.288,0.215,0.12,NaN,NaN,NaN,NaN,NaN,NaN,NaN,NaN,0.002,165,213.825,84,0,4.091,14.977,1012.836,340.375,0.01,0.029
1.55,3.691,16.493,38.125,16.584,38.335,0.388,0,0.388,0,1.734,4.007,22.175,120.893,9.788,13.825,0,0,0,2.687e4,1.237e4,19.527,0.104,NaN,1995.451,NaN,0.05,3.349e6,1294.89,3.03,0.623,0.793,0.288,0.215,0.12,NaN,NaN,NaN,NaN,NaN,NaN,NaN,NaN,0.002,165,213.825,84,0,4.081,14.976,1012.817,340.374,0.01,0.03
1.56,3.858,16.876,38.25,16.968,38.461,0.405,0,0.405,0,1.774,4.02,22.175,120.893,9.788,13.605,0,0,0,2.685e4,1.235e4,19.517,0.104,NaN,1994.914,NaN,0.051,3.423e6,1297.251,3.157,0.623,0.791,0.288,0.215,0.12,NaN,NaN,NaN,NaN,NaN,NaN,NaN,NaN,0.002,165,213.825,84,0,4.107,14.975,1012.798,340.374,0.01,0.03
1.57,4.028,17.258,38.27,17.353,38.481,0.423,0,0.423,0,1.814,4.022,22.175,120.893,9.788,13.395,0,0,0,2.683e4,1.233e4,19.508,0.104,NaN,1994.377,NaN,0.052,3.497e6,1296.778,3.286,0.623,0.789,0.288,0.215,0.12,NaN,NaN,NaN,NaN,NaN,NaN,NaN,NaN,0.002,165,213.825,84,0,4.133,14.974,1012.778,340.373,0.01,0.03
1.585,4.292,17.832,38.289,17.932,38.625,0.451,6.512e-5,0.451,0.008,1.89,5.083,22.175,120.893,9.788,13.068,0,0.03,4.97e-5,2.679e4,1.229e4,19.493,0.104,2039.796,1993.568,0.28,0.054,3.609e6,1298.654,3.483,0.624,0.785,0.288,0.215,0.12,3.57,1,-4.523e-4,0,0,0,0,3.091e-6,0.002,165,213.825,84,-0.002,4.171,14.972,1012.747,340.372,0.015,0.03
1.608,4.703,18.697,38.491,18.804,38.828,0.495,4.134e-4,0.495,0.048,2.004,5.103,22.175,120.893,9.788,12.537,0,0.083,3.911e-4,2.674e4,1.224e4,19.472,0.104,2046.113,1992.348,0.326,0.057,3.777e6,1301.804,3.783,0.624,0.779,0.288,0.215,0.12,3.381,1.101,1.211e-5,0,0,0,0,2.15e-5,0.003,165,213.825,84,-0.014,4.204,14.969,1012.698,340.37,0.023,0.03
1.641,5.356,20.005,38.829,20.123,39.167,0.566,0.002,0.566,0.154,2.176,5.135,22.175,120.893,9.788,11.61,0,0.184,0.002,2.666e4,1.216e4,19.439,0.104,2057.621,1990.501,0.407,0.06,4.027e6,1307.398,4.233,0.624,0.766,0.288,0.215,0.12,3.059,1.244,2.974e-4,0,0,0,0,9.184e-5,0.003,165,213.825,84,-0.057,4.179,14.965,1012.622,340.368,0.034,0.031
1.691,6.405,21.962,39.253,22.097,39.592,0.681,0.004,0.681,0.376,2.433,5.17,22.175,120.893,9.788,10.188,0,0.379,0.005,2.654e4,1.204e4,19.39,0.104,2076.58,1987.731,0.538,0.066,4.401e6,1313.533,4.915,0.624,0.745,0.288,0.215,0.121,2.588,1.393,-1.31e-4,0,0,0,0,3.281e-4,0.003,165,213.825,84,-0.189,4.052,14.958,1012.499,340.364,0.05,0.031
1.741,7.553,23.949,39.832,24.1,40.173,0.809,0.009,0.809,0.638,2.693,5.226,22.175,120.893,9.788,9.578,0,0.63,0.011,2.642e4,1.192e4,19.34,0.104,2085.243,1984.915,0.608,0.072,4.791e6,1323.765,5.749,0.624,0.735,0.288,0.216,0.121,2.394,1.455,-2.372e-4,0,0,0,0,7.633e-4,0.003,165,213.825,83.999,-0.428,4.189,14.951,1012.364,340.359,0.05,0.031
1.791,8.8,25.967,40.459,26.135,40.803,0.95,0.015,0.95,0.917,2.956,5.286,22.175,120.893,9.788,9.168,0,0.937,0.019,2.63e4,1.18e4,19.29,0.103,2091.276,1982.048,0.662,0.078,5.189e6,1335.184,6.686,0.624,0.729,0.288,0.216,0.121,2.266,1.498,-1.005e-4,0,0,0,0,0.001,0.004,165,213.825,83.998,-0.8,4.393,14.943,1012.218,340.354,0.05,0.031
1.841,10.15,28.019,41.136,28.203,41.482,1.104,0.023,1.104,1.203,3.222,5.342,22.175,120.893,9.788,8.226,0,1.304,0.034,2.617e4,1.167e4,19.238,0.103,2105.675,1979.127,0.767,0.084,5.586e6,1347.677,7.584,0.624,0.713,0.288,0.216,0.121,1.98,1.517,-2.462e-5,0,0,0,0,0.002,0.004,165,213.825,83.994,-1.333,4.315,14.934,1012.06,340.349,0.05,0.031
1.891,11.603,30.111,41.946,30.313,42.293,1.272,0.033,1.272,1.48,3.491,5.411,22.175,120.893,9.788,7.455,3.214e-7,1.729,0.054,2.605e4,1.155e4,19.185,0.103,2118.132,1976.143,0.861,0.09,5.993e6,1363.475,8.578,0.624,0.701,0.288,0.216,0.121,1.756,1.507,4.163e-4,0,0,0,0,0.004,0.004,165,213.825,83.989,-2.053,4.279,14.925,1011.889,340.343,0.05,0.032
1.941,13.162,32.236,42.613,32.455,42.962,1.453,0.044,1.453,1.737,3.764,5.462,22.175,120.893,9.788,6.611,4.998e-7,2.209,0.087,2.593e4,1.143e4,19.132,0.103,2132.49,1973.105,0.966,0.096,6.405e6,1375.364,9.613,0.625,0.688,0.288,0.216,0.121,1.519,1.462,1.336e-4,0,0,0,0,0.005,0.004,165,213.825,83.979,-2.987,4.163,14.914,1011.706,340.337,0.05,0.032
1.991,14.828,34.399,43.369,34.636,43.719,1.647,0.057,1.648,1.968,4.04,5.525,22.175,120.893,9.788,5.971,3.269e-7,2.736,0.124,2.58e4,1.13e4,19.077,0.103,2143.95,1970.006,1.054,0.102,6.827e6,1389.417,10.77,0.625,0.678,0.288,0.216,0.121,1.346,1.411,7.088e-5,0,0,0,0,0.007,0.005,165,213.825,83.964,-4.154,4.129,14.904,1011.511,340.33,0.05,0.032
2.041,16.603,36.612,44.368,36.866,44.723,1.856,0.07,1.857,2.166,4.321,5.62,22.175,120.893,9.788,5.854,4.846e-7,3.327,0.142,2.567e4,1.117e4,19.021,0.102,2146.158,1966.831,1.087,0.109,7.266e6,1409.711,12.175,0.625,0.677,0.288,0.216,0.122,1.315,1.419,-2.211e-4,0,0,0,0,0.009,0.005,165,213.825,83.941,-5.574,4.417,14.892,1011.303,340.324,0.05,0.032
2.091,18.49,38.869,45.251,39.141,45.609,2.079,0.085,2.08,2.332,4.606,5.705,22.175,120.893,9.788,5.655,0,4.003,0.165,2.554e4,1.104e4,18.964,0.102,2149.894,1963.584,1.129,0.116,7.713e6,1426.753,13.666,0.625,0.674,0.287,0.216,0.122,1.262,1.414,-4.923e-4,0,0,0,0,0.012,0.005,165,213.825,83.906,-7.273,4.674,14.88,1011.081,340.316,0.05,0.032
2.141,20.491,41.156,45.864,41.446,46.225,2.316,0.1,2.318,2.464,4.893,5.77,22.175,120.893,9.788,4.701,1.745e-6,4.725,0.282,2.541e4,1.091e4,18.906,0.102,2168.259,1960.282,1.26,0.122,8.155e6,1436.554,14.983,0.626,0.661,0.287,0.216,0.122,1.019,1.269,-4.461e-4,0,0,0,0,0.015,0.006,165,213.825,83.857,-9.268,4.392,14.867,1010.847,340.308,0.05,0.032
2.191,22.606,43.479,46.556,43.786,46.924,2.567,0.115,2.57,2.554,5.184,5.866,22.175,120.893,9.788,4.106,1.467e-6,5.439,0.389,2.528e4,1.078e4,18.847,0.102,2180.379,1956.918,1.354,0.129,8.609e6,1448.404,16.517,0.626,0.654,0.287,0.216,0.122,0.873,1.165,-1.488e-4,0,0,0,0,0.018,0.006,165,213.825,83.787,-11.545,4.342,14.853,1010.599,340.3,0.05,0.033
2.241,24.839,45.837,47.288,46.163,47.666,2.833,0.128,2.836,2.595,5.478,5.996,22.175,120.893,9.788,3.5,1.35e-6,6.169,0.545,2.515e4,1.065e4,18.787,0.102,2193.233,1953.489,1.453,0.136,9.07e6,1461.178,18.15,0.626,0.647,0.287,0.217,0.122,0.729,1.04,4.285e-5,0,0,0,0,0.02,0.006,165,213.825,83.694,-14.074,4.271,14.839,1010.337,340.291,0.05,0.033
2.291,27.191,48.221,47.796,48.566,48.191,3.114,0.14,3.117,2.582,5.776,6.16,22.175,120.893,9.788,2.652,2.844e-6,6.827,0.92,2.501e4,1.051e4,18.726,0.101,2212.135,1950.006,1.589,0.143,9.533e6,1468.288,19.807,0.627,0.639,0.287,0.217,0.123,0.537,0.831,-4.758e-4,0,0,0,0,0.023,0.007,165,213.825,83.572,-16.811,3.969,14.823,1010.061,340.282,0.05,0.033
2.341,29.661,50.609,47.87,50.973,48.281,3.41,0.149,3.414,2.509,6.077,6.293,22.175,120.893,9.788,2.347,3.689e-6,7.441,1.072,2.488e4,1.038e4,18.664,0.101,2219.288,1946.495,1.653,0.15,1e7,1464.702,21.743,0.627,0.637,0.287,0.217,0.123,0.47,0.754,1.936e-4,0,0,0,0,0.024,0.007,165,213.825,83.417,-19.682,4.127,14.807,1009.771,340.272,0.05,0.033
2.391,32.252,53,47.912,53.383,48.349,3.722,0.154,3.725,2.375,6.38,6.488,22.175,120.893,9.788,1.878,3.127e-6,8.011,1.475,2.475e4,1.025e4,18.602,0.101,2230.527,1942.956,1.743,0.157,1.047e7,1460.577,23.724,0.627,0.634,0.287,0.217,0.123,0.37,0.62,-1.008e-4,0,0,0,0,0.026,0.007,165,213.825,83.226,-22.628,4.138,14.79,1009.467,340.262,0.05,0.033
2.441,34.961,55.395,47.993,55.797,48.467,4.048,0.154,4.051,2.179,6.688,6.756,22.175,120.893,9.788,1.375,3.801e-6,8.376,2.238,2.461e4,1.011e4,18.539,0.101,2243.029,1939.385,1.84,0.164,1.094e7,1457.734,25.804,0.628,0.631,0.287,0.217,0.124,0.266,0.465,-1.779e-4,0,0,0,0,0.026,0.008,165,213.825,82.999,-25.58,4.098,14.773,1009.15,340.251,0.05,0.034
2.491,37.79,57.773,47.648,58.195,48.164,4.391,0.147,4.393,1.919,7.001,7.031,22.175,120.893,9.788,0.929,4.586e-6,8.333,3.585,2.448e4,9982.7,18.477,0.101,2254.516,1935.809,1.932,0.172,1.141e7,1444.705,27.995,0.628,0.63,0.287,0.217,0.124,0.177,0.319,2.808e-4,0,0,0,0,0.023,0.008,165,213.825,82.735,-28.457,4.09,14.754,1008.818,340.24,0.05,0.034
2.541,40.738,60.147,47.56,60.591,48.126,4.748,0.132,4.75,1.594,7.322,7.355,22.175,120.893,9.788,0.704,3.304e-6,8.197,4.523,2.435e4,9851.919,18.414,0.1,2260.535,1932.21,1.99,0.179,1.188e7,1438.362,30.343,0.629,0.63,0.287,0.218,0.124,0.133,0.244,-3.013e-4,0,0,0,0,0.021,0.008,165,213.825,82.438,-31.19,4.325,14.735,1008.472,340.228,0.05,0.034
2.591,43.805,62.51,47.331,62.976,47.968,5.122,0.108,5.123,1.206,7.653,7.788,22.175,120.893,9.788,0.387,8.988e-6,0.867,9.491,2.422e4,9721.977,18.351,0.1,2269.112,1928.595,2.064,0.186,1.234e7,1429.136,32.748,0.629,0.63,0.287,0.218,0.124,0.072,0.149,-2.795e-4,0,0,0,0,2.163e-4,0.009,165,213.825,82.111,-33.737,4.173,14.715,1008.112,340.216,0.05,0.034
2.641,46.99,64.884,47.553,65.375,48.273,5.511,0.072,5.512,0.753,7.998,8.306,22.175,120.893,9.788,0.563,1.394e-5,-6.427,6.875,2.409e4,9591.843,18.287,0.1,2264.552,1924.936,2.058,0.193,1.281e7,1431.244,35.325,0.63,0.63,0.287,0.218,0.125,0.106,0.229,-2.834e-4,0,0,0,0,-0.011,0.009,165,213.825,81.763,-36.033,4.161,14.695,1007.739,340.204,0.05,0.034
2.691,50.293,67.264,47.661,67.781,48.473,5.917,0.024,5.918,0.236,8.359,8.834,22.175,120.893,9.788,0.838,1.555e-5,-7.776,4.674,2.396e4,9461.748,18.222,0.1,2257.428,1921.238,2.038,0.2,1.328e7,1430.823,38.044,0.63,0.632,0.287,0.218,0.125,0.16,0.34,1.641e-4,0,0,0,0,-0.015,0.009,165,213.825,81.404,-38.032,4.207,14.673,1007.351,340.191,0.05,0.035
2.741,53.716,69.656,47.908,70.203,48.821,6.34,-0.038,6.34,-0.344,8.741,9.399,22.175,120.893,9.788,1.101,1.641e-5,-7.734,3.544,2.383e4,9331.363,18.157,0.1,2250.802,1917.492,2.02,0.207,1.375e7,1433.995,40.902,0.631,0.633,0.287,0.219,0.126,0.212,0.441,-3.579e-4,0,0,0,0,-0.014,0.01,165,213.825,81.046,-39.712,4.264,14.651,1006.95,340.177,0.05,0.035
2.791,57.259,72.07,48.32,72.648,49.351,6.78,-0.116,6.781,-0.984,9.146,10.034,22.175,120.893,9.788,1.43,1.748e-5,-7.148,2.866,2.37e4,9200.305,18.091,0.099,2242.644,1913.685,1.994,0.214,1.423e7,1441.415,43.928,0.631,0.635,0.287,0.219,0.126,0.278,0.566,4.3e-4,0,0,0,0,-0.011,0.01,165,213.825,80.702,-41.07,4.186,14.628,1006.534,340.163,0.05,0.035
2.841,60.924,74.501,48.685,75.114,49.816,7.238,-0.213,7.242,-1.682,9.577,10.555,22.175,120.893,9.788,1.514,1.861e-5,-6.188,2.484,2.357e4,9068.707,18.023,0.099,2240.727,1909.819,2.006,0.222,1.471e7,1447.346,47.045,0.632,0.636,0.286,0.219,0.126,0.296,0.6,-5.304e-5,0,0,0,0,-0.008,0.01,165,213.825,80.384,-42.098,4.35,14.604,1006.105,340.149,0.05,0.035
2.891,64.709,76.93,48.647,77.581,49.843,7.715,-0.327,7.722,-2.43,10.028,10.855,22.175,120.893,9.787,1.352,2.051e-5,-5.165,2.15,2.344e4,8937.495,17.955,0.099,2244.935,1905.922,2.055,0.229,1.52e7,1443.113,50.207,0.632,0.636,0.286,0.219,0.127,0.263,0.544,-4.795e-4,0,0,0,0,-0.005,0.011,165,213.825,80.103,-42.818,4.782,14.579,1005.661,340.134,0.05,0.035
2.941,68.616,79.348,48.426,80.04,49.713,8.21,-0.462,8.223,-3.22,10.499,11.237,22.175,120.893,9.787,1.509,1.874e-5,-4.041,1.963,2.331e4,8806.998,17.887,0.099,2241.206,1902.002,2.056,0.236,1.568e7,1435.232,53.538,0.633,0.637,0.286,0.22,0.127,0.295,0.608,2.231e-4,0,0,0,0,-0.003,0.011,165,213.825,79.863,-43.272,4.711,14.554,1005.202,340.119,0.05,0.035
2.991,72.644,81.778,48.649,82.513,50.023,8.724,-0.617,8.746,-4.045,10.993,11.644,22.175,120.893,9.787,1.643,1.994e-5,-2.614,1.871,2.318e4,8676.274,17.818,0.099,2238.093,1898.031,2.061,0.244,1.615e7,1437.734,56.988,0.634,0.639,0.286,0.22,0.128,0.323,0.666,-2.353e-4,0,0,0,0,-0.001,0.011,165,213.825,79.674,-43.462,4.562,14.528,1004.73,340.103,0.05,0.036
3.041,76.795,84.23,49.119,85.013,50.564,9.258,-0.793,9.292,-4.897,11.511,12,22.175,120.893,9.787,1.711,2.326e-5,-0.983,1.83,2.305e4,8544.831,17.748,0.098,2236.621,1893.993,2.077,0.251,1.664e7,1445.651,60.553,0.634,0.64,0.286,0.22,0.128,0.337,0.699,-3.21e-4,0,0,0,0,-1.525e-4,0.012,165,213.825,79.546,-43.373,4.383,14.501,1004.243,340.086,0.05,0.036
