Time (s),Altitude (m),Vertical velocity (m/s),Vertical acceleration (m/s²),Total velocity (m/s),Total acceleration (m/s²),Position East of launch (m),Position North of launch (m),Lateral distance (m),Lateral direction (°),Lateral velocity (m/s),Lateral acceleration (m/s²),Latitude (°),Longitude (°),Gravitational acceleration (m/s²),Angle of attack (°),Roll rate (°/s),Pitch rate (°/s),Yaw rate (°/s),Mass (g),Motor mass (g),Longitudinal moment of inertia (kg·m²),Rotational moment of inertia (kg·m²),CP location (cm),CG location (cm),Stability margin calibers (​),Mach number (​),Reynolds number (​),Thrust (N),Drag force (N),Drag coefficient (​),Axial drag coefficient (​),Friction drag coefficient (​),Pressure drag coefficient (​),Base drag coefficient (​),Normal force coefficient (​),Pitch moment coefficient (​),Yaw moment coefficient (​),Side force coefficient (​),Roll moment coefficient (​),Roll forcing coefficient (​),Roll damping coefficient (​),Pitch damping coefficient (​),Coriolis acceleration (m/s²),Reference length (cm),Reference area (cm²),Vertical orientation (zenith) (°),Lateral orientation (azimuth) (°),Wind velocity (m/s),Air temperature (°C),Air pressure (mbar),Speed of sound (m/s),Simulation time step (s),Computation time (s)
0.01,-4.772e-4,-0.095,-9.54,0.096,9.593,-5.015e-5,0,5.015e-5,180,0.01,1.003,22.175,120.893,9.788,180,0,0,0,2.798e4,1.35e4,21.757,0.099,NaN,201.939,NaN,2.818e-4,1.881e4,3.946,-1.52e-4,1.261,-1.261,0.926,0.215,0.12,NaN,NaN,NaN,NaN,NaN,NaN,NaN,NaN,1.297e-5,16.5,213.825,84,0,0,15,1013.25,340.389,0.01,0.001
0.02,-4.78e-4,-0.096,-9.56,0.096,9.613,-5.024e-5,0,5.024e-5,180,0.01,1.005,22.175,120.893,9.788,180,0,0,0,2.798e4,1.35e4,21.757,0.099,NaN,201.939,NaN,2.824e-4,1.885e4,3.399,-1.525e-4,1.261,-1.261,0.925,0.215,0.12,NaN,NaN,NaN,NaN,NaN,NaN,NaN,NaN,1.299e-5,16.5,213.825,84,0,0,15,1013.25,340.389,0.01,0.002
0.03,-4.766e-4,-0.095,-9.532,0.096,9.584,-5.009e-5,0,5.009e-5,180,0.01,1.002,22.175,120.893,9.788,180,0,0,0,2.798e4,1.35e4,21.757,0.099,NaN,201.939,NaN,2.816e-4,1.879e4,4.196,-1.517e-4,1.261,-1.261,0.926,0.215,0.12,NaN,NaN,NaN,NaN,NaN,NaN,NaN,NaN,1.296e-5,16.5,213.825,84,0,0,15,1013.25,340.389,0.01,0.002
0.04,-4.78e-4,-0.096,-9.56,0.096,9.612,-5.024e-5,0,5.024e-5,180,0.01,1.005,22.175,120.893,9.788,180,0,0,0,2.798e4,1.35e4,21.757,0.099,NaN,201.939,NaN,2.824e-4,1.884e4,3.408,-1.525e-4,1.261,-1.261,0.925,0.215,0.12,NaN,NaN,NaN,NaN,NaN,NaN,NaN,NaN,1.299e-5,16.5,213.825,84,0,0,15,1013.25,340.389,0.01,0.002
0.05,-4.776e-4,-0.096,-9.551,0.096,9.604,-5.019e-5,0,5.019e-5,180,0.01,1.004,22.175,120.893,9.788,180,0,0,0,2.798e4,1.35e4,21.757,0.099,NaN,201.939,NaN,2.821e-4,1.883e4,3.638,-1.523e-4,1.261,-1.261,0.926,0.215,0.12,NaN,NaN,NaN,NaN,NaN,NaN,NaN,NaN,1.298e-5,16.5,213.825,84,0,0,15,1013.25,340.389,0.01,0.002
0.06,-4.772e-4,-0.095,-9.544,0.096,9.597,-5.016e-5,0,5.016e-5,180,0.01,1.003,22.175,120.893,9.788,180,0,0,0,2.798e4,1.35e4,21.757,0.099,NaN,201.939,NaN,2.819e-4,1.881e4,3.848,-1.521e-4,1.261,-1.261,0.926,0.215,0.12,NaN,NaN,NaN,NaN,NaN,NaN,NaN,NaN,1.297e-5,16.5,213.825,84,0,0,15,1013.25,340.389,0.01,0.002
0.07,-4.775e-4,-0.096,-9.551,0.096,9.603,-5.019e-5,0,5.019e-5,180,0.01,1.004,22.175,120.893,9.788,180,0,0,0,2.798e4,1.35e4,21.757,0.099,NaN,201.939,NaN,2.821e-4,1.883e4,3.653,-1.523e-4,1.261,-1.261,0.926,0.215,0.12,NaN,NaN,NaN,NaN,NaN,NaN,NaN,NaN,1.298e-5,16.5,213.825,84,0,0,15,1013.25,340.389,0.01,0.003
0.08,-4.766e-4,-0.095,-9.533,0.096,9.585,-5.01e-5,0,5.01e-5,180,0.01,1.002,22.175,120.893,9.788,180,0,0,0,2.798e4,1.35e4,21.757,0.099,NaN,201.938,NaN,2.816e-4,1.879e4,4.165,-1.518e-4,1.261,-1.261,0.926,0.215,0.12,NaN,NaN,NaN,NaN,NaN,NaN,NaN,NaN,1.296e-5,16.5,213.825,84,0,0,15,1013.25,340.389,0.01,0.003
0.09,-4.769e-4,-0.095,-9.537,0.096,9.59,-5.012e-5,0,5.012e-5,180,0.01,1.002,22.175,120.893,9.788,180,0,0,0,2.798e4,1.35e4,21.757,0.099,NaN,201.938,NaN,2.817e-4,1.88e4,4.039,-1.519e-4,1.261,-1.261,0.926,0.215,0.12,NaN,NaN,NaN,NaN,NaN,NaN,NaN,NaN,1.296e-5,16.5,213.825,84,0,0,15,1013.25,340.389,0.01,0.003
0.1,-4.775e-4,-0.095,-9.55,0.096,9.602,-5.019e-5,0,5.019e-5,180,0.01,1.004,22.175,120.893,9.788,180,0,0,0,2.798e4,1.35e4,21.757,0.099,NaN,201.938,NaN,2.821e-4,1.883e4,3.684,-1.523e-4,1.261,-1.261,0.926,0.215,0.12,NaN,NaN,NaN,NaN,NaN,NaN,NaN,NaN,1.298e-5,16.5,213.825,84,0,0,15,1013.25,340.389,0.01,0.003
0.11,-4.763e-4,-0.095,-9.525,0.096,9.578,-5.006e-5,0,5.006e-5,180,0.01,1.001,22.175,120.893,9.788,180,0,0,0,2.798e4,1.35e4,21.757,0.099,NaN,201.938,NaN,2.814e-4,1.878e4,4.369,-1.516e-4,1.262,-1.262,0.927,0.215,0.12,NaN,NaN,NaN,NaN,NaN,NaN,NaN,NaN,1.295e-5,16.5,213.825,84,0,0,15,1013.25,340.389,0.01,0.004
0.12,-4.772e-4,-0.095,-9.544,0.096,9.597,-5.016e-5,0,5.016e-5,180,0.01,1.003,22.175,120.893,9.788,180,0,0,0,2.798e4,1.35e4,21.757,0.099,NaN,201.938,NaN,2.819e-4,1.881e4,3.832,-1.521e-4,1.261,-1.261,0.926,0.215,0.12,NaN,NaN,NaN,NaN,NaN,NaN,NaN,NaN,1.297e-5,16.5,213.825,84,0,0,15,1013.25,340.389,0.01,0.004
0.13,-4.76e-4,-0.095,-9.521,0.096,9.573,-5.003e-5,0,5.003e-5,180,0.01,1.001,22.175,120.893,9.788,180,0,0,0,2.798e4,1.35e4,21.757,0.099,NaN,201.938,NaN,2.812e-4,1.877e4,4.497,-1.514e-4,1.262,-1.262,0.927,0.215,0.12,NaN,NaN,NaN,NaN,NaN,NaN,NaN,NaN,1.294e-5,16.5,213.825,84,0,0,15,1013.25,340.389,0.01,0.004
0.14,-4.765e-4,-0.095,-9.53,0.096,9.583,-5.008e-5,0,5.008e-5,180,0.01,1.002,22.175,120.893,9.788,180,0,0,0,2.798e4,1.35e4,21.757,0.099,NaN,201.937,NaN,2.815e-4,1.879e4,4.238,-1.517e-4,1.261,-1.261,0.926,0.215,0.12,NaN,NaN,NaN,NaN,NaN,NaN,NaN,NaN,1.295e-5,16.5,213.825,84,0,0,15,1013.25,340.389,0.01,0.004
0.15,-4.766e-4,-0.095,-9.533,0.096,9.585,-5.01e-5,0,5.01e-5,180,0.01,1.002,22.175,120.893,9.788,180,0,0,0,2.798e4,1.35e4,21.757,0.099,NaN,201.937,NaN,2.816e-4,1.879e4,4.165,-1.518e-4,1.261,-1.261,0.926,0.215,0.12,NaN,NaN,NaN,NaN,NaN,NaN,NaN,NaN,1.296e-5,16.5,213.825,84,0,0,15,1013.25,340.389,0.01,0.004
0.16,-4.754e-4,-0.095,-9.509,0.096,9.561,-4.997e-5,0,4.997e-5,180,0.01,0.999,22.175,120.893,9.788,180,0,0,0,2.797e4,1.35e4,21.757,0.099,NaN,201.937,NaN,2.809e-4,1.874e4,4.835,-1.511e-4,1.262,-1.262,0.927,0.215,0.12,NaN,NaN,NaN,NaN,NaN,NaN,NaN,NaN,1.292e-5,16.5,213.825,84,0,0,15,1013.25,340.389,0.01,0.005
0.17,-4.764e-4,-0.095,-9.528,0.096,9.58,-5.007e-5,0,5.007e-5,180,0.01,1.001,22.175,120.893,9.788,180,0,0,0,2.797e4,1.35e4,21.757,0.099,NaN,201.937,NaN,2.814e-4,1.878e4,4.308,-1.516e-4,1.262,-1.262,0.926,0.215,0.12,NaN,NaN,NaN,NaN,NaN,NaN,NaN,NaN,1.295e-5,16.5,213.825,84,0,0,15,1013.25,340.389,0.01,0.005
0.18,-4.748e-4,-0.095,-9.495,0.095,9.548,-4.99e-5,0,4.99e-5,180,0.01,0.998,22.175,120.893,9.788,180,0,0,0,2.797e4,1.35e4,21.757,0.099,NaN,201.937,NaN,2.805e-4,1.872e4,5.219,-1.507e-4,1.263,-1.263,0.928,0.215,0.12,NaN,NaN,NaN,NaN,NaN,NaN,NaN,NaN,1.291e-5,16.5,213.825,84,0,0,15,1013.25,340.389,0.01,0.005
0.19,-4.759e-4,-0.095,-9.517,0.096,9.57,-5.002e-5,0,5.002e-5,180,0.01,1,22.175,120.893,9.788,180,0,0,0,2.797e4,1.35e4,21.757,0.099,NaN,201.937,NaN,2.811e-4,1.876e4,4.595,-1.513e-4,1.262,-1.262,0.927,0.215,0.12,NaN,NaN,NaN,NaN,NaN,NaN,NaN,NaN,1.294e-5,16.5,213.825,84,0,0,15,1013.25,340.389,0.01,0.005
0.2,-4.751e-4,-0.095,-9.502,0.096,9.554,-4.993e-5,0,4.993e-5,180,0.01,0.999,22.175,120.893,9.788,180,0,0,0,2.797e4,1.35e4,21.757,0.099,NaN,201.936,NaN,2.807e-4,1.873e4,5.035,-1.509e-4,1.262,-1.262,0.927,0.215,0.12,NaN,NaN,NaN,NaN,NaN,NaN,NaN,NaN,1.292e-5,16.5,213.825,84,0,0,15,1013.25,340.389,0.01,0.005
0.21,-4.738e-4,-0.095,-9.475,0.095,9.527,-4.979e-5,0,4.979e-5,180,0.01,0.996,22.175,120.893,9.788,180,0,0,0,2.797e4,1.35e4,21.757,0.099,NaN,201.936,NaN,2.799e-4,1.868e4,5.782,-1.502e-4,1.263,-1.263,0.928,0.215,0.12,NaN,NaN,NaN,NaN,NaN,NaN,NaN,NaN,1.288e-5,16.5,213.825,84,0,0,15,1013.25,340.389,0.01,0.006
0.22,-4.746e-4,-0.095,-9.492,0.095,9.544,-4.988e-5,0,4.988e-5,180,0.01,0.998,22.175,120.893,9.788,180,0,0,0,2.797e4,1.35e4,21.756,0.099,NaN,201.936,NaN,2.804e-4,1.871e4,5.316,-1.506e-4,1.263,-1.263,0.928,0.215,0.12,NaN,NaN,NaN,NaN,NaN,NaN,NaN,NaN,1.29e-5,16.5,213.825,84,0,0,15,1013.25,340.389,0.01,0.006
0.23,-4.728e-4,-0.095,-9.456,0.095,9.508,-4.969e-5,0,4.969e-5,180,0.01,0.994,22.175,120.893,9.788,180,0,0,0,2.797e4,1.35e4,21.756,0.099,NaN,201.936,NaN,2.793e-4,1.864e4,6.314,-1.496e-4,1.264,-1.264,0.929,0.215,0.12,NaN,NaN,NaN,NaN,NaN,NaN,NaN,NaN,1.285e-5,16.5,213.825,84,0,0,15,1013.25,340.389,0.01,0.006
0.24,-4.742e-4,-0.095,-9.484,0.095,9.536,-4.984e-5,0,4.984e-5,180,0.01,0.997,22.175,120.893,9.788,180,0,0,0,2.797e4,1.35e4,21.756,0.099,NaN,201.935,NaN,2.802e-4,1.87e4,5.531,-1.504e-4,1.263,-1.263,0.928,0.215,0.12,NaN,NaN,NaN,NaN,NaN,NaN,NaN,NaN,1.289e-5,16.5,213.825,84,0,0,15,1013.25,340.389,0.01,0.006
0.25,-4.731e-4,-0.095,-9.462,0.095,9.515,-4.973e-5,0,4.973e-5,180,0.01,0.995,22.175,120.893,9.788,180,0,0,0,2.797e4,1.35e4,21.756,0.099,NaN,201.935,NaN,2.795e-4,1.865e4,6.14,-1.498e-4,1.264,-1.264,0.929,0.215,0.12,NaN,NaN,NaN,NaN,NaN,NaN,NaN,NaN,1.286e-5,16.5,213.825,84,0,0,15,1013.25,340.389,0.01,0.006
0.26,-4.722e-4,-0.094,-9.444,0.095,9.496,-4.963e-5,0,4.963e-5,180,0.01,0.993,22.175,120.893,9.788,180,0,0,0,2.797e4,1.35e4,21.756,0.099,NaN,201.935,NaN,2.79e-4,1.862e4,6.656,-1.493e-4,1.264,-1.264,0.929,0.215,0.12,NaN,NaN,NaN,NaN,NaN,NaN,NaN,NaN,1.284e-5,16.5,213.825,84,0,0,15,1013.25,340.389,0.01,0.006
0.27,-4.729e-4,-0.095,-9.457,0.095,9.509,-4.97e-5,0,4.97e-5,180,0.01,0.994,22.175,120.893,9.788,180,0,0,0,2.797e4,1.35e4,21.756,0.099,NaN,201.935,NaN,2.794e-4,1.864e4,6.293,-1.497e-4,1.264,-1.264,0.929,0.215,0.12,NaN,NaN,NaN,NaN,NaN,NaN,NaN,NaN,1.285e-5,16.5,213.825,84,0,0,15,1013.25,340.389,0.01,0.007
0.28,-4.709e-4,-0.094,-9.418,0.095,9.47,-4.949e-5,0,4.949e-5,180,0.01,0.99,22.175,120.893,9.788,180,0,0,0,2.797e4,1.35e4,21.756,0.099,NaN,201.934,NaN,2.782e-4,1.857e4,7.383,-1.486e-4,1.265,-1.265,0.93,0.215,0.12,NaN,NaN,NaN,NaN,NaN,NaN,NaN,NaN,1.28e-5,16.5,213.825,84,0,0,15,1013.25,340.389,0.01,0.007
0.29,-4.715e-4,-0.094,-9.43,0.095,9.482,-4.956e-5,0,4.956e-5,180,0.01,0.991,22.175,120.893,9.788,180,0,0,0,2.797e4,1.35e4,21.756,0.099,NaN,201.934,NaN,2.786e-4,1.859e4,7.04,-1.489e-4,1.265,-1.265,0.93,0.215,0.12,NaN,NaN,NaN,NaN,NaN,NaN,NaN,NaN,1.282e-5,16.5,213.825,84,0,0,15,1013.25,340.389,0.01,0.007
0.3,-4.705e-4,-0.094,-9.411,0.095,9.463,-4.946e-5,0,4.946e-5,180,0.01,0.989,22.175,120.893,9.788,180,0,0,0,2.797e4,1.35e4,21.756,0.099,NaN,201.934,NaN,2.78e-4,1.855e4,7.588,-1.484e-4,1.265,-1.265,0.93,0.215,0.12,NaN,NaN,NaN,NaN,NaN,NaN,NaN,NaN,1.279e-5,16.5,213.825,84,0,0,15,1013.25,340.389,0.01,0.007
0.31,-4.688e-4,-0.094,-9.376,0.094,9.428,-4.927e-5,0,4.927e-5,180,0.01,0.985,22.175,120.893,9.788,180,0,0,0,2.797e4,1.35e4,21.756,0.099,NaN,201.934,NaN,2.77e-4,1.848e4,8.575,-1.474e-4,1.266,-1.266,0.931,0.215,0.12,NaN,NaN,NaN,NaN,NaN,NaN,NaN,NaN,1.274e-5,16.5,213.825,84,0,0,15,1013.25,340.389,0.01,0.007
0.32,-4.69e-4,-0.094,-9.38,0.094,9.432,-4.929e-5,0,4.929e-5,180,0.01,0.986,22.175,120.893,9.788,180,0,0,0,2.797e4,1.35e4,21.756,0.099,NaN,201.933,NaN,2.771e-4,1.849e4,8.457,-1.475e-4,1.266,-1.266,0.931,0.215,0.12,NaN,NaN,NaN,NaN,NaN,NaN,NaN,NaN,1.275e-5,16.5,213.825,84,0,0,15,1013.25,340.389,0.01,0.008
0.33,-4.666e-4,-0.093,-9.331,0.094,9.383,-4.904e-5,0,4.904e-5,180,0.01,0.981,22.175,120.893,9.788,180,0,0,0,2.797e4,1.35e4,21.756,0.099,NaN,201.933,NaN,2.756e-4,1.839e4,9.828,-1.462e-4,1.268,-1.268,0.933,0.215,0.12,NaN,NaN,NaN,NaN,NaN,NaN,NaN,NaN,1.268e-5,16.5,213.825,84,0,0,15,1013.25,340.389,0.01,0.008
0.34,-4.662e-4,-0.093,-9.324,0.094,9.376,-4.9e-5,0,4.9e-5,180,0.01,0.98,22.175,120.893,9.788,180,0,0,0,2.797e4,1.35e4,21.756,0.099,NaN,201.932,NaN,2.754e-4,1.838e4,10.028,-1.46e-4,1.268,-1.268,0.933,0.215,0.12,NaN,NaN,NaN,NaN,NaN,NaN,NaN,NaN,1.267e-5,16.5,213.825,84,0,0,15,1013.25,340.389,0.01,0.008
0.35,-4.653e-4,-0.093,-9.307,0.094,9.358,-4.891e-5,0,4.891e-5,180,0.01,0.978,22.175,120.893,9.788,180,0,0,0,2.797e4,1.35e4,21.756,0.099,NaN,201.932,NaN,2.749e-4,1.835e4,10.514,-1.455e-4,1.269,-1.269,0.934,0.215,0.12,NaN,NaN,NaN,NaN,NaN,NaN,NaN,NaN,1.265e-5,16.5,213.825,84,0,0,15,1013.25,340.389,0.01,0.008
0.36,-4.62e-4,-0.092,-9.241,0.093,9.292,-4.856e-5,0,4.856e-5,180,0.01,0.971,22.175,120.893,9.788,180,0,0,0,2.797e4,1.35e4,21.756,0.099,NaN,201.932,NaN,2.73e-4,1.822e4,12.371,-1.437e-4,1.271,-1.271,0.936,0.215,0.12,NaN,NaN,NaN,NaN,NaN,NaN,NaN,NaN,1.256e-5,16.5,213.825,84,0,0,15,1013.25,340.389,0.01,0.008
0.37,-4.612e-4,-0.092,-9.223,0.093,9.274,-4.847e-5,0,4.847e-5,180,0.01,0.969,22.175,120.893,9.788,180,0,0,0,2.797e4,1.35e4,21.756,0.099,NaN,201.931,NaN,2.725e-4,1.818e4,12.862,-1.432e-4,1.271,-1.271,0.936,0.215,0.12,NaN,NaN,NaN,NaN,NaN,NaN,NaN,NaN,1.254e-5,16.5,213.825,84,0,0,15,1013.25,340.389,0.01,0.009
0.38,-4.582e-4,-0.092,-9.164,0.092,9.215,-4.816e-5,0,4.816e-5,180,0.01,0.963,22.175,120.893,9.788,180,0,0,0,2.797e4,1.35e4,21.756,0.099,NaN,201.931,NaN,2.707e-4,1.807e4,14.525,-1.416e-4,1.273,-1.273,0.938,0.215,0.12,NaN,NaN,NaN,NaN,NaN,NaN,NaN,NaN,1.246e-5,16.5,213.825,84,0,0,15,1013.25,340.389,0.01,0.009
0.39,-4.561e-4,-0.091,-9.122,0.092,9.172,-4.794e-5,0,4.794e-5,180,0.01,0.959,22.175,120.893,9.788,180,0,0,0,2.797e4,1.35e4,21.755,0.099,NaN,201.93,NaN,2.695e-4,1.798e4,15.717,-1.405e-4,1.275,-1.275,0.94,0.215,0.12,NaN,NaN,NaN,NaN,NaN,NaN,NaN,NaN,1.24e-5,16.5,213.825,84,0,0,15,1013.25,340.389,0.01,0.009
0.4,-4.543e-4,-0.091,-9.085,0.091,9.135,-4.774e-5,0,4.774e-5,180,0.01,0.955,22.175,120.893,9.788,180,0,0,0,2.797e4,1.35e4,21.755,0.099,NaN,201.929,NaN,2.684e-4,1.791e4,16.751,-1.395e-4,1.276,-1.276,0.941,0.215,0.12,NaN,NaN,NaN,NaN,NaN,NaN,NaN,NaN,1.235e-5,16.5,213.825,84,0,0,15,1013.25,340.389,0.01,0.009
0.41,-4.507e-4,-0.09,-9.015,0.091,9.064,-4.737e-5,0,4.737e-5,180,0.009,0.947,22.175,120.893,9.788,180,0,0,0,2.797e4,1.349e4,21.755,0.099,NaN,201.929,NaN,2.663e-4,1.777e4,18.736,-1.376e-4,1.279,-1.279,0.944,0.215,0.12,NaN,NaN,NaN,NaN,NaN,NaN,NaN,NaN,1.225e-5,16.5,213.825,84,0,0,15,1013.25,340.389,0.01,0.009
0.42,-4.481e-4,-0.09,-8.963,0.09,9.012,-4.71e-5,0,4.71e-5,180,0.009,0.942,22.175,120.893,9.788,180,0,0,0,2.797e4,1.349e4,21.755,0.099,NaN,201.928,NaN,2.648e-4,1.767e4,20.199,-1.362e-4,1.28,-1.28,0.945,0.215,0.12,NaN,NaN,NaN,NaN,NaN,NaN,NaN,NaN,1.218e-5,16.5,213.825,84,0,0,15,1013.25,340.389,0.01,0.009
0.43,-4.428e-4,-0.089,-8.857,0.089,8.906,-4.654e-5,0,4.654e-5,180,0.009,0.931,22.175,120.893,9.788,180,0,0,0,2.797e4,1.349e4,21.755,0.099,NaN,201.927,NaN,2.616e-4,1.746e4,23.171,-1.334e-4,1.284,-1.284,0.949,0.215,0.12,NaN,NaN,NaN,NaN,NaN,NaN,NaN,NaN,1.204e-5,16.5,213.825,84,0,0,15,1013.25,340.389,0.01,0.01
0.44,-4.388e-4,-0.088,-8.777,0.088,8.825,-4.612e-5,0,4.612e-5,180,0.009,0.922,22.175,120.893,9.788,180,0,0,0,2.797e4,1.349e4,21.755,0.099,NaN,201.926,NaN,2.593e-4,1.73e4,25.427,-1.313e-4,1.287,-1.287,0.952,0.215,0.12,NaN,NaN,NaN,NaN,NaN,NaN,NaN,NaN,1.193e-5,16.5,213.825,84,0,0,15,1013.25,340.389,0.01,0.01
0.45,-4.324e-4,-0.086,-8.648,0.087,8.695,-4.545e-5,0,4.545e-5,180,0.009,0.909,22.175,120.893,9.788,180,0,0,0,2.797e4,1.349e4,21.754,0.099,NaN,201.925,NaN,2.555e-4,1.705e4,29.05,-1.279e-4,1.292,-1.292,0.957,0.215,0.12,NaN,NaN,NaN,NaN,NaN,NaN,NaN,NaN,1.175e-5,16.5,213.825,84,0,0,15,1013.25,340.389,0.01,0.01
0.46,-4.243e-4,-0.085,-8.487,0.085,8.534,-4.46e-5,0,4.46e-5,180,0.009,0.892,22.175,120.893,9.788,180,0,0,0,2.797e4,1.349e4,21.754,0.099,NaN,201.923,NaN,2.507e-4,1.673e4,33.572,-1.238e-4,1.298,-1.298,0.963,0.215,0.12,NaN,NaN,NaN,NaN,NaN,NaN,NaN,NaN,1.154e-5,16.5,213.825,84,0,0,15,1013.25,340.389,0.01,0.01
0.47,-4.172e-4,-0.083,-8.344,0.084,8.39,-4.385e-5,0,4.385e-5,180,0.009,0.877,22.175,120.893,9.788,180,0,0,0,2.797e4,1.349e4,21.754,0.099,NaN,201.922,NaN,2.465e-4,1.645e4,37.604,-1.201e-4,1.303,-1.303,0.968,0.215,0.12,NaN,NaN,NaN,NaN,NaN,NaN,NaN,NaN,1.134e-5,16.5,213.825,84,0,0,15,1013.25,340.389,0.01,0.01
0.48,-4.021e-4,-0.08,-8.042,0.081,8.087,-4.226e-5,0,4.226e-5,180,0.008,0.845,22.175,120.893,9.788,180,0,0,0,2.797e4,1.349e4,21.754,0.099,NaN,201.92,NaN,2.376e-4,1.585e4,46.076,-1.126e-4,1.315,-1.315,0.98,0.215,0.12,NaN,NaN,NaN,NaN,NaN,NaN,NaN,NaN,1.093e-5,16.5,213.825,84,0,0,15,1013.25,340.389,0.01,0.011
0.49,-3.871e-4,-0.077,-7.742,0.078,7.785,-4.069e-5,0,4.069e-5,180,0.008,0.814,22.175,120.893,9.788,180,0,0,0,2.797e4,1.349e4,21.753,0.099,NaN,201.918,NaN,2.287e-4,1.526e4,54.513,-1.054e-4,1.328,-1.328,0.993,0.215,0.12,NaN,NaN,NaN,NaN,NaN,NaN,NaN,NaN,1.052e-5,16.5,213.825,84,0,0,15,1013.25,340.389,0.01,0.011
0.5,-3.674e-4,-0.073,-7.348,0.074,7.388,-3.862e-5,0,3.862e-5,180,0.008,0.772,22.175,120.893,9.788,180,0,0,0,2.796e4,1.349e4,21.753,0.099,NaN,201.916,NaN,2.171e-4,1.449e4,65.594,-9.621e-5,1.346,-1.346,1.011,0.215,0.12,NaN,NaN,NaN,NaN,NaN,NaN,NaN,NaN,9.988e-6,16.5,213.825,84,0,0,15,1013.25,340.389,0.01,0.011
0.51,-3.456e-4,-0.069,-6.913,0.07,6.951,-3.633e-5,0,3.633e-5,180,0.007,0.727,22.175,120.893,9.788,180,0,0,0,2.796e4,1.349e4,21.752,0.099,NaN,201.913,NaN,2.042e-4,1.363e4,77.832,-8.65e-5,1.367,-1.367,1.032,0.215,0.12,NaN,NaN,NaN,NaN,NaN,NaN,NaN,NaN,9.396e-6,16.5,213.825,84,0,0,15,1013.25,340.389,0.01,0.011
0.52,-3.255e-4,-0.065,-6.51,0.065,6.546,-3.421e-5,0,3.421e-5,180,0.007,0.684,22.175,120.893,9.788,180,0,0,0,2.796e4,1.349e4,21.752,0.099,NaN,201.909,NaN,1.923e-4,1.283e4,89.154,-7.794e-5,1.389,-1.389,1.054,0.215,0.12,NaN,NaN,NaN,NaN,NaN,NaN,NaN,NaN,8.848e-6,16.5,213.825,84,0,0,15,1013.25,340.389,0.01,0.011
0.53,-3.016e-4,-0.06,-6.031,0.061,6.064,-3.169e-5,0,3.169e-5,180,0.006,0.634,22.175,120.893,9.788,180,0,0,0,2.796e4,1.348e4,21.751,0.099,NaN,201.905,NaN,1.782e-4,1.189e4,102.609,-6.828e-5,1.418,-1.418,1.083,0.215,0.12,NaN,NaN,NaN,NaN,NaN,NaN,NaN,NaN,8.198e-6,16.5,213.825,84,0,0,15,1013.25,340.389,0.01,0.011
0.54,-2.786e-4,-0.056,-5.571,0.056,5.602,-2.928e-5,0,2.928e-5,180,0.006,0.586,22.175,120.893,9.788,180,0,0,0,2.796e4,1.348e4,21.75,0.099,NaN,201.901,NaN,1.646e-4,1.098e4,115.517,-5.954e-5,1.449,-1.449,1.114,0.215,0.12,NaN,NaN,NaN,NaN,NaN,NaN,NaN,NaN,7.573e-6,16.5,213.825,84,0,0,15,1013.25,340.389,0.01,0.012
0.55,-2.552e-4,-0.051,-5.104,0.051,5.132,-2.682e-5,0,2.682e-5,180,0.005,0.536,22.175,120.893,9.788,180,0,0,0,2.796e4,1.348e4,21.749,0.099,NaN,201.896,NaN,1.508e-4,1.006e4,128.661,-5.12e-5,1.484,-1.484,1.149,0.215,0.12,NaN,NaN,NaN,NaN,NaN,NaN,NaN,NaN,6.937e-6,16.5,213.825,84,0,0,15,1013.25,340.389,0.01,0.012
0.56,-2.294e-4,-0.046,-4.589,0.046,4.614,-2.412e-5,0,2.412e-5,180,0.005,0.482,22.175,120.893,9.788,180,0,0,0,2.795e4,1.348e4,21.748,0.099,NaN,201.89,NaN,1.356e-4,9045.813,143.124,-4.143e-5,1.486,-1.486,1.151,0.215,0.12,NaN,NaN,NaN,NaN,NaN,NaN,NaN,NaN,6.237e-6,16.5,213.825,84,0,0,15,1013.25,340.389,0.01,0.012
0.57,-2.041e-4,-0.041,-4.081,0.041,4.103,-2.145e-5,0,2.145e-5,180,0.004,0.429,22.175,120.893,9.788,180,0,0,0,2.795e4,1.347e4,21.747,0.099,NaN,201.884,NaN,1.206e-4,8045.073,157.378,-3.277e-5,1.486,-1.486,1.151,0.215,0.12,NaN,NaN,NaN,NaN,NaN,NaN,NaN,NaN,5.547e-6,16.5,213.825,84,0,0,15,1013.25,340.389,0.01,0.012
0.58,-1.763e-4,-0.035,-3.526,0.035,3.545,-1.853e-5,0,1.853e-5,180,0.004,0.371,22.175,120.893,9.788,180,0,0,0,2.795e4,1.347e4,21.746,0.099,NaN,201.877,NaN,1.042e-4,6951.066,172.956,-2.446e-5,1.486,-1.486,1.151,0.215,0.12,NaN,NaN,NaN,NaN,NaN,NaN,NaN,NaN,4.793e-6,16.5,213.825,84,0,0,15,1013.25,340.389,0.01,0.012
0.59,-1.471e-4,-0.029,-2.941,0.03,2.957,-1.546e-5,0,1.546e-5,180,0.003,0.309,22.175,120.893,9.788,180,0,0,0,2.794e4,1.347e4,21.745,0.099,NaN,201.87,NaN,8.688e-5,5797.82,189.374,-1.702e-5,1.486,-1.486,1.151,0.215,0.12,NaN,NaN,NaN,NaN,NaN,NaN,NaN,NaN,3.998e-6,16.5,213.825,84,0,0,15,1013.25,340.389,0.01,0.013
0.6,-1.112e-4,-0.022,-2.224,0.022,2.236,-1.169e-5,0,1.169e-5,180,0.002,0.234,22.175,120.893,9.788,180,0,0,0,2.794e4,1.346e4,21.743,0.099,NaN,201.862,NaN,6.57e-5,4384.579,209.49,-9.733e-6,1.486,-1.486,1.151,0.215,0.12,NaN,NaN,NaN,NaN,NaN,NaN,NaN,NaN,3.023e-6,16.5,213.825,84,0,0,15,1013.25,340.389,0.01,0.013
0.61,-7.014e-5,-0.014,-1.402,0.014,1.41,-7.372e-6,0,7.372e-6,180,0.001,0.147,22.175,120.893,9.788,180,0,0,0,2.793e4,1.346e4,21.742,0.099,NaN,201.853,NaN,4.143e-5,2765.022,232.539,-3.871e-6,1.486,-1.486,1.151,0.215,0.12,NaN,NaN,NaN,NaN,NaN,NaN,NaN,NaN,1.907e-6,16.5,213.825,84,0,0,15,1013.25,340.389,0.01,0.013
0.62,-2.035e-5,-0.004,-0.406,0.004,0.408,-2.139e-6,0,2.139e-6,180,4.275e-4,0.043,22.175,120.893,9.788,0,0,0,0,2.793e4,1.345e4,21.74,0.099,NaN,201.843,NaN,1.201e-5,801.758,260.473,3.254e-7,1.486,1.486,1.151,0.215,0.12,NaN,NaN,NaN,NaN,NaN,NaN,NaN,NaN,5.528e-7,16.5,213.825,84,0,0,15,1013.25,340.389,0.01,0.013
0.63,4.068e-5,0.008,0.815,0.008,0.82,4.276e-6,0,4.276e-6,0,8.556e-4,0.086,22.175,120.893,9.788,0,0,0,0,2.792e4,1.345e4,21.738,0.099,NaN,201.831,NaN,2.405e-5,1604.669,294.705,1.304e-6,1.486,1.486,1.151,0.215,0.12,NaN,NaN,NaN,NaN,NaN,NaN,NaN,NaN,1.106e-6,16.5,213.825,84,0,0,15,1013.25,340.389,0.01,0.013
0.64,2.334e-4,0.03,2.228,0.031,2.24,2.453e-5,0,2.453e-5,0,0.003,0.234,22.175,120.893,9.788,0,0,0,0,2.792e4,1.344e4,21.736,0.099,NaN,201.818,NaN,8.983e-5,5994.409,334.309,1.819e-5,1.486,1.486,1.151,0.215,0.12,NaN,NaN,NaN,NaN,NaN,NaN,NaN,NaN,4.133e-6,16.5,213.825,84,0,0,15,1013.25,340.389,0.01,0.013
0.65,7.362e-4,0.07,3.977,0.071,3.998,7.738e-5,0,7.738e-5,0,0.007,0.418,22.175,120.893,9.788,0,0,0,0,2.791e4,1.344e4,21.733,0.099,NaN,201.803,NaN,2.072e-4,1.383e4,383.29,8.876e-5,1.362,1.362,1.027,0.215,0.12,NaN,NaN,NaN,NaN,NaN,NaN,NaN,NaN,9.536e-6,16.5,213.825,84,0,0,15,1013.25,340.389,0.01,0.013
0.66,0.002,0.131,6.099,0.132,6.133,1.832e-4,0,1.832e-4,0,0.014,0.641,22.175,120.893,9.788,0,0,0,0,2.79e4,1.343e4,21.73,0.099,NaN,201.786,NaN,3.873e-4,2.585e4,442.735,2.668e-4,1.172,1.172,0.837,0.215,0.12,NaN,NaN,NaN,NaN,NaN,NaN,NaN,NaN,1.782e-5,16.5,213.825,84,0,0,15,1013.25,340.389,0.01,0.013
0.67,0.003,0.219,8.745,0.22,8.793,3.669e-4,0,3.669e-4,0,0.023,0.919,22.175,120.893,9.788,0,0,0,0,2.789e4,1.342e4,21.726,0.098,NaN,201.766,NaN,6.456e-4,4.308e4,516.791,6.66e-4,1.053,1.053,0.718,0.215,0.12,NaN,NaN,NaN,NaN,NaN,NaN,NaN,NaN,2.97e-5,16.5,213.825,84,0,0,15,1013.25,340.389,0.01,0.014
0.68,0.006,0.339,12.037,0.341,12.103,6.598e-4,0,6.598e-4,0,0.036,1.265,22.175,120.893,9.788,0,0,0,0,2.788e4,1.341e4,21.722,0.098,NaN,201.742,NaN,0.001,6.68e4,608.866,0.001,0.97,0.97,0.635,0.215,0.12,NaN,NaN,NaN,NaN,NaN,NaN,NaN,NaN,4.606e-5,16.5,213.825,84,0,0,15,1013.249,340.389,0.01,0.014
0.69,0.01,0.5,16.098,0.503,16.187,0.001,0,0.001,0,0.053,1.692,22.175,120.893,9.788,0,0,0,0,2.787e4,1.339e4,21.717,0.098,NaN,201.714,NaN,0.001,9.852e4,722.382,0.003,0.908,0.908,0.573,0.215,0.12,NaN,NaN,NaN,NaN,NaN,NaN,NaN,NaN,6.793e-5,16.5,213.825,84,0,0,15,1013.249,340.389,0.01,0.014
0.7,0.017,0.707,20.716,0.711,20.83,0.002,0,0.002,0,0.074,2.177,22.175,120.893,9.788,0,0,0,0,2.785e4,1.338e4,21.711,0.098,NaN,201.681,NaN,0.002,1.393e5,851.314,0.006,0.86,0.86,0.525,0.215,0.12,NaN,NaN,NaN,NaN,NaN,NaN,NaN,NaN,9.608e-5,16.5,213.825,84,0,0,15,1013.248,340.389,0.01,0.014
0.71,0.025,0.962,25.485,0.967,25.626,0.003,0,0.003,0,0.101,2.679,22.175,120.893,9.788,0,0,0,0,2.783e4,1.336e4,21.704,0.098,NaN,201.643,NaN,0.003,1.896e5,984.251,0.01,0.823,0.823,0.488,0.215,0.12,NaN,NaN,NaN,NaN,NaN,NaN,NaN,NaN,1.307e-4,16.5,213.825,84,0,0,15,1013.247,340.389,0.01,0.014
0.72,0.036,1.262,30.016,1.269,30.181,0.004,0,0.004,0,0.133,3.155,22.175,120.893,9.788,0,0,0,0,2.781e4,1.334e4,21.697,0.098,NaN,201.599,NaN,0.004,2.487e5,1110.231,0.017,0.793,0.793,0.458,0.215,0.12,NaN,NaN,NaN,NaN,NaN,NaN,NaN,NaN,1.715e-4,16.5,213.825,84,0,0,15,1013.246,340.389,0.01,0.014
0.73,0.05,1.602,34.1,1.611,34.287,0.005,0,0.005,0,0.168,3.584,22.175,120.893,9.788,0,0,0,0,2.779e4,1.332e4,21.688,0.098,NaN,201.551,NaN,0.005,3.159e5,1223.466,0.026,0.768,0.768,0.433,0.215,0.12,NaN,NaN,NaN,NaN,NaN,NaN,NaN,NaN,2.178e-4,16.5,213.825,84,0,0,15,1013.244,340.389,0.01,0.014
0.74,0.068,1.978,37.596,1.989,37.803,0.007,0,0.007,0,0.208,3.951,22.175,120.893,9.788,0,0,0,0,2.777e4,1.329e4,21.679,0.098,NaN,201.5,NaN,0.006,3.9e5,1320.018,0.039,0.749,0.749,0.414,0.215,0.12,NaN,NaN,NaN,NaN,NaN,NaN,NaN,NaN,2.689e-4,16.5,213.825,84,0,0,15,1013.242,340.389,0.01,0.014
0.75,0.09,2.384,40.57,2.397,40.793,0.009,0,0.009,0,0.251,4.264,22.175,120.893,9.788,0,0,0,0,2.774e4,1.327e4,21.669,0.098,NaN,201.445,NaN,0.007,4.699e5,1401.763,0.055,0.732,0.732,0.397,0.215,0.12,NaN,NaN,NaN,NaN,NaN,NaN,NaN,NaN,3.24e-4,16.5,213.825,84,0,0,14.999,1013.239,340.389,0.01,0.015
0.76,0.116,2.813,42.931,2.828,43.167,0.012,0,0.012,0,0.296,4.512,22.175,120.893,9.788,0,0,0,0,2.771e4,1.324e4,21.659,0.098,NaN,201.387,NaN,0.008,5.545e5,1466.216,0.075,0.719,0.719,0.384,0.215,0.12,NaN,NaN,NaN,NaN,NaN,NaN,NaN,NaN,3.823e-4,16.5,213.825,84,0,0,14.999,1013.236,340.388,0.01,0.015
0.77,0.146,3.26,44.721,3.278,44.967,0.015,0,0.015,0,0.343,4.7,22.175,120.893,9.788,0,0,0,0,2.769e4,1.321e4,21.648,0.098,NaN,201.327,NaN,0.01,6.426e5,1514.584,0.099,0.707,0.707,0.372,0.215,0.12,NaN,NaN,NaN,NaN,NaN,NaN,NaN,NaN,4.431e-4,16.5,213.825,84,0,0,14.999,1013.233,340.388,0.01,0.015
0.78,0.181,3.717,45.794,3.738,46.046,0.019,0,0.019,0,0.391,4.813,22.175,120.893,9.788,0,0,0,0,2.766e4,1.318e4,21.637,0.098,NaN,201.266,NaN,0.011,7.328e5,1542.902,0.128,0.697,0.697,0.362,0.215,0.12,NaN,NaN,NaN,NaN,NaN,NaN,NaN,NaN,5.053e-4,16.5,213.825,84,0,0,14.999,1013.229,340.388,0.01,0.015
0.79,0.221,4.181,46.38,4.204,46.635,0.023,0,0.023,0,0.439,4.875,22.175,120.893,9.788,0,0,0,0,2.763e4,1.315e4,21.626,0.098,NaN,201.204,NaN,0.012,8.241e5,1557.611,0.159,0.688,0.688,0.353,0.215,0.12,NaN,NaN,NaN,NaN,NaN,NaN,NaN,NaN,5.683e-4,16.5,213.825,84,0,0,14.999,1013.224,340.388,0.01,0.015
0.8,0.265,4.647,46.607,4.672,46.863,0.028,0,0.028,0,0.488,4.899,22.175,120.893,9.788,0,0,0,0,2.76e4,1.312e4,21.615,0.098,NaN,201.142,NaN,0.014,9.16e5,1562.308,0.195,0.681,0.681,0.346,0.215,0.12,NaN,NaN,NaN,NaN,NaN,NaN,NaN,NaN,6.316e-4,16.5,213.825,84,0,0,14.998,1013.219,340.388,0.01,0.015
0.81,0.314,5.112,46.582,5.14,46.839,0.033,0,0.033,0,0.537,4.896,22.175,120.893,9.788,0,0,0,0,2.757e4,1.31e4,21.604,0.098,NaN,201.08,NaN,0.015,1.008e6,1560.041,0.233,0.675,0.675,0.339,0.215,0.12,NaN,NaN,NaN,NaN,NaN,NaN,NaN,NaN,6.948e-4,16.5,213.825,84,0,0,14.998,1013.213,340.388,0.01,0.015
0.82,0.367,5.577,46.512,5.608,46.768,0.039,0,0.039,0,0.586,4.889,22.175,120.893,9.788,0,0,0,0,2.754e4,1.307e4,21.593,0.098,NaN,201.018,NaN,0.016,1.099e6,1556.501,0.275,0.669,0.669,0.334,0.215,0.12,NaN,NaN,NaN,NaN,NaN,NaN,NaN,NaN,7.58e-4,16.5,213.825,84,0,0,14.998,1013.207,340.387,0.01,0.015
0.83,0.425,6.04,46.332,6.073,46.587,0.045,0,0.045,0,0.635,4.87,22.175,120.893,9.788,0,0,0,0,2.751e4,1.304e4,21.582,0.098,NaN,200.956,NaN,0.018,1.191e6,1549.967,0.321,0.664,0.664,0.328,0.215,0.12,NaN,NaN,NaN,NaN,NaN,NaN,NaN,NaN,8.21e-4,16.5,213.825,84,0,0,14.997,1013.2,340.387,0.01,0.015
0.84,0.488,6.502,46.268,6.538,46.523,0.051,0,0.051,0,0.683,4.863,22.175,120.893,9.788,0,0,0,0,2.749e4,1.301e4,21.571,0.098,NaN,200.895,NaN,0.019,1.282e6,1546.637,0.369,0.659,0.659,0.324,0.215,0.12,NaN,NaN,NaN,NaN,NaN,NaN,NaN,NaN,8.838e-4,16.5,213.825,84,0,0,14.997,1013.193,340.387,0.01,0.016
0.85,0.555,6.965,46.247,7.003,46.502,0.058,0,0.058,0,0.732,4.861,22.175,120.893,9.788,0,0,0,0,2.746e4,1.298e4,21.56,0.098,NaN,200.833,NaN,0.021,1.373e6,1544.509,0.42,0.655,0.655,0.32,0.215,0.12,NaN,NaN,NaN,NaN,NaN,NaN,NaN,NaN,9.466e-4,16.5,213.825,84,0,0,14.996,1013.185,340.387,0.01,0.016
0.86,0.627,7.428,46.368,7.469,46.624,0.066,0,0.066,0,0.781,4.874,22.175,120.893,9.788,0,0,0,0,2.743e4,1.295e4,21.549,0.098,NaN,200.771,NaN,0.022,1.464e6,1546.294,0.475,0.651,0.651,0.316,0.215,0.12,NaN,NaN,NaN,NaN,NaN,NaN,NaN,NaN,0.001,16.5,213.825,84,0,0,14.996,1013.176,340.386,0.01,0.016
0.87,0.704,7.893,46.563,7.937,46.819,0.074,0,0.074,0,0.83,4.894,22.175,120.893,9.788,0,0,0,0,2.74e4,1.292e4,21.538,0.098,NaN,200.708,NaN,0.023,1.556e6,1550.1,0.534,0.647,0.647,0.312,0.215,0.12,NaN,NaN,NaN,NaN,NaN,NaN,NaN,NaN,0.001,16.5,213.825,84,0,0,14.995,1013.167,340.386,0.01,0.016
0.88,0.785,8.361,46.757,8.407,47.014,0.083,0,0.083,0,0.879,4.914,22.175,120.893,9.788,0,0,0,0,2.737e4,1.29e4,21.527,0.098,NaN,200.645,NaN,0.025,1.648e6,1553.871,0.596,0.644,0.644,0.309,0.215,0.12,NaN,NaN,NaN,NaN,NaN,NaN,NaN,NaN,0.001,16.5,213.825,84,0,0,14.995,1013.158,340.386,0.01,0.016
0.89,0.871,8.83,46.959,8.879,47.218,0.092,0,0.092,0,0.928,4.936,22.175,120.893,9.788,0,0,0,0,2.734e4,1.287e4,21.516,0.098,NaN,200.582,NaN,0.026,1.741e6,1557.877,0.661,0.641,0.641,0.305,0.215,0.12,NaN,NaN,NaN,NaN,NaN,NaN,NaN,NaN,0.001,16.5,213.825,84,0,0,14.994,1013.148,340.385,0.01,0.016
0.9,0.962,9.301,47.135,9.352,47.394,0.101,0,0.101,0,0.978,4.954,22.175,120.893,9.788,0,0,0,0,2.731e4,1.284e4,21.505,0.098,NaN,200.519,NaN,0.027,1.833e6,1561.121,0.73,0.638,0.638,0.302,0.215,0.12,NaN,NaN,NaN,NaN,NaN,NaN,NaN,NaN,0.001,16.5,213.825,84,0,0,14.994,1013.137,340.385,0.01,0.016
0.91,1.057,9.774,47.309,9.828,47.57,0.111,0,0.111,0,1.027,4.972,22.175,120.893,9.788,0,0,0,0,2.728e4,1.281e4,21.493,0.098,NaN,200.456,NaN,0.029,1.927e6,1564.323,0.803,0.635,0.635,0.3,0.215,0.12,NaN,NaN,NaN,NaN,NaN,NaN,NaN,NaN,0.001,16.5,213.825,84,0,0,14.993,1013.126,340.385,0.01,0.016
0.925,1.209,10.483,47.319,10.542,47.698,0.127,6.545e-9,0.127,2.949e-6,1.117,6,22.175,120.893,9.788,0.083,0,1.19e-4,4.245e-6,2.724e4,1.277e4,21.476,0.098,228.363,200.36,1.697,0.031,2.067e6,1565.157,0.918,0.631,0.631,0.296,0.215,0.12,0.015,0.026,-2.669e-4,0,0,0,0,0,0.001,16.5,213.825,84,0,0,14.992,1013.108,340.384,0.015,0.016
0.948,1.457,11.551,47.533,11.619,47.913,0.154,4.263e-8,0.154,1.588e-5,1.253,6.021,22.175,120.893,9.788,0.189,0,8.131e-4,9.42e-6,2.718e4,1.27e4,21.451,0.097,228.07,200.216,1.688,0.034,2.278e6,1567.44,1.106,0.626,0.626,0.291,0.215,0.12,0.035,0.059,-2.612e-5,0,0,0,0,5.638e-9,0.002,16.5,213.825,84,0,0,14.991,1013.079,340.383,0.023,0.017
0.981,1.874,13.181,48.422,13.261,48.806,0.2,1.633e-7,0.2,4.687e-5,1.458,6.111,22.175,120.893,9.788,0.314,0,0.003,1.083e-5,2.708e4,1.26e4,21.412,0.097,227.726,199.996,1.681,0.039,2.6e6,1586.273,1.435,0.623,0.623,0.288,0.215,0.12,0.058,0.098,4.98e-4,0,0,0,0,6.773e-8,0.002,16.5,213.825,84,-2.461e-6,0,14.988,1013.03,340.382,0.034,0.017
1.031,2.595,15.663,49.836,15.763,50.227,0.28,5.127e-7,0.28,1.048e-4,1.77,6.255,22.175,120.893,9.788,0.448,0,0.011,1.805e-5,2.693e4,1.245e4,21.353,0.097,227.363,199.66,1.679,0.046,3.09e6,1616.404,2.029,0.623,0.624,0.288,0.215,0.12,0.084,0.141,1.186e-4,0,0,0,0,5.236e-7,0.002,16.5,213.825,84,-5.621e-6,0,14.983,1012.946,340.379,0.05,0.017
1.081,3.441,18.193,50.753,18.313,51.148,0.377,1.102e-6,0.377,1.677e-4,2.087,6.345,22.175,120.893,9.788,0.542,0,0.024,2.297e-5,2.678e4,1.23e4,21.292,0.097,227.11,199.318,1.684,0.054,3.589e6,1632.74,2.739,0.623,0.624,0.288,0.215,0.12,0.102,0.171,-4.61e-4,0,0,0,0,1.964e-6,0.002,16.5,213.825,83.999,-9.921e-6,0,14.978,1012.846,340.375,0.05,0.017
1.131,4.416,20.782,51.927,20.921,52.328,0.489,1.973e-6,0.489,2.311e-4,2.409,6.462,22.175,120.893,9.788,0.61,0,0.044,8.996e-7,2.662e4,1.215e4,21.23,0.097,226.932,198.966,1.695,0.061,4.1e6,1655.692,3.576,0.623,0.624,0.288,0.215,0.12,0.115,0.194,-3.093e-4,0,0,0,0,5.198e-6,0.003,16.5,213.825,83.997,-2.081e-5,0,14.971,1012.732,340.372,0.05,0.017
1.181,5.521,23.415,52.828,23.574,53.232,0.618,3.163e-6,0.618,2.933e-4,2.736,6.55,22.175,120.893,9.788,0.659,0,0.074,8.428e-6,2.647e4,1.199e4,21.166,0.096,226.806,198.607,1.709,0.069,4.62e6,1671.028,4.543,0.624,0.624,0.288,0.215,0.121,0.124,0.212,4.832e-5,0,0,0,0,1.132e-5,0.003,16.5,213.825,83.994,-2.336e-5,0,14.964,1012.603,340.367,0.05,0.017
1.231,6.759,26.108,54.031,26.288,54.441,0.763,4.714e-6,0.763,3.54e-4,3.069,6.671,22.175,120.893,9.788,0.694,0,0.114,3.522e-5,2.631e4,1.184e4,21.101,0.096,226.72,198.239,1.726,0.077,5.151e6,1694.094,5.651,0.624,0.625,0.288,0.216,0.121,0.131,0.226,4.561e-4,0,0,0,0,2.165e-5,0.004,16.5,213.825,83.99,-2.831e-5,0,14.956,1012.457,340.362,0.05,0.017
1.281,8.133,28.856,55.135,29.056,55.55,0.925,6.666e-6,0.925,4.13e-4,3.407,6.782,22.175,120.893,9.788,0.717,0,0.166,1.28e-4,2.616e4,1.168e4,21.035,0.096,226.665,197.862,1.746,0.085,5.693e6,1714.222,6.906,0.624,0.625,0.288,0.216,0.121,0.135,0.236,2.509e-4,0,0,0,0,3.758e-5,0.004,16.5,213.825,83.983,-5.115e-5,0,14.947,1012.296,340.357,0.05,0.017
1.331,9.645,31.647,56.003,31.869,56.423,1.104,9.053e-6,1.104,4.7e-4,3.75,6.872,22.175,120.893,9.788,0.73,0,0.232,3.787e-5,2.6e4,1.152e4,20.967,0.096,226.637,197.478,1.767,0.094,6.243e6,1727.906,8.311,0.624,0.625,0.288,0.216,0.121,0.138,0.243,-2.819e-4,0,0,0,0,6.085e-5,0.004,16.5,213.825,83.973,-8.82e-5,0,14.937,1012.119,340.351,0.05,0.018
1.381,11.298,34.485,56.923,34.727,57.348,1.3,1.19e-5,1.3,5.247e-4,4.097,6.97,22.175,120.893,9.788,0.735,0,0.312,1.324e-4,2.583e4,1.136e4,20.898,0.095,226.632,197.085,1.791,0.102,6.802e6,1742.723,9.872,0.625,0.626,0.287,0.216,0.121,0.139,0.249,1.643e-4,0,0,0,0,9.319e-5,0.005,16.5,213.825,83.959,-1.306e-4,0,14.927,1011.925,340.344,0.05,0.018
1.431,13.095,37.387,58.22,37.651,58.653,1.514,1.524e-5,1.514,5.771e-4,4.452,7.113,22.175,120.893,9.788,0.732,0,0.41,-8.318e-6,2.567e4,1.12e4,20.827,0.095,226.651,196.682,1.816,0.111,7.374e6,1767.008,11.608,0.625,0.626,0.287,0.216,0.122,0.138,0.251,1.424e-4,0,0,0,0,1.362e-4,0.005,16.5,213.825,83.941,-1.483e-4,0,14.915,1011.714,340.337,0.05,0.018
1.481,15.038,40.345,59.351,40.631,59.791,1.745,1.911e-5,1.745,6.273e-4,4.813,7.246,22.175,120.893,9.788,0.721,0,0.524,8.181e-6,2.551e4,1.103e4,20.755,0.095,226.691,196.269,1.844,0.119,7.957e6,1786.669,13.523,0.625,0.626,0.287,0.216,0.122,0.136,0.251,-3.86e-4,0,0,0,0,1.916e-4,0.005,16.5,213.825,83.918,-1.606e-4,0,14.902,1011.486,340.33,0.05,0.018
1.531,17.131,43.372,60.737,43.681,61.188,1.995,2.352e-5,1.995,6.756e-4,5.182,7.414,22.175,120.893,9.788,0.702,0,0.656,2.773e-4,2.534e4,1.086e4,20.68,0.095,226.753,195.845,1.873,0.128,8.553e6,1812.535,15.635,0.626,0.627,0.287,0.216,0.122,0.133,0.248,8.545e-5,0,0,0,0,2.599e-4,0.006,16.5,213.825,83.888,-1.982e-4,0,14.889,1011.241,340.321,0.05,0.018
1.581,19.377,46.481,62.369,46.813,62.832,2.264,2.852e-5,2.264,7.22e-4,5.561,7.621,22.175,120.893,9.788,0.675,0,0.807,1.963e-4,2.517e4,1.069e4,20.603,0.094,226.838,195.407,1.905,0.138,9.164e6,1844.161,17.964,0.626,0.627,0.287,0.217,0.122,0.127,0.242,7.39e-7,0,0,0,0,3.419e-4,0.006,16.5,213.825,83.852,-2.144e-4,0,14.874,1010.977,340.313,0.05,0.018
1.631,21.782,49.685,64.287,50.041,64.768,2.551,3.413e-5,2.551,7.665e-4,5.953,7.872,22.175,120.893,9.788,0.639,0,0.974,1.011e-4,2.499e4,1.052e4,20.524,0.094,226.947,194.954,1.939,0.147,9.794e6,1882.472,20.535,0.627,0.627,0.287,0.217,0.123,0.12,0.234,-7.211e-5,0,0,0,0,4.363e-4,0.007,16.5,213.825,83.807,-1.658e-4,0,14.858,1010.695,340.303,0.05,0.018
1.681,24.348,52.963,65.771,53.343,66.267,2.859,4.041e-5,2.859,8.098e-4,6.355,8.093,22.175,120.893,9.788,0.596,0,1.158,2.66e-4,2.482e4,1.034e4,20.442,0.094,227.079,194.488,1.975,0.157,1.044e7,1909.35,23.346,0.627,0.628,0.287,0.217,0.123,0.112,0.221,3.235e-4,0,0,0,0,5.423e-4,0.007,16.5,213.825,83.754,-8.626e-5,0,14.842,1010.394,340.293,0.05,0.018
1.731,27.079,56.28,66.544,56.685,67.054,3.187,4.744e-5,3.187,8.528e-4,6.764,8.256,22.175,120.893,9.788,0.545,0,1.353,4.625e-4,2.464e4,1.016e4,20.359,0.094,227.233,194.014,2.013,0.167,1.109e7,1918.283,26.375,0.628,0.628,0.287,0.217,0.124,0.102,0.205,-8.921e-5,0,0,0,0,6.559e-4,0.008,16.5,213.825,83.691,3.893e-5,0,14.824,1010.074,340.282,0.05,0.018
1.781,29.976,59.634,67.289,60.065,67.816,3.536,5.529e-5,3.536,8.96e-4,7.182,8.435,22.175,120.893,9.788,0.486,0,1.556,-1.356e-4,2.446e4,9987.04,20.275,0.093,227.409,193.53,2.053,0.177,1.175e7,1926.46,29.63,0.628,0.629,0.287,0.217,0.124,0.091,0.187,-4.449e-5,0,0,0,0,7.729e-4,0.008,16.5,213.825,83.619,1.951e-4,0,14.805,1009.734,340.271,0.05,0.019
1.831,33.041,62.965,66.801,63.422,67.34,3.905,6.409e-5,3.905,9.402e-4,7.603,8.498,22.175,120.893,9.788,0.421,7.105e-7,1.76,3.556e-4,2.429e4,9811.118,20.19,0.093,227.605,193.045,2.095,0.186,1.24e7,1904.644,33.052,0.629,0.629,0.287,0.218,0.125,0.079,0.164,-2.355e-5,0,0,0,0,8.867e-4,0.009,16.5,213.825,83.536,4.151e-4,0,14.785,1009.375,340.259,0.05,0.019
1.881,36.27,66.172,64.332,66.656,64.872,4.296,7.396e-5,4.296,9.865e-4,8.016,8.353,22.175,120.893,9.788,0.35,0,1.957,-5.802e-4,2.412e4,9641.582,20.107,0.093,227.818,192.571,2.136,0.196,1.303e7,1835.474,36.53,0.63,0.63,0.287,0.218,0.125,0.065,0.139,-3.26e-4,0,0,0,0,9.923e-4,0.009,16.5,213.825,83.443,6.946e-4,0,14.764,1008.996,340.246,0.05,0.019
1.931,39.658,69.366,64.051,69.877,64.609,4.707,8.509e-5,4.707,0.001,8.435,8.475,22.175,120.893,9.788,0.274,0,2.135,-8.996e-4,2.395e4,9473.455,20.024,0.093,228.047,192.094,2.179,0.205,1.366e7,1820.229,40.17,0.63,0.63,0.287,0.218,0.125,0.051,0.11,1.129e-4,0,0,0,0,0.001,0.009,16.5,213.825,83.34,0.001,0,14.742,1008.599,340.233,0.05,0.019
1.981,43.209,72.662,66.1,73.202,66.696,5.14,9.77e-5,5.14,0.001,8.874,8.893,22.175,120.893,9.788,0.193,5.778e-7,2.284,-7.197e-4,2.378e4,9301.568,19.938,0.092,228.292,191.6,2.224,0.215,1.43e7,1860.956,44.115,0.631,0.631,0.286,0.219,0.126,0.036,0.078,4.444e-4,0,0,0,0,0.001,0.01,16.5,213.825,83.23,0.002,0,14.719,1008.182,340.219,0.05,0.019
2.031,46.927,76.057,68.083,76.628,68.719,5.595,1.121e-4,5.595,0.001,9.334,9.329,22.175,120.893,9.788,0.11,-6.072e-7,2.391,-0.003,2.36e4,9126.117,19.849,0.092,228.546,191.087,2.27,0.225,1.497e7,1899.496,48.381,0.632,0.632,0.286,0.219,0.127,0.02,0.045,-2.977e-4,0,0,0,0,0.001,0.01,16.5,213.825,83.113,0.002,0,14.695,1007.746,340.204,0.05,0.019
2.081,50.817,79.56,70.25,80.163,70.931,6.074,1.288e-4,6.074,0.001,9.818,9.81,22.175,120.893,9.788,0.027,5.267e-7,2.444,-0.007,2.342e4,8946.761,19.757,0.092,228.803,190.556,2.318,0.236,1.566e7,1941.791,52.999,0.633,0.633,0.286,0.219,0.127,0.005,0.01,4.584e-4,0,0,0,0,0.001,0.011,16.5,213.825,82.992,0.003,0,14.67,1007.29,340.189,0.05,0.019
2.131,54.883,83.097,70.942,83.735,71.661,6.577,1.481e-4,6.577,0.001,10.318,10.126,22.175,120.893,9.788,0.053,0,-2.429,-0.004,2.324e4,8766.738,19.663,0.092,228.757,190.014,2.348,0.246,1.635e7,1949.047,57.889,0.634,0.634,0.286,0.22,0.128,0.01,0.024,3.732e-4,0,0,0,0,-9.684e-4,0.011,16.5,213.825,82.869,0.003,0,14.643,1006.813,340.173,0.05,0.019
2.181,59.126,86.634,70.925,87.308,71.677,7.105,1.703e-4,7.105,0.001,10.828,10.357,22.175,120.893,9.788,0.125,-4.466e-7,-2.338,-0.001,2.306e4,8587.562,19.568,0.091,228.582,189.467,2.371,0.257,1.704e7,1939.854,63.006,0.635,0.635,0.286,0.22,0.129,0.023,0.056,-7.459e-5,0,0,0,0,-8.252e-4,0.012,16.5,213.825,82.75,0.003,0,14.616,1006.315,340.156,0.05,0.02
2.231,63.547,90.202,71.538,90.914,72.328,7.66,1.958e-4,7.66,0.001,11.355,10.662,22.175,120.893,9.788,0.188,-1.801e-6,-2.159,4.508e-4,2.288e4,8407.87,19.471,0.091,228.438,188.909,2.396,0.267,1.774e7,1945.437,68.4,0.636,0.636,0.286,0.221,0.129,0.035,0.084,-1.43e-4,0,0,0,0,-6.493e-4,0.012,16.5,213.825,82.637,0.003,0,14.587,1005.797,340.139,0.05,0.02
2.281,68.148,93.812,72.389,94.563,73.217,8.241,2.245e-4,8.241,0.002,11.897,10.982,22.175,120.893,9.787,0.236,9.937e-7,-1.897,-7.264e-4,2.27e4,8227.163,19.372,0.091,228.335,188.339,2.424,0.278,1.844e7,1956.429,74.097,0.637,0.637,0.286,0.221,0.13,0.044,0.107,1.183e-4,0,0,0,0,-4.632e-4,0.013,16.5,213.825,82.536,0.004,0,14.557,1005.257,340.12,0.05,0.02
2.331,72.928,97.422,72.39,98.214,73.246,8.85,2.569e-4,8.85,0.002,12.45,11.161,22.175,120.893,9.787,0.268,-9.826e-7,-1.553,9.414e-4,2.252e4,8047.232,19.272,0.091,228.28,187.762,2.456,0.289,1.915e7,1948.014,80.035,0.638,0.638,0.285,0.222,0.131,0.05,0.123,3.478e-4,0,0,0,0,-2.877e-4,0.013,16.5,213.825,82.449,0.004,0,14.526,1004.697,340.102,0.05,0.02
2.381,77.89,101.067,73.076,101.901,73.958,9.486,2.93e-4,9.486,0.002,13.015,11.389,22.175,120.893,9.787,0.28,-3.084e-7,-1.142,0.001,2.234e4,7866.644,19.171,0.09,228.28,187.175,2.491,0.3,1.986e7,1955.138,86.272,0.639,0.639,0.285,0.222,0.132,0.052,0.13,1.73e-4,0,0,0,0,-1.446e-4,0.014,16.5,213.825,82.382,0.004,0,14.494,1004.115,340.082,0.05,0.02
2.431,83.036,104.76,74.062,105.638,74.966,10.152,3.332e-4,10.152,0.002,13.592,11.605,22.175,120.893,9.787,0.271,0,-0.69,-1.354e-4,2.216e4,7684.795,19.067,0.09,228.339,186.573,2.531,0.311,2.058e7,1968.808,92.845,0.64,0.64,0.285,0.223,0.133,0.051,0.129,-1.335e-4,0,0,0,0,-4.908e-5,0.014,16.5,213.825,82.336,0.004,0,14.46,1003.511,340.062,0.05,0.02
2.481,88.368,108.511,75.21,109.433,76.127,10.846,3.778e-4,10.846,0.002,14.18,11.781,22.175,120.893,9.787,0.242,-3.775e-7,-0.228,0.001,2.198e4,7501.381,18.96,0.09,228.458,185.956,2.576,0.322,2.131e7,1985.734,99.779,0.641,0.641,0.285,0.223,0.133,0.045,0.117,1.423e-4,0,0,0,0,-5.007e-6,0.015,16.5,213.825,82.313,0.005,0,14.426,1002.886,340.041,0.05,0.02
2.531,93.888,112.293,75.845,113.26,76.761,11.57,4.269e-4,11.57,0.002,14.771,11.823,22.175,120.893,9.787,0.194,0,0.201,-0.001,2.179e4,7317.476,18.852,0.089,228.63,185.327,2.624,0.333,2.205e7,1991.05,107.038,0.643,0.643,0.285,0.224,0.134,0.036,0.095,1.29e-4,0,0,0,0,3.616e-6,0.015,16.5,213.825,82.313,0.005,0,14.39,1002.239,340.019,0.05,0.02
2.581,99.597,116.092,76.171,117.104,77.074,12.323,4.806e-4,12.323,0.002,15.36,11.761,22.175,120.893,9.787,0.131,0,0.549,0.001,2.161e4,7133.711,18.741,0.089,228.845,184.688,2.676,0.344,2.279e7,1989.537,114.602,0.644,0.644,0.284,0.224,0.135,0.024,0.065,-1.972e-4,0,0,0,0,2.531e-5,0.016,16.5,213.825,82.332,0.005,0,14.353,1001.569,339.997,0.05,0.02
2.631,105.497,119.891,76.168,120.946,77.047,13.106,5.39e-4,13.106,0.002,15.943,11.605,22.175,120.893,9.787,0.06,0,0.772,7.082e-4,2.143e4,6950.733,18.63,0.089,229.085,184.04,2.73,0.356,2.352e7,1981.005,122.443,0.645,0.645,0.284,0.225,0.136,0.011,0.03,4.177e-4,0,0,0,0,4.691e-5,0.016,16.5,213.825,82.366,0.005,0,14.314,1000.877,339.973,0.05,0.021
2.681,111.586,123.687,76.123,124.785,76.974,13.917,6.022e-4,13.917,0.002,16.517,11.414,22.175,120.893,9.787,0.013,-1.367e-6,-0.83,0.008,2.124e4,6768.605,18.517,0.089,229.26,183.385,2.78,0.367,2.426e7,1971.826,130.56,0.647,0.647,0.284,0.226,0.138,0.002,0.007,-2.836e-4,0,0,0,0,-5.091e-5,0.017,16.5,213.825,82.407,0.005,0,14.275,1000.163,339.949,0.05,0.021
2.731,117.865,127.473,75.89,128.612,76.712,14.757,6.703e-4,14.757,0.003,17.08,11.199,22.175,120.893,9.787,0.077,0,-0.7,-0.001,2.106e4,6587.653,18.403,0.088,229.125,182.722,2.812,0.378,2.499e7,1959.073,138.935,0.648,0.648,0.284,0.226,0.139,0.014,0.04,-4.234e-5,0,0,0,0,-3.414e-5,0.017,16.5,213.825,82.446,0.005,0,14.234,999.426,339.925,0.05,0.021
2.781,124.333,131.255,75.809,132.434,76.608,15.625,7.43e-4,15.625,0.003,17.635,11.035,22.175,120.893,9.787,0.125,-4.303e-7,-0.392,0.002,2.088e4,6407.538,18.288,0.088,229.038,182.051,2.848,0.39,2.572e7,1950.026,147.583,0.65,0.65,0.283,0.227,0.14,0.023,0.067,4.566e-5,0,0,0,0,-1.008e-5,0.018,16.5,213.825,82.474,0.005,0,14.192,998.668,339.899,0.05,0.021
2.831,130.989,134.998,75.015,136.216,75.795,16.52,8.203e-4,16.52,0.003,18.177,10.844,22.175,120.893,9.787,0.15,0,0.068,0.003,2.071e4,6229.576,18.172,0.088,229.015,181.377,2.887,0.401,2.644e7,1926.697,156.419,0.652,0.652,0.283,0.228,0.141,0.028,0.082,2.958e-4,0,0,0,0,2.902e-7,0.018,16.5,213.825,82.482,0.004,0,14.149,997.887,339.873,0.05,0.021
2.881,137.83,138.624,72.645,139.88,73.406,17.442,9.015e-4,17.442,0.003,18.703,10.537,22.175,120.893,9.787,0.149,0,0.604,-0.001,2.053e4,6056.698,18.058,0.088,229.067,180.711,2.931,0.412,2.714e7,1871.671,165.239,0.653,0.653,0.283,0.228,0.142,0.028,0.082,-3.773e-4,0,0,0,0,2.146e-5,0.019,16.5,213.825,82.465,0.004,0,14.104,997.085,339.846,0.05,0.021
2.931,144.849,142.145,70.525,143.438,71.283,18.39,9.864e-4,18.39,0.003,19.217,10.366,22.175,120.893,9.787,0.121,0,1.116,-5.12e-4,2.036e4,5888.294,17.945,0.087,229.191,180.051,2.978,0.422,2.781e7,1823.229,174.051,0.655,0.655,0.283,0.229,0.143,0.023,0.068,1.85e-4,0,0,0,0,6.97e-5,0.019,16.5,213.825,82.422,0.004,0,14.058,996.262,339.818,0.05,0.021
2.981,152.042,145.563,68.451,146.893,69.22,19.364,0.001,19.364,0.003,19.726,10.292,22.175,120.893,9.787,0.073,1.243e-6,1.516,-0.005,2.02e4,5724.161,17.833,0.087,229.372,179.397,3.029,0.432,2.847e7,1776.994,182.847,0.656,0.656,0.282,0.23,0.144,0.014,0.041,-2.275e-4,0,0,0,0,1.226e-4,0.02,16.5,213.825,82.355,0.006,0,14.012,995.418,339.79,0.05,0.021
3.031,159.402,148.835,65.499,150.203,66.282,20.363,0.001,20.363,0.003,20.227,10.158,22.175,120.893,9.787,0.013,1.026e-6,1.703,-0.031,2.004e4,5565.832,17.723,0.087,229.585,178.757,3.08,0.442,2.909e7,1714.157,191.49,0.658,0.658,0.282,0.23,0.145,0.002,0.007,4.71e-4,0,0,0,0,1.479e-4,0.02,16.5,213.825,82.273,0.007,0,13.964,994.555,339.761,0.05,0.021
3.081,166.921,151.932,61.992,153.338,62.786,21.386,0.001,21.386,0.003,20.718,9.956,22.175,120.893,9.787,0.045,-2.057e-6,-1.62,-0.007,1.989e4,5414.226,17.616,0.087,229.541,178.134,3.116,0.451,2.968e7,1641.368,199.879,0.659,0.659,0.282,0.231,0.146,0.008,0.027,3.893e-4,0,0,0,0,-1.285e-4,0.021,16.5,213.825,82.189,0.009,0,13.915,993.673,339.731,0.05,0.022
3.131,174.59,154.829,57.966,156.273,58.761,22.434,0.001,22.434,0.004,21.194,9.631,22.175,120.893,9.787,0.089,-2.909e-6,-1.285,-0.003,1.975e4,5270.198,17.514,0.086,229.462,177.533,3.147,0.46,3.023e7,1559.33,207.904,0.661,0.661,0.282,0.232,0.148,0.017,0.053,4.842e-4,0,0,0,0,-7.777e-5,0.021,16.5,213.825,82.115,0.009,0,13.865,992.774,339.701,0.05,0.022
3.181,182.397,157.439,52.211,158.919,52.975,23.505,0.002,23.505,0.004,21.64,8.965,22.175,120.893,9.787,0.109,-1.335e-6,-0.755,-0.003,1.961e4,5136.823,17.417,0.086,229.446,176.969,3.18,0.468,3.072e7,1443.981,215.274,0.662,0.662,0.281,0.232,0.148,0.021,0.066,-2.318e-4,0,0,0,0,-2.6e-5,0.021,16.5,213.825,82.064,0.008,0,13.814,991.858,339.67,0.05,0.022
3.231,190.325,159.681,44.848,161.195,45.547,24.597,0.002,24.597,0.004,22.037,7.946,22.175,120.893,9.787,0.101,0,-0.176,-0.007,1.949e4,5016.93,17.33,0.086,229.504,176.455,3.215,0.475,3.115e7,1298.007,221.698,0.663,0.663,0.281,0.233,0.149,0.019,0.061,4.351e-4,0,0,0,0,-1.366e-6,0.022,16.5,213.825,82.041,0.007,0,13.763,990.928,339.639,0.05,0.022
3.281,198.355,161.544,37.257,163.087,37.868,25.707,0.002,25.707,0.004,22.379,6.778,22.175,120.893,9.787,0.067,0,0.301,-0.006,1.939e4,4910.835,17.251,0.086,229.626,175.995,3.25,0.48,3.149e7,1148.651,227.086,0.664,0.664,0.281,0.233,0.15,0.013,0.041,-3.107e-4,0,0,0,0,3.919e-6,0.022,16.5,213.825,82.046,0.005,0,13.711,989.986,339.608,0.05,0.022
3.331,206.468,162.986,28.834,164.553,29.339,26.833,0.002,26.833,0.004,22.655,5.423,22.175,120.893,9.787,0.019,-1.061e-6,0.555,-0.014,1.93e4,4819.954,17.183,0.086,229.785,175.597,3.284,0.485,3.175e7,983.929,231.27,0.665,0.665,0.281,0.233,0.151,0.003,0.011,3.129e-4,0,0,0,0,1.308e-5,0.022,16.5,213.825,82.069,0.004,0,13.658,989.035,339.576,0.05,0.022
3.381,214.643,163.993,20.135,165.579,20.533,27.971,0.002,27.971,0.004,22.861,4.021,22.175,120.893,9.787,0.032,-9.409e-7,-0.512,-0.007,1.922e4,4744.715,17.127,0.086,229.764,175.265,3.303,0.488,3.193e7,814.576,234.168,0.666,0.666,0.281,0.234,0.151,0.006,0.02,2.567e-4,0,0,0,0,-1.1e-5,0.022,16.5,213.825,82.097,0.003,0,13.605,988.076,339.543,0.05,0.022
3.431,222.859,164.63,12.729,166.23,13.044,29.118,0.002,29.118,0.004,23.006,2.85,22.175,120.893,9.787,0.07,-1.038e-6,-0.196,-0.001,1.916e4,4682.75,17.08,0.086,229.669,174.989,3.314,0.49,3.204e7,670.862,235.952,0.666,0.666,0.281,0.234,0.151,0.013,0.044,-2.108e-4,0,0,0,0,-1.596e-6,0.022,16.5,213.825,82.116,0.004,0,13.551,987.112,339.511,0.05,0.022
3.481,231.097,164.92,5.809,166.53,6.093,30.27,0.002,30.27,0.004,23.099,1.836,22.175,120.893,9.787,0.085,-1.337e-6,0.304,-0.003,1.911e4,4633.166,17.042,0.085,229.631,174.767,3.325,0.491,3.207e7,536.827,236.678,0.666,0.666,0.281,0.234,0.151,0.016,0.054,-9.383e-6,0,0,0,0,3.835e-6,0.023,16.5,213.825,82.113,0.005,0,13.498,986.146,339.479,0.05,0.022
3.531,239.342,164.879,-0.816,166.495,1.259,31.426,0.002,31.426,0.004,23.145,0.959,22.175,120.893,9.787,0.075,-2.455e-6,0.811,-0.006,1.907e4,4595.435,17.013,0.085,229.66,174.598,3.337,0.49,3.205e7,408.489,236.387,0.666,0.666,0.281,0.234,0.151,0.014,0.047,-3.755e-4,0,0,0,0,2.733e-5,0.023,16.5,213.825,82.084,0.007,0,13.444,985.179,339.446,0.05,0.022
3.581,247.579,164.589,-5.783,166.21,5.796,32.584,0.003,32.584,0.005,23.161,0.385,22.175,120.893,9.787,0.043,2.565e-6,1.189,-0.007,1.904e4,4566.618,16.991,0.085,229.743,174.468,3.35,0.49,3.197e7,311.985,235.339,0.666,0.666,0.281,0.234,0.151,0.008,0.027,-3.254e-4,0,0,0,0,5.888e-5,0.022,16.5,213.825,82.033,0.008,0,13.391,984.213,339.414,0.05,0.023
3.631,255.796,164.106,-9.621,165.732,9.621,33.742,0.003,33.742,0.005,23.157,0.003,22.175,120.893,9.787,0.001,-8.399e-7,1.32,-0.164,1.902e4,4544.733,16.974,0.085,229.853,174.369,3.363,0.488,3.186e7,236.943,233.714,0.666,0.666,0.281,0.234,0.151,2.275e-4,8.657e-4,7.977e-5,0,0,0,0,7.306e-5,0.022,16.5,213.825,81.968,0.008,0,13.337,983.249,339.381,0.05,0.023
3.681,263.986,163.465,-12.771,165.095,12.775,34.899,0.003,34.899,0.005,23.138,0.31,22.175,120.893,9.787,0.039,-1.7e-6,-1.21,-0.004,1.9e4,4528.591,16.961,0.085,229.738,174.295,3.36,0.487,3.172e7,174.76,231.626,0.665,0.665,0.281,0.234,0.151,0.007,0.025,4.55e-4,0,0,0,0,-6.186e-5,0.022,16.5,213.825,81.903,0.008,0,13.284,982.289,339.349,0.05,0.023
3.731,272.139,162.689,-15.475,164.321,15.487,36.055,0.003,36.055,0.005,23.105,0.61,22.175,120.893,9.787,0.065,-1.785e-6,-0.884,0.002,1.899e4,4517.445,16.953,0.085,229.653,174.245,3.358,0.484,3.155e7,120.672,229.146,0.665,0.665,0.281,0.233,0.15,0.012,0.042,-1.695e-4,0,0,0,0,-3.328e-5,0.022,16.5,213.825,81.85,0.006,0,13.231,981.333,339.317,0.05,0.023
3.781,280.252,161.798,-17.73,163.433,17.754,37.209,0.003,37.209,0.005,23.059,0.92,22.175,120.893,9.787,0.071,-1.519e-6,-0.463,0.005,1.899e4,4510.545,16.947,0.085,229.623,174.213,3.358,0.482,3.136e7,74.706,226.347,0.664,0.665,0.281,0.233,0.15,0.013,0.045,-3.038e-4,0,0,0,0,-9.227e-6,0.022,16.5,213.825,81.817,0.006,0,13.178,980.381,339.285,0.05,0.023
3.831,288.317,160.841,-19.065,162.478,19.101,38.361,0.003,38.361,0.005,23.002,1.167,22.175,120.893,9.787,0.056,-2.991e-7,-0.071,0.002,1.898e4,4506.296,16.944,0.085,229.65,174.194,3.361,0.479,3.115e7,46.005,223.369,0.664,0.664,0.281,0.233,0.15,0.011,0.036,-1.139e-4,0,0,0,0,-2.217e-7,0.022,16.5,213.825,81.805,0.007,0,13.126,979.435,339.253,0.05,0.023
3.881,296.335,159.848,-19.78,161.485,19.828,39.509,0.003,39.509,0.005,22.935,1.372,22.175,120.893,9.787,0.026,-7.772e-7,0.178,0.004,1.898e4,4503.619,16.942,0.085,229.718,174.182,3.366,0.476,3.094e7,28.976,220.309,0.664,0.664,0.281,0.233,0.149,0.005,0.017,8.788e-5,0,0,0,0,1.397e-6,0.022,16.5,213.825,81.809,0.008,0,13.074,978.495,339.222,0.05,0.023
3.931,304.302,158.84,-20.079,160.476,20.137,40.654,0.004,40.654,0.005,22.861,1.532,22.175,120.893,9.787,0.01,0,-0.232,-0.005,1.898e4,4501.783,16.941,0.085,229.749,174.174,3.368,0.473,3.073e7,19.875,217.232,0.663,0.663,0.281,0.233,0.149,0.002,0.006,1.217e-5,0,0,0,0,-2.405e-6,0.022,16.5,213.825,81.821,0.009,0,13.022,977.56,339.19,0.05,0.023
3.981,312.218,157.827,-20.17,159.462,20.237,41.795,0.004,41.795,0.005,22.78,1.646,22.175,120.893,9.787,0.041,-6.41e-7,-0.083,0.002,1.898e4,4500.416,16.939,0.085,229.646,174.167,3.362,0.47,3.052e7,14.809,214.169,0.663,0.663,0.281,0.232,0.149,0.008,0.026,-4.922e-4,0,0,0,0,-3.136e-7,0.022,16.5,213.825,81.829,0.01,0,12.971,976.632,339.159,0.05,0.023
4,315.174,157.446,-20.253,159.081,20.323,42.222,0.004,42.222,0.005,22.749,1.689,22.175,120.893,9.787,0.051,-7.096e-7,0.02,-8.561e-5,1.898e4,4500,16.939,0.085,229.613,174.165,3.36,0.469,3.044e7,11.991,213.026,0.662,0.662,0.281,0.232,0.149,0.01,0.032,1.571e-4,0,0,0,0,1.858e-8,0.022,16.5,213.825,81.83,0.009,0,12.951,976.285,339.147,0.019,0.024
4.028,319.594,156.861,-20.783,158.494,20.86,42.861,0.004,42.861,0.005,22.698,1.793,22.175,120.893,9.787,0.06,-7.412e-7,0.201,-4.66e-4,1.898e4,4500,16.939,0.085,229.579,174.165,3.358,0.467,3.031e7,0,211.274,0.662,0.662,0.281,0.232,0.148,0.011,0.039,1.373e-4,0,0,0,0,1.851e-6,0.021,16.5,213.825,81.827,0.009,0,12.923,975.767,339.13,0.028,0.024
4.07,326.193,155.987,-20.646,157.619,20.723,43.817,0.004,43.817,0.005,22.623,1.785,22.175,120.893,9.787,0.064,-4.35e-7,0.493,-0.002,1.898e4,4500,16.939,0.085,229.556,174.165,3.357,0.465,3.013e7,0,208.677,0.662,0.662,0.282,0.232,0.148,0.012,0.041,3.826e-4,0,0,0,0,1.125e-5,0.021,16.5,213.825,81.812,0.009,0,12.88,974.993,339.104,0.042,0.024
4.12,333.967,154.958,-20.492,156.588,20.565,44.946,0.004,44.946,0.005,22.535,1.731,22.175,120.893,9.787,0.053,-2.195e-6,0.823,-0.003,1.898e4,4500,16.939,0.085,229.572,174.165,3.358,0.462,2.992e7,0,205.644,0.661,0.661,0.282,0.232,0.148,0.01,0.033,3.318e-4,0,0,0,0,3.181e-5,0.021,16.5,213.825,81.778,0.01,0,12.829,974.081,339.073,0.05,0.024
4.17,341.689,153.937,-20.346,155.566,20.412,46.071,0.004,46.071,0.006,22.45,1.643,22.175,120.893,9.787,0.029,4.433e-7,1.05,-0.008,1.898e4,4500,16.939,0.085,229.624,174.165,3.361,0.459,2.97e7,0,202.661,0.661,0.661,0.282,0.232,0.147,0.005,0.018,-2.02e-4,0,0,0,0,5.24e-5,0.021,16.5,213.825,81.731,0.01,0,12.779,973.176,339.043,0.05,0.024
4.22,349.361,152.924,-20.205,154.551,20.263,47.191,0.005,47.191,0.006,22.371,1.54,22.175,120.893,9.787,0.001,-1.807e-6,-1.116,-0.08,1.898e4,4500,16.939,0.085,229.685,174.165,3.365,0.456,2.949e7,0,199.728,0.66,0.66,0.282,0.231,0.147,2.486e-4,0.001,-2.562e-4,0,0,0,0,-6.002e-5,0.021,16.5,213.825,81.675,0.01,0,12.729,972.276,339.013,0.05,0.024
4.27,356.982,151.917,-20.065,153.544,20.117,48.308,0.005,48.308,0.006,22.296,1.447,22.175,120.893,9.787,0.029,0,-1.039,-0.007,1.898e4,4500,16.939,0.085,229.593,174.165,3.359,0.453,2.928e7,0,196.844,0.66,0.66,0.282,0.231,0.147,0.005,0.018,-1.465e-6,0,0,0,0,-5.267e-5,0.021,16.5,213.825,81.621,0.01,0,12.68,971.382,338.983,0.05,0.024
4.32,364.552,150.917,-19.924,152.545,19.971,49.421,0.005,49.421,0.006,22.226,1.38,22.175,120.893,9.787,0.048,1.622e-6,-0.835,-0.006,1.898e4,4500,16.939,0.085,229.526,174.165,3.355,0.45,2.907e7,0,194.008,0.659,0.659,0.282,0.231,0.146,0.009,0.03,2.015e-4,0,0,0,0,-3.452e-5,0.021,16.5,213.825,81.574,0.009,0,12.63,970.494,338.953,0.05,0.024
4.37,372.073,149.924,-19.779,151.553,19.825,50.53,0.005,50.53,0.006,22.158,1.35,22.175,120.893,9.787,0.054,6.779e-7,-0.569,-0.003,1.898e4,4500,16.939,0.085,229.496,174.165,3.353,0.447,2.887e7,0,191.216,0.659,0.659,0.282,0.231,0.146,0.01,0.034,-4.925e-4,0,0,0,0,-1.621e-5,0.021,16.5,213.825,81.539,0.008,0,12.582,969.612,338.923,0.05,0.024
4.42,379.545,148.939,-19.632,150.568,19.679,51.637,0.005,51.637,0.006,22.09,1.356,22.175,120.893,9.787,0.046,-5.395e-7,-0.304,0.001,1.898e4,4500,16.939,0.085,229.504,174.165,3.354,0.444,2.866e7,0,188.469,0.658,0.658,0.282,0.231,0.146,0.009,0.029,-1.605e-4,0,0,0,0,-4.692e-6,0.02,16.5,213.825,81.518,0.008,0,12.533,968.736,338.894,0.05,0.025
4.47,386.967,147.961,-19.483,149.591,19.532,52.739,0.006,52.739,0.006,22.022,1.391,22.175,120.893,9.787,0.027,-8.504e-7,-0.119,0.004,1.898e4,4500,16.939,0.085,229.543,174.165,3.356,0.441,2.846e7,0,185.765,0.658,0.658,0.282,0.23,0.145,0.005,0.017,-2.776e-4,0,0,0,0,-7.311e-7,0.02,16.5,213.825,81.508,0.008,0,12.485,967.865,338.865,0.05,0.025
4.52,394.341,146.991,-19.334,148.621,19.387,53.839,0.006,53.839,0.006,21.951,1.438,22.175,120.893,9.786,0.003,-4.761e-7,-0.041,0.005,1.898e4,4500,16.939,0.085,229.597,174.165,3.36,0.439,2.826e7,0,183.105,0.657,0.657,0.282,0.23,0.145,5.006e-4,0.002,-1.479e-5,0,0,0,0,-8.749e-8,0.02,16.5,213.825,81.504,0.008,0,12.437,967,338.836,0.05,0.025
4.57,401.667,146.028,-19.188,147.658,19.245,54.935,0.006,54.935,0.006,21.878,1.484,22.175,120.893,9.786,0.022,-5.777e-7,0.091,3.029e-4,1.898e4,4500,16.939,0.085,229.531,174.165,3.355,0.436,2.806e7,0,180.487,0.657,0.657,0.282,0.23,0.145,0.004,0.014,-1.352e-4,0,0,0,0,4.366e-7,0.02,16.5,213.825,81.502,0.008,0,12.389,966.141,338.807,0.05,0.025
4.62,408.944,145.072,-19.046,146.701,19.106,56.027,0.006,56.027,0.006,21.803,1.513,22.175,120.893,9.786,0.04,-6.232e-7,0.238,-0.002,1.898e4,4500,16.939,0.085,229.466,174.165,3.352,0.433,2.786e7,0,177.911,0.656,0.656,0.282,0.23,0.144,0.008,0.025,2.976e-4,0,0,0,0,3.038e-6,0.02,16.5,213.825,81.494,0.009,0,12.342,965.288,338.778,0.05,0.025
4.67,416.174,144.123,-18.91,145.752,18.971,57.115,0.006,57.115,0.006,21.727,1.517,22.175,120.893,9.786,0.049,-6.262e-7,0.453,-0.001,1.898e4,4500,16.939,0.085,229.429,174.165,3.349,0.43,2.766e7,0,175.375,0.656,0.656,0.282,0.23,0.144,0.009,0.031,4.342e-4,0,0,0,0,1.11e-5,0.02,16.5,213.825,81.476,0.009,0,12.295,964.44,338.75,0.05,0.025
4.72,423.357,143.181,-18.78,144.809,18.84,58.199,0.007,58.199,0.006,21.651,1.494,22.175,120.893,9.786,0.047,-2.059e-6,0.683,-0.005,1.898e4,4500,16.939,0.085,229.423,174.165,3.349,0.428,2.747e7,0,172.878,0.656,0.656,0.282,0.229,0.144,0.009,0.029,-3.39e-4,0,0,0,0,2.558e-5,0.02,16.5,213.825,81.448,0.01,0,12.248,963.597,338.721,0.05,0.025
4.77,430.492,142.245,-18.656,143.872,18.712,59.28,0.007,59.28,0.006,21.578,1.448,22.175,120.893,9.786,0.034,3.311e-7,0.872,-0.007,1.898e4,4500,16.939,0.085,229.444,174.165,3.35,0.425,2.727e7,0,170.42,0.655,0.655,0.283,0.229,0.143,0.006,0.022,-3.34e-4,0,0,0,0,4.224e-5,0.019,16.5,213.825,81.409,0.011,0,12.202,962.76,338.693,0.05,0.025
4.82,437.581,141.315,-18.536,142.943,18.588,60.357,0.007,60.357,0.007,21.507,1.388,22.175,120.893,9.786,0.015,6.706e-7,0.981,-0.017,1.898e4,4500,16.939,0.085,229.485,174.165,3.353,0.422,2.708e7,0,167.999,0.655,0.655,0.283,0.229,0.143,0.003,0.01,3.319e-4,0,0,0,0,5.421e-5,0.019,16.5,213.825,81.362,0.012,0,12.156,961.929,338.665,0.05,0.025
4.87,444.624,140.391,-18.419,142.019,18.466,61.431,0.007,61.431,0.007,21.439,1.323,22.175,120.893,9.786,0.006,-1.738e-6,-1.006,-0.043,1.898e4,4500,16.939,0.085,229.5,174.165,3.354,0.419,2.689e7,0,165.616,0.654,0.654,0.283,0.229,0.143,0.001,0.004,4.931e-4,0,0,0,0,-5.777e-5,0.019,16.5,213.825,81.311,0.013,0,12.11,961.103,338.638,0.05,0.026
4.92,451.62,139.473,-18.302,141.102,18.346,62.501,0.007,62.501,0.007,21.374,1.266,22.175,120.893,9.786,0.024,-2.657e-6,-0.936,-0.005,1.898e4,4500,16.939,0.085,229.435,174.165,3.35,0.417,2.67e7,0,163.27,0.654,0.654,0.283,0.229,0.143,0.005,0.015,-1.593e-4,0,0,0,0,-5.069e-5,0.019,16.5,213.825,81.262,0.013,0,12.064,960.282,338.61,0.05,0.026
4.97,458.571,138.561,-18.186,140.191,18.227,63.568,0.008,63.568,0.007,21.312,1.225,22.175,120.893,9.786,0.037,-5.915e-7,-0.8,-0.006,1.898e4,4500,16.939,0.085,229.389,174.165,3.347,0.414,2.652e7,0,160.959,0.654,0.654,0.283,0.228,0.142,0.007,0.023,-4.885e-4,0,0,0,0,-3.748e-5,0.019,16.5,213.825,81.219,0.013,0,12.019,959.467,338.583,0.05,0.026
5.02,465.477,137.655,-18.068,139.286,18.108,64.632,0.008,64.632,0.007,21.252,1.204,22.175,120.893,9.786,0.041,-4.019e-7,-0.631,-0.004,1.898e4,4500,16.939,0.085,229.366,174.165,3.345,0.411,2.633e7,0,158.683,0.653,0.653,0.283,0.228,0.142,0.008,0.025,1.461e-4,0,0,0,0,-2.362e-5,0.019,16.5,213.825,81.183,0.012,0,11.974,958.657,338.555,0.05,0.026
5.07,472.337,136.754,-17.948,138.387,17.988,65.693,0.008,65.693,0.007,21.192,1.202,22.175,120.893,9.786,0.036,0,-0.466,-0.002,1.898e4,4500,16.939,0.085,229.368,174.165,3.346,0.409,2.614e7,0,156.442,0.653,0.653,0.283,0.228,0.142,0.007,0.023,4.499e-4,0,0,0,0,-1.306e-5,0.019,16.5,213.825,81.156,0.011,0,11.93,957.853,338.528,0.05,0.026
5.12,479.152,135.86,-17.828,137.494,17.87,66.751,0.008,66.751,0.007,21.131,1.216,22.175,120.893,9.786,0.024,0,-0.339,-7.44e-4,1.898e4,4500,16.939,0.085,229.39,174.165,3.347,0.406,2.596e7,0,154.233,0.652,0.652,0.283,0.228,0.141,0.004,0.015,-4.554e-4,0,0,0,0,-7.017e-6,0.019,16.5,213.825,81.136,0.01,0,11.886,957.053,338.502,0.05,0.026
5.17,485.923,134.972,-17.709,136.606,17.752,67.806,0.008,67.806,0.007,21.07,1.239,22.175,120.893,9.786,0.007,0,-0.275,0.01,1.898e4,4500,16.939,0.085,229.426,174.165,3.349,0.404,2.578e7,0,152.058,0.652,0.652,0.283,0.228,0.141,0.001,0.005,-3.571e-4,0,0,0,0,-4.671e-6,0.018,16.5,213.825,81.121,0.009,0,11.842,956.259,338.475,0.05,0.026
5.22,492.649,134.089,-17.591,135.725,17.636,68.858,0.009,68.858,0.007,21.007,1.263,22.175,120.893,9.786,0.011,-4.548e-7,0.282,0.013,1.898e4,4500,16.939,0.085,229.405,174.165,3.348,0.401,2.56e7,0,149.915,0.652,0.652,0.283,0.228,0.141,0.002,0.007,-1.668e-4,0,0,0,0,4.959e-6,0.018,16.5,213.825,81.107,0.009,0,11.798,955.47,338.448,0.05,0.026
5.27,499.332,133.213,-17.475,134.849,17.522,69.907,0.009,69.907,0.007,20.943,1.281,22.175,120.893,9.786,0.026,-7.555e-7,0.358,0.005,1.898e4,4500,16.939,0.085,229.352,174.165,3.345,0.398,2.542e7,0,147.804,0.651,0.651,0.283,0.227,0.141,0.005,0.016,8.588e-6,0,0,0,0,8.104e-6,0.018,16.5,213.825,81.091,0.009,0,11.754,954.687,338.422,0.05,0.026
5.32,505.971,132.342,-17.363,133.979,17.411,70.953,0.009,70.953,0.007,20.879,1.288,22.175,120.893,9.786,0.036,0,0.483,0.006,1.898e4,4500,16.939,0.085,229.313,174.165,3.342,0.396,2.524e7,0,145.73,0.651,0.651,0.283,0.227,0.14,0.007,0.022,2.26e-4,0,0,0,0,1.494e-5,0.018,16.5,213.825,81.07,0.009,0,11.711,953.941,338.396,0.05,0.026
