Time (s),Altitude (m),Vertical velocity (m/s),Vertical acceleration (m/s²),Total velocity (m/s),Total acceleration (m/s²),Position East of launch (m),Position North of launch (m),Lateral distance (m),Lateral direction (°),Lateral velocity (m/s),Lateral acceleration (m/s²),Latitude (°),Longitude (°),Gravitational acceleration (m/s²),Angle of attack (°),Roll rate (°/s),Pitch rate (°/s),Yaw rate (°/s),Mass (g),Motor mass (g),Longitudinal moment of inertia (kg·m²),Rotational moment of inertia (kg·m²),CP location (cm),CG location (cm),Stability margin calibers (​),Mach number (​),Reynolds number (​),Thrust (N),Drag force (N),Drag coefficient (​),Axial drag coefficient (​),Friction drag coefficient (​),Pressure drag coefficient (​),Base drag coefficient (​),Normal force coefficient (​),Pitch moment coefficient (​),Yaw moment coefficient (​),Side force coefficient (​),Roll moment coefficient (​),Roll forcing coefficient (​),Roll damping coefficient (​),Pitch damping coefficient (​),Coriolis acceleration (m/s²),Reference length (cm),Reference area (cm²),Vertical orientation (zenith) (°),Lateral orientation (azimuth) (°),Wind velocity (m/s),Air temperature (°C),Air pressure (mbar),Speed of sound (m/s),Simulation time step (s),Computation time (s)
0.01,-4.772e-4,-0.095,-9.54,0.096,9.593,-5.015e-5,0,5.015e-5,180,0.01,1.003,22.175,120.893,9.788,97.634,0,0,0,2.798e4,1.35e4,21.757,0.099,NaN,201.939,NaN,0.01,6.558e5,3.946,-5.666e-4,0.705,-0.004,0.37,0.215,0.12,NaN,NaN,NaN,NaN,NaN,NaN,NaN,NaN,1.297e-5,16.5,213.825,84,0,3.334,15,1013.25,340.389,0.01,0.004
0.02,-4.78e-4,-0.096,-9.56,0.096,9.613,-5.024e-5,0,5.024e-5,180,0.01,1.005,22.175,120.893,9.788,97.616,0,0,0,2.798e4,1.35e4,21.757,0.099,NaN,201.939,NaN,0.01,6.646e5,3.399,-5.77e-4,0.704,-0.004,0.369,0.215,0.12,NaN,NaN,NaN,NaN,NaN,NaN,NaN,NaN,1.299e-5,16.5,213.825,84,0,3.379,15,1013.25,340.389,0.01,0.004
0.03,-4.766e-4,-0.095,-9.532,0.096,9.584,-5.009e-5,0,5.009e-5,180,0.01,1.002,22.175,120.893,9.788,97.59,0,0,0,2.798e4,1.35e4,21.757,0.099,NaN,201.939,NaN,0.01,6.735e5,4.196,-5.858e-4,0.703,-0.004,0.368,0.215,0.12,NaN,NaN,NaN,NaN,NaN,NaN,NaN,NaN,1.296e-5,16.5,213.825,84,0,3.424,15,1013.25,340.389,0.01,0.005
0.04,-4.78e-4,-0.096,-9.56,0.096,9.612,-5.024e-5,0,5.024e-5,180,0.01,1.005,22.175,120.893,9.788,97.574,0,0,0,2.798e4,1.35e4,21.757,0.099,NaN,201.939,NaN,0.01,6.823e5,3.408,-5.967e-4,0.702,-0.004,0.367,0.215,0.12,NaN,NaN,NaN,NaN,NaN,NaN,NaN,NaN,1.299e-5,16.5,213.825,84,0,3.469,15,1013.25,340.389,0.01,0.005
0.05,-4.776e-4,-0.096,-9.551,0.096,9.604,-5.019e-5,0,5.019e-5,180,0.01,1.004,22.175,120.893,9.788,97.553,0,0,0,2.798e4,1.35e4,21.757,0.099,NaN,201.939,NaN,0.01,6.912e5,3.638,-6.064e-4,0.701,-0.004,0.366,0.215,0.12,NaN,NaN,NaN,NaN,NaN,NaN,NaN,NaN,1.298e-5,16.5,213.825,84,0,3.514,15,1013.25,340.389,0.01,0.005
0.06,-4.772e-4,-0.095,-9.544,0.096,9.597,-5.016e-5,0,5.016e-5,180,0.01,1.003,22.175,120.893,9.788,97.546,0,0,0,2.798e4,1.35e4,21.757,0.099,NaN,201.939,NaN,0.01,6.935e5,3.848,-6.088e-4,0.701,-0.004,0.366,0.215,0.12,NaN,NaN,NaN,NaN,NaN,NaN,NaN,NaN,1.297e-5,16.5,213.825,84,0,3.526,15,1013.25,340.389,0.01,0.005
0.07,-4.775e-4,-0.096,-9.551,0.096,9.603,-5.019e-5,0,5.019e-5,180,0.01,1.004,22.175,120.893,9.788,97.542,0,0,0,2.798e4,1.35e4,21.757,0.099,NaN,201.939,NaN,0.01,6.958e5,3.653,-6.117e-4,0.701,-0.004,0.366,0.215,0.12,NaN,NaN,NaN,NaN,NaN,NaN,NaN,NaN,1.298e-5,16.5,213.825,84,0,3.538,15,1013.25,340.389,0.01,0.005
0.08,-4.766e-4,-0.095,-9.533,0.096,9.585,-5.01e-5,0,5.01e-5,180,0.01,1.002,22.175,120.893,9.788,97.534,0,0,0,2.798e4,1.35e4,21.757,0.099,NaN,201.938,NaN,0.01,6.982e5,4.165,-6.137e-4,0.701,-0.004,0.366,0.215,0.12,NaN,NaN,NaN,NaN,NaN,NaN,NaN,NaN,1.296e-5,16.5,213.825,84,0,3.55,15,1013.25,340.389,0.01,0.005
0.09,-4.769e-4,-0.095,-9.537,0.096,9.59,-5.012e-5,0,5.012e-5,180,0.01,1.002,22.175,120.893,9.788,97.529,0,0,0,2.798e4,1.35e4,21.757,0.099,NaN,201.938,NaN,0.01,7.005e5,4.039,-6.165e-4,0.7,-0.004,0.365,0.215,0.12,NaN,NaN,NaN,NaN,NaN,NaN,NaN,NaN,1.296e-5,16.5,213.825,84,0,3.562,15,1013.25,340.389,0.01,0.005
0.1,-4.775e-4,-0.095,-9.55,0.096,9.602,-5.019e-5,0,5.019e-5,180,0.01,1.004,22.175,120.893,9.788,97.526,0,0,0,2.798e4,1.35e4,21.757,0.099,NaN,201.938,NaN,0.011,7.029e5,3.684,-6.197e-4,0.7,-0.004,0.365,0.215,0.12,NaN,NaN,NaN,NaN,NaN,NaN,NaN,NaN,1.298e-5,16.5,213.825,84,0,3.574,15,1013.25,340.389,0.01,0.006
0.11,-4.763e-4,-0.095,-9.525,0.096,9.578,-5.006e-5,0,5.006e-5,180,0.01,1.001,22.175,120.893,9.788,97.549,0,0,0,2.798e4,1.35e4,21.757,0.099,NaN,201.938,NaN,0.01,6.91e5,4.369,-6.052e-4,0.701,-0.004,0.366,0.215,0.12,NaN,NaN,NaN,NaN,NaN,NaN,NaN,NaN,1.295e-5,16.5,213.825,84,0,3.513,15,1013.25,340.389,0.01,0.006
0.12,-4.772e-4,-0.095,-9.544,0.096,9.597,-5.016e-5,0,5.016e-5,180,0.01,1.003,22.175,120.893,9.788,97.579,0,0,0,2.798e4,1.35e4,21.757,0.099,NaN,201.938,NaN,0.01,6.791e5,3.832,-5.925e-4,0.703,-0.004,0.368,0.215,0.12,NaN,NaN,NaN,NaN,NaN,NaN,NaN,NaN,1.297e-5,16.5,213.825,84,0,3.452,15,1013.25,340.389,0.01,0.006
0.13,-4.76e-4,-0.095,-9.521,0.096,9.573,-5.003e-5,0,5.003e-5,180,0.01,1.001,22.175,120.893,9.788,97.603,0,0,0,2.798e4,1.35e4,21.757,0.099,NaN,201.938,NaN,0.01,6.672e5,4.497,-5.784e-4,0.704,-0.004,0.369,0.215,0.12,NaN,NaN,NaN,NaN,NaN,NaN,NaN,NaN,1.294e-5,16.5,213.825,84,0,3.392,15,1013.25,340.389,0.01,0.006
0.14,-4.765e-4,-0.095,-9.53,0.096,9.583,-5.008e-5,0,5.008e-5,180,0.01,1.002,22.175,120.893,9.788,97.634,0,0,0,2.798e4,1.35e4,21.757,0.099,NaN,201.937,NaN,0.01,6.553e5,4.238,-5.656e-4,0.705,-0.004,0.37,0.215,0.12,NaN,NaN,NaN,NaN,NaN,NaN,NaN,NaN,1.295e-5,16.5,213.825,84,0,3.331,15,1013.25,340.389,0.01,0.006
0.15,-4.766e-4,-0.095,-9.533,0.096,9.585,-5.01e-5,0,5.01e-5,180,0.01,1.002,22.175,120.893,9.788,97.665,0,0,0,2.798e4,1.35e4,21.757,0.099,NaN,201.937,NaN,0.01,6.434e5,4.165,-5.528e-4,0.707,-0.004,0.372,0.215,0.12,NaN,NaN,NaN,NaN,NaN,NaN,NaN,NaN,1.296e-5,16.5,213.825,84,0,3.27,15,1013.25,340.389,0.01,0.007
0.16,-4.754e-4,-0.095,-9.509,0.096,9.561,-4.997e-5,0,4.997e-5,180,0.01,0.999,22.175,120.893,9.788,97.653,0,0,0,2.797e4,1.35e4,21.757,0.099,NaN,201.937,NaN,0.01,6.461e5,4.835,-5.548e-4,0.707,-0.004,0.371,0.215,0.12,NaN,NaN,NaN,NaN,NaN,NaN,NaN,NaN,1.292e-5,16.5,213.825,84,0,3.284,15,1013.25,340.389,0.01,0.007
0.17,-4.764e-4,-0.095,-9.528,0.096,9.58,-5.007e-5,0,5.007e-5,180,0.01,1.001,22.175,120.893,9.788,97.65,0,0,0,2.797e4,1.35e4,21.757,0.099,NaN,201.937,NaN,0.01,6.488e5,4.308,-5.585e-4,0.706,-0.004,0.371,0.215,0.12,NaN,NaN,NaN,NaN,NaN,NaN,NaN,NaN,1.295e-5,16.5,213.825,84,0,3.298,15,1013.25,340.389,0.01,0.007
0.18,-4.748e-4,-0.095,-9.495,0.095,9.547,-4.99e-5,0,4.99e-5,180,0.01,0.998,22.175,120.893,9.788,97.637,0,0,0,2.797e4,1.35e4,21.757,0.099,NaN,201.937,NaN,0.01,6.515e5,5.219,-5.603e-4,0.706,-0.004,0.371,0.215,0.12,NaN,NaN,NaN,NaN,NaN,NaN,NaN,NaN,1.291e-5,16.5,213.825,84,0,3.312,15,1013.25,340.389,0.01,0.007
0.19,-4.759e-4,-0.095,-9.517,0.096,9.57,-5.002e-5,0,5.002e-5,180,0.01,1,22.175,120.893,9.788,97.634,0,0,0,2.797e4,1.35e4,21.757,0.099,NaN,201.937,NaN,0.01,6.543e5,4.595,-5.641e-4,0.706,-0.004,0.37,0.215,0.12,NaN,NaN,NaN,NaN,NaN,NaN,NaN,NaN,1.294e-5,16.5,213.825,84,0,3.326,15,1013.25,340.389,0.01,0.008
0.2,-4.751e-4,-0.095,-9.502,0.096,9.554,-4.993e-5,0,4.993e-5,180,0.01,0.999,22.175,120.893,9.788,97.625,0,0,0,2.797e4,1.35e4,21.757,0.099,NaN,201.936,NaN,0.01,6.57e5,5.035,-5.665e-4,0.705,-0.004,0.37,0.215,0.12,NaN,NaN,NaN,NaN,NaN,NaN,NaN,NaN,1.291e-5,16.5,213.825,84,0,3.34,15,1013.25,340.389,0.01,0.008
0.21,-4.738e-4,-0.095,-9.475,0.095,9.527,-4.979e-5,0,4.979e-5,180,0.01,0.996,22.175,120.893,9.788,97.62,0,0,0,2.797e4,1.35e4,21.757,0.099,NaN,201.936,NaN,0.01,6.569e5,5.782,-5.654e-4,0.705,-0.004,0.37,0.215,0.12,NaN,NaN,NaN,NaN,NaN,NaN,NaN,NaN,1.288e-5,16.5,213.825,84,0,3.339,15,1013.25,340.389,0.01,0.008
0.22,-4.746e-4,-0.095,-9.492,0.095,9.544,-4.988e-5,0,4.988e-5,180,0.01,0.998,22.175,120.893,9.788,97.624,0,0,0,2.797e4,1.35e4,21.756,0.099,NaN,201.936,NaN,0.01,6.568e5,5.316,-5.658e-4,0.705,-0.004,0.37,0.215,0.12,NaN,NaN,NaN,NaN,NaN,NaN,NaN,NaN,1.29e-5,16.5,213.825,84,0,3.339,15,1013.25,340.389,0.01,0.008
0.23,-4.728e-4,-0.095,-9.456,0.095,9.508,-4.969e-5,0,4.969e-5,180,0.01,0.994,22.175,120.893,9.788,97.618,0,0,0,2.797e4,1.35e4,21.756,0.099,NaN,201.936,NaN,0.01,6.566e5,6.314,-5.644e-4,0.705,-0.004,0.37,0.215,0.12,NaN,NaN,NaN,NaN,NaN,NaN,NaN,NaN,1.285e-5,16.5,213.825,84,0,3.338,15,1013.25,340.389,0.01,0.009
0.24,-4.742e-4,-0.095,-9.484,0.095,9.536,-4.984e-5,0,4.984e-5,180,0.01,0.997,22.175,120.893,9.788,97.623,0,0,0,2.797e4,1.35e4,21.756,0.099,NaN,201.935,NaN,0.01,6.565e5,5.531,-5.653e-4,0.705,-0.004,0.37,0.215,0.12,NaN,NaN,NaN,NaN,NaN,NaN,NaN,NaN,1.289e-5,16.5,213.825,84,0,3.337,15,1013.25,340.389,0.01,0.009
0.25,-4.731e-4,-0.095,-9.462,0.095,9.515,-4.973e-5,0,4.973e-5,180,0.01,0.995,22.175,120.893,9.788,97.62,0,0,0,2.797e4,1.35e4,21.756,0.099,NaN,201.935,NaN,0.01,6.564e5,6.14,-5.643e-4,0.705,-0.004,0.37,0.215,0.12,NaN,NaN,NaN,NaN,NaN,NaN,NaN,NaN,1.286e-5,16.5,213.825,84,0,3.337,15,1013.25,340.389,0.01,0.009
0.26,-4.722e-4,-0.094,-9.444,0.095,9.496,-4.963e-5,0,4.963e-5,180,0.01,0.993,22.175,120.893,9.788,97.567,0,0,0,2.797e4,1.35e4,21.756,0.099,NaN,201.935,NaN,0.01,6.77e5,6.656,-5.864e-4,0.703,-0.004,0.368,0.215,0.12,NaN,NaN,NaN,NaN,NaN,NaN,NaN,NaN,1.284e-5,16.5,213.825,84,0,3.442,15,1013.25,340.389,0.01,0.009
0.27,-4.728e-4,-0.095,-9.457,0.095,9.509,-4.97e-5,0,4.97e-5,180,0.01,0.994,22.175,120.893,9.788,97.523,0,0,0,2.797e4,1.35e4,21.756,0.099,NaN,201.935,NaN,0.01,6.976e5,6.293,-6.102e-4,0.701,-0.004,0.366,0.215,0.12,NaN,NaN,NaN,NaN,NaN,NaN,NaN,NaN,1.285e-5,16.5,213.825,84,0,3.547,15,1013.25,340.389,0.01,0.009
0.28,-4.709e-4,-0.094,-9.418,0.095,9.47,-4.949e-5,0,4.949e-5,180,0.01,0.99,22.175,120.893,9.788,97.473,0,0,0,2.797e4,1.35e4,21.756,0.099,NaN,201.934,NaN,0.011,7.182e5,7.383,-6.324e-4,0.698,-0.004,0.363,0.215,0.12,NaN,NaN,NaN,NaN,NaN,NaN,NaN,NaN,1.28e-5,16.5,213.825,84,0,3.653,15,1013.25,340.389,0.01,0.009
0.29,-4.715e-4,-0.094,-9.43,0.095,9.482,-4.956e-5,0,4.956e-5,180,0.01,0.991,22.175,120.893,9.788,97.434,0,0,0,2.797e4,1.35e4,21.756,0.099,NaN,201.934,NaN,0.011,7.389e5,7.04,-6.571e-4,0.696,-0.004,0.361,0.215,0.12,NaN,NaN,NaN,NaN,NaN,NaN,NaN,NaN,1.282e-5,16.5,213.825,84,0,3.758,15,1013.25,340.389,0.01,0.01
0.3,-4.705e-4,-0.094,-9.411,0.095,9.463,-4.946e-5,0,4.946e-5,180,0.01,0.989,22.175,120.893,9.788,97.392,0,0,0,2.797e4,1.35e4,21.756,0.099,NaN,201.934,NaN,0.011,7.595e5,7.588,-6.809e-4,0.694,-0.003,0.359,0.215,0.12,NaN,NaN,NaN,NaN,NaN,NaN,NaN,NaN,1.279e-5,16.5,213.825,84,0,3.863,15,1013.25,340.389,0.01,0.01
0.31,-4.688e-4,-0.094,-9.376,0.094,9.428,-4.927e-5,0,4.927e-5,180,0.01,0.985,22.175,120.893,9.788,97.381,0,0,0,2.797e4,1.35e4,21.756,0.099,NaN,201.934,NaN,0.011,7.625e5,8.575,-6.832e-4,0.694,-0.003,0.359,0.215,0.12,NaN,NaN,NaN,NaN,NaN,NaN,NaN,NaN,1.274e-5,16.5,213.825,84,0,3.879,15,1013.25,340.389,0.01,0.01
0.32,-4.69e-4,-0.094,-9.38,0.094,9.432,-4.929e-5,0,4.929e-5,180,0.01,0.986,22.175,120.893,9.788,97.376,0,0,0,2.797e4,1.35e4,21.756,0.099,NaN,201.933,NaN,0.011,7.656e5,8.457,-6.87e-4,0.694,-0.003,0.359,0.215,0.12,NaN,NaN,NaN,NaN,NaN,NaN,NaN,NaN,1.275e-5,16.5,213.825,84,0,3.894,15,1013.25,340.389,0.01,0.01
0.33,-4.666e-4,-0.093,-9.331,0.094,9.383,-4.904e-5,0,4.904e-5,180,0.01,0.981,22.175,120.893,9.788,97.364,0,0,0,2.797e4,1.35e4,21.756,0.099,NaN,201.933,NaN,0.012,7.686e5,9.828,-6.888e-4,0.694,-0.003,0.358,0.215,0.12,NaN,NaN,NaN,NaN,NaN,NaN,NaN,NaN,1.268e-5,16.5,213.825,84,0,3.91,15,1013.25,340.389,0.01,0.011
0.34,-4.662e-4,-0.093,-9.324,0.094,9.376,-4.9e-5,0,4.9e-5,180,0.01,0.98,22.175,120.893,9.788,97.357,0,0,0,2.797e4,1.35e4,21.756,0.099,NaN,201.932,NaN,0.012,7.716e5,10.028,-6.922e-4,0.693,-0.003,0.358,0.215,0.12,NaN,NaN,NaN,NaN,NaN,NaN,NaN,NaN,1.267e-5,16.5,213.825,84,0,3.925,15,1013.25,340.389,0.01,0.011
0.35,-4.653e-4,-0.093,-9.307,0.094,9.358,-4.891e-5,0,4.891e-5,180,0.01,0.978,22.175,120.893,9.788,97.35,0,0,0,2.797e4,1.35e4,21.756,0.099,NaN,201.932,NaN,0.012,7.747e5,10.514,-6.952e-4,0.693,-0.003,0.358,0.215,0.12,NaN,NaN,NaN,NaN,NaN,NaN,NaN,NaN,1.265e-5,16.5,213.825,84,0,3.941,15,1013.25,340.389,0.01,0.011
0.36,-4.62e-4,-0.092,-9.241,0.093,9.292,-4.856e-5,0,4.856e-5,180,0.01,0.971,22.175,120.893,9.788,97.339,0,0,0,2.797e4,1.35e4,21.756,0.099,NaN,201.932,NaN,0.012,7.755e5,12.371,-6.935e-4,0.693,-0.003,0.358,0.215,0.12,NaN,NaN,NaN,NaN,NaN,NaN,NaN,NaN,1.256e-5,16.5,213.825,84,0,3.945,15,1013.25,340.389,0.01,0.011
0.37,-4.612e-4,-0.092,-9.223,0.093,9.274,-4.847e-5,0,4.847e-5,180,0.01,0.969,22.175,120.893,9.788,97.335,0,0,0,2.797e4,1.35e4,21.756,0.099,NaN,201.931,NaN,0.012,7.763e5,12.862,-6.938e-4,0.693,-0.003,0.358,0.215,0.12,NaN,NaN,NaN,NaN,NaN,NaN,NaN,NaN,1.254e-5,16.5,213.825,84,0,3.949,15,1013.25,340.389,0.01,0.012
0.38,-4.582e-4,-0.092,-9.164,0.092,9.215,-4.816e-5,0,4.816e-5,180,0.01,0.963,22.175,120.893,9.788,97.325,0,0,0,2.797e4,1.35e4,21.756,0.099,NaN,201.931,NaN,0.012,7.771e5,14.525,-6.924e-4,0.693,-0.003,0.358,0.215,0.12,NaN,NaN,NaN,NaN,NaN,NaN,NaN,NaN,1.246e-5,16.5,213.825,84,0,3.953,15,1013.25,340.389,0.01,0.012
0.39,-4.561e-4,-0.091,-9.122,0.092,9.172,-4.794e-5,0,4.794e-5,180,0.01,0.959,22.175,120.893,9.788,97.317,0,0,0,2.797e4,1.35e4,21.755,0.099,NaN,201.93,NaN,0.012,7.779e5,15.717,-6.917e-4,0.693,-0.003,0.358,0.215,0.12,NaN,NaN,NaN,NaN,NaN,NaN,NaN,NaN,1.24e-5,16.5,213.825,84,0,3.957,15,1013.25,340.389,0.01,0.012
0.4,-4.543e-4,-0.091,-9.085,0.091,9.135,-4.774e-5,0,4.774e-5,180,0.01,0.955,22.175,120.893,9.788,97.311,0,0,0,2.797e4,1.35e4,21.755,0.099,NaN,201.929,NaN,0.012,7.787e5,16.751,-6.912e-4,0.693,-0.003,0.357,0.215,0.12,NaN,NaN,NaN,NaN,NaN,NaN,NaN,NaN,1.235e-5,16.5,213.825,84,0,3.961,15,1013.25,340.389,0.01,0.012
0.41,-4.507e-4,-0.09,-9.015,0.091,9.064,-4.737e-5,0,4.737e-5,180,0.009,0.947,22.175,120.893,9.788,97.281,0,0,0,2.797e4,1.349e4,21.755,0.099,NaN,201.929,NaN,0.012,7.906e5,18.736,-7.029e-4,0.691,-0.003,0.356,0.215,0.12,NaN,NaN,NaN,NaN,NaN,NaN,NaN,NaN,1.225e-5,16.5,213.825,84,0,4.022,15,1013.25,340.389,0.01,0.013
0.42,-4.481e-4,-0.09,-8.963,0.09,9.012,-4.71e-5,0,4.71e-5,180,0.009,0.942,22.175,120.893,9.788,97.255,0,0,0,2.797e4,1.349e4,21.755,0.099,NaN,201.928,NaN,0.012,8.024e5,20.199,-7.155e-4,0.69,-0.003,0.355,0.215,0.12,NaN,NaN,NaN,NaN,NaN,NaN,NaN,NaN,1.218e-5,16.5,213.825,84,0,4.083,15,1013.25,340.389,0.01,0.013
0.43,-4.428e-4,-0.089,-8.857,0.089,8.906,-4.654e-5,0,4.654e-5,180,0.009,0.931,22.175,120.893,9.788,97.222,0,0,0,2.797e4,1.349e4,21.755,0.099,NaN,201.927,NaN,0.012,8.143e5,23.171,-7.259e-4,0.689,-0.003,0.354,0.215,0.12,NaN,NaN,NaN,NaN,NaN,NaN,NaN,NaN,1.204e-5,16.5,213.825,84,0,4.143,15,1013.25,340.389,0.01,0.013
0.44,-4.388e-4,-0.088,-8.777,0.088,8.825,-4.612e-5,0,4.612e-5,180,0.009,0.922,22.175,120.893,9.788,97.193,0,0,0,2.797e4,1.349e4,21.755,0.099,NaN,201.926,NaN,0.012,8.261e5,25.427,-7.375e-4,0.688,-0.003,0.353,0.215,0.12,NaN,NaN,NaN,NaN,NaN,NaN,NaN,NaN,1.193e-5,16.5,213.825,84,0,4.204,15,1013.25,340.389,0.01,0.013
0.45,-4.324e-4,-0.086,-8.648,0.087,8.695,-4.545e-5,0,4.545e-5,180,0.009,0.909,22.175,120.893,9.788,97.159,0,0,0,2.797e4,1.349e4,21.754,0.099,NaN,201.925,NaN,0.013,8.379e5,29.05,-7.472e-4,0.687,-0.003,0.352,0.215,0.12,NaN,NaN,NaN,NaN,NaN,NaN,NaN,NaN,1.175e-5,16.5,213.825,84,0,4.264,15,1013.25,340.389,0.01,0.013
0.46,-4.243e-4,-0.085,-8.487,0.085,8.534,-4.46e-5,0,4.46e-5,180,0.009,0.892,22.175,120.893,9.788,97.137,0,0,0,2.797e4,1.349e4,21.754,0.099,NaN,201.923,NaN,0.013,8.387e5,33.572,-7.417e-4,0.687,-0.003,0.352,0.215,0.12,NaN,NaN,NaN,NaN,NaN,NaN,NaN,NaN,1.154e-5,16.5,213.825,84,0,4.268,15,1013.25,340.389,0.01,0.013
0.47,-4.172e-4,-0.083,-8.344,0.084,8.389,-4.385e-5,0,4.385e-5,180,0.009,0.877,22.175,120.893,9.788,97.116,0,0,0,2.797e4,1.349e4,21.754,0.099,NaN,201.922,NaN,0.013,8.396e5,37.604,-7.369e-4,0.687,-0.003,0.352,0.215,0.12,NaN,NaN,NaN,NaN,NaN,NaN,NaN,NaN,1.134e-5,16.5,213.825,84,0,4.273,15,1013.25,340.389,0.01,0.014
0.48,-4.021e-4,-0.08,-8.042,0.081,8.087,-4.226e-5,0,4.226e-5,180,0.008,0.845,22.175,120.893,9.788,97.075,0,0,0,2.797e4,1.349e4,21.754,0.099,NaN,201.92,NaN,0.013,8.403e5,46.076,-7.258e-4,0.687,-0.003,0.352,0.215,0.12,NaN,NaN,NaN,NaN,NaN,NaN,NaN,NaN,1.093e-5,16.5,213.825,84,0,4.277,15,1013.25,340.389,0.01,0.014
0.49,-3.871e-4,-0.077,-7.742,0.078,7.785,-4.069e-5,0,4.069e-5,180,0.008,0.814,22.175,120.893,9.788,97.034,0,0,0,2.797e4,1.349e4,21.753,0.099,NaN,201.918,NaN,0.013,8.411e5,54.513,-7.148e-4,0.687,-0.003,0.352,0.215,0.12,NaN,NaN,NaN,NaN,NaN,NaN,NaN,NaN,1.052e-5,16.5,213.825,84,0,4.281,15,1013.25,340.389,0.01,0.014
0.5,-3.674e-4,-0.073,-7.348,0.074,7.388,-3.862e-5,0,3.862e-5,180,0.008,0.772,22.175,120.893,9.788,96.98,0,0,0,2.796e4,1.349e4,21.753,0.099,NaN,201.916,NaN,0.013,8.419e5,65.594,-7.002e-4,0.687,-0.003,0.352,0.215,0.12,NaN,NaN,NaN,NaN,NaN,NaN,NaN,NaN,9.988e-6,16.5,213.825,84,0,4.286,15,1013.25,340.389,0.01,0.014
0.51,-3.456e-4,-0.069,-6.913,0.07,6.951,-3.633e-5,0,3.633e-5,180,0.007,0.727,22.175,120.893,9.788,96.927,0,0,0,2.796e4,1.349e4,21.752,0.099,NaN,201.913,NaN,0.013,8.378e5,77.832,-6.783e-4,0.687,-0.003,0.352,0.215,0.12,NaN,NaN,NaN,NaN,NaN,NaN,NaN,NaN,9.396e-6,16.5,213.825,84,0,4.265,15,1013.25,340.389,0.01,0.014
0.52,-3.255e-4,-0.065,-6.51,0.065,6.546,-3.421e-5,0,3.421e-5,180,0.007,0.684,22.175,120.893,9.788,96.877,0,0,0,2.796e4,1.349e4,21.752,0.099,NaN,201.909,NaN,0.012,8.337e5,89.154,-6.58e-4,0.688,-0.003,0.353,0.215,0.12,NaN,NaN,NaN,NaN,NaN,NaN,NaN,NaN,8.848e-6,16.5,213.825,84,0,4.245,15,1013.25,340.389,0.01,0.015
0.53,-3.016e-4,-0.06,-6.031,0.061,6.064,-3.169e-5,0,3.169e-5,180,0.006,0.634,22.175,120.893,9.788,96.817,0,0,0,2.796e4,1.348e4,21.751,0.099,NaN,201.905,NaN,0.012,8.295e5,102.609,-6.352e-4,0.688,-0.003,0.353,0.215,0.12,NaN,NaN,NaN,NaN,NaN,NaN,NaN,NaN,8.198e-6,16.5,213.825,84,0,4.225,15,1013.25,340.389,0.01,0.015
0.54,-2.786e-4,-0.056,-5.571,0.056,5.602,-2.928e-5,0,2.928e-5,180,0.006,0.586,22.175,120.893,9.788,96.758,0,0,0,2.796e4,1.348e4,21.75,0.099,NaN,201.901,NaN,0.012,8.254e5,115.517,-6.136e-4,0.688,-0.003,0.353,0.215,0.12,NaN,NaN,NaN,NaN,NaN,NaN,NaN,NaN,7.573e-6,16.5,213.825,84,0,4.204,15,1013.25,340.389,0.01,0.015
0.55,-2.552e-4,-0.051,-5.104,0.051,5.132,-2.682e-5,0,2.682e-5,180,0.005,0.536,22.175,120.893,9.788,96.698,0,0,0,2.796e4,1.348e4,21.749,0.099,NaN,201.896,NaN,0.012,8.213e5,128.661,-5.921e-4,0.689,-0.003,0.354,0.215,0.12,NaN,NaN,NaN,NaN,NaN,NaN,NaN,NaN,6.937e-6,16.5,213.825,84,0,4.184,15,1013.25,340.389,0.01,0.015
0.56,-2.294e-4,-0.046,-4.589,0.046,4.614,-2.412e-5,0,2.412e-5,180,0.005,0.482,22.175,120.893,9.788,96.621,0,0,0,2.795e4,1.348e4,21.748,0.099,NaN,201.89,NaN,0.012,8.299e5,143.124,-5.838e-4,0.688,-0.002,0.353,0.215,0.12,NaN,NaN,NaN,NaN,NaN,NaN,NaN,NaN,6.237e-6,16.5,213.825,84,0,4.228,15,1013.25,340.389,0.01,0.015
0.57,-2.041e-4,-0.041,-4.081,0.041,4.103,-2.145e-5,0,2.145e-5,180,0.004,0.429,22.175,120.893,9.788,96.547,0,0,0,2.795e4,1.347e4,21.747,0.099,NaN,201.884,NaN,0.013,8.385e5,157.378,-5.76e-4,0.687,-0.002,0.352,0.215,0.12,NaN,NaN,NaN,NaN,NaN,NaN,NaN,NaN,5.547e-6,16.5,213.825,84,0,4.272,15,1013.25,340.389,0.01,0.016
0.58,-1.763e-4,-0.035,-3.526,0.035,3.545,-1.853e-5,0,1.853e-5,180,0.004,0.371,22.175,120.893,9.788,96.468,0,0,0,2.795e4,1.347e4,21.746,0.099,NaN,201.877,NaN,0.013,8.47e5,172.956,-5.666e-4,0.687,-0.002,0.351,0.215,0.12,NaN,NaN,NaN,NaN,NaN,NaN,NaN,NaN,4.793e-6,16.5,213.825,84,0,4.317,15,1013.25,340.389,0.01,0.016
0.59,-1.471e-4,-0.029,-2.941,0.03,2.957,-1.546e-5,0,1.546e-5,180,0.003,0.309,22.175,120.893,9.788,96.386,0,0,0,2.794e4,1.347e4,21.745,0.099,NaN,201.87,NaN,0.013,8.556e5,189.374,-5.565e-4,0.686,-0.002,0.351,0.215,0.12,NaN,NaN,NaN,NaN,NaN,NaN,NaN,NaN,3.998e-6,16.5,213.825,84,0,4.361,15,1013.25,340.389,0.01,0.016
0.6,-1.112e-4,-0.022,-2.224,0.022,2.236,-1.169e-5,0,1.169e-5,180,0.002,0.234,22.175,120.893,9.788,96.289,0,0,0,2.794e4,1.346e4,21.743,0.099,NaN,201.862,NaN,0.013,8.642e5,209.49,-5.422e-4,0.685,-0.002,0.35,0.215,0.12,NaN,NaN,NaN,NaN,NaN,NaN,NaN,NaN,3.023e-6,16.5,213.825,84,0,4.405,15,1013.25,340.389,0.01,0.016
0.61,-7.014e-5,-0.014,-1.402,0.014,1.41,-7.372e-6,0,7.372e-6,180,0.001,0.147,22.175,120.893,9.788,96.184,0,0,0,2.793e4,1.346e4,21.742,0.099,NaN,201.853,NaN,0.013,8.552e5,232.539,-5.06e-4,0.686,-0.002,0.351,0.215,0.12,NaN,NaN,NaN,NaN,NaN,NaN,NaN,NaN,1.906e-6,16.5,213.825,84,0,4.361,15,1013.25,340.389,0.01,0.016
0.62,-2.035e-5,-0.004,-0.406,0.004,0.408,-2.139e-6,0,2.139e-6,180,4.275e-4,0.043,22.175,120.893,9.788,96.054,0,0,0,2.793e4,1.345e4,21.74,0.099,NaN,201.843,NaN,0.013,8.462e5,260.473,-4.66e-4,0.687,-0.002,0.352,0.215,0.12,NaN,NaN,NaN,NaN,NaN,NaN,NaN,NaN,5.528e-7,16.5,213.825,84,0,4.316,15,1013.25,340.389,0.01,0.017
0.63,4.069e-5,0.008,0.815,0.008,0.82,4.276e-6,0,4.276e-6,0,8.556e-4,0.086,22.175,120.893,9.788,95.891,0,0,0,2.792e4,1.345e4,21.738,0.099,NaN,201.831,NaN,0.013,8.372e5,294.705,-4.214e-4,0.687,-0.002,0.352,0.215,0.12,NaN,NaN,NaN,NaN,NaN,NaN,NaN,NaN,1.106e-6,16.5,213.825,84,0,4.271,15,1013.25,340.389,0.01,0.017
0.64,2.334e-4,0.03,2.228,0.031,2.24,2.453e-5,0,2.453e-5,0,0.003,0.234,22.175,120.893,9.788,95.587,0,0,0,2.792e4,1.344e4,21.736,0.099,NaN,201.818,NaN,0.012,8.28e5,334.309,-3.533e-4,0.688,-0.002,0.353,0.215,0.12,NaN,NaN,NaN,NaN,NaN,NaN,NaN,NaN,4.133e-6,16.5,213.825,84,0,4.226,15,1013.25,340.389,0.01,0.017
0.65,7.362e-4,0.07,3.977,0.071,3.998,7.738e-5,0,7.738e-5,0,0.007,0.418,22.175,120.893,9.788,95.037,0,0,0,2.791e4,1.344e4,21.733,0.099,NaN,201.803,NaN,0.012,8.185e5,383.29,-2.548e-4,0.689,-0.001,0.354,0.215,0.12,NaN,NaN,NaN,NaN,NaN,NaN,NaN,NaN,9.536e-6,16.5,213.825,84,0,4.182,15,1013.25,340.389,0.01,0.017
0.66,0.002,0.131,6.099,0.132,6.133,1.832e-4,0,1.832e-4,0,0.014,0.641,22.175,120.893,9.788,94.184,0,0,0,2.79e4,1.343e4,21.73,0.099,NaN,201.786,NaN,0.012,8.113e5,442.735,-1.449e-4,0.69,-6.462e-4,0.355,0.215,0.12,NaN,NaN,NaN,NaN,NaN,NaN,NaN,NaN,1.782e-5,16.5,213.825,84,0,4.15,15,1013.25,340.389,0.01,0.018
0.67,0.003,0.219,8.745,0.22,8.793,3.669e-4,0,3.669e-4,0,0.023,0.919,22.175,120.893,9.788,92.946,0,0,0,2.789e4,1.342e4,21.726,0.098,NaN,201.766,NaN,0.012,8.041e5,516.791,-5.037e-5,0.69,-2.286e-4,0.355,0.215,0.12,NaN,NaN,NaN,NaN,NaN,NaN,NaN,NaN,2.97e-5,16.5,213.825,84,0,4.118,15,1013.25,340.389,0.01,0.018
0.68,0.006,0.339,12.037,0.341,12.103,6.598e-4,0,6.598e-4,0,0.036,1.265,22.175,120.893,9.788,91.219,0,0,0,2.788e4,1.341e4,21.722,0.098,NaN,201.742,NaN,0.012,7.97e5,608.866,-3.574e-6,0.691,-1.651e-5,0.356,0.215,0.12,NaN,NaN,NaN,NaN,NaN,NaN,NaN,NaN,4.606e-5,16.5,213.825,84,0,4.087,15,1013.249,340.389,0.01,0.022
0.69,0.01,0.5,16.098,0.503,16.187,0.001,0,0.001,0,0.053,1.692,22.175,120.893,9.788,88.883,0,0,0,2.787e4,1.339e4,21.717,0.098,NaN,201.714,NaN,0.012,7.909e5,722.382,2.712e-6,0.691,1.273e-5,0.356,0.215,0.12,NaN,NaN,NaN,NaN,NaN,NaN,NaN,NaN,6.793e-5,16.5,213.825,84,0,4.055,15,1013.249,340.389,0.01,0.023
0.7,0.017,0.707,20.716,0.711,20.83,0.002,0,0.002,0,0.074,2.177,22.175,120.893,9.788,85.853,0,0,0,2.785e4,1.338e4,21.711,0.098,NaN,201.681,NaN,0.012,7.866e5,851.314,1.331e-4,0.692,6.313e-4,0.357,0.215,0.12,NaN,NaN,NaN,NaN,NaN,NaN,NaN,NaN,9.608e-5,16.5,213.825,84,0,4.024,15,1013.248,340.389,0.01,0.023
0.71,0.025,0.962,25.486,0.967,25.626,0.003,0,0.003,0,0.101,2.679,22.175,120.893,9.788,82.18,0,0,0,2.783e4,1.336e4,21.704,0.098,NaN,201.643,NaN,0.012,7.892e5,984.251,8.628e-4,0.692,0.004,0.356,0.215,0.12,NaN,NaN,NaN,NaN,NaN,NaN,NaN,NaN,1.307e-4,16.5,213.825,84,0,4.01,15,1013.247,340.389,0.01,0.023
0.72,0.036,1.262,30.016,1.269,30.181,0.004,0,0.004,0,0.133,3.155,22.175,120.893,9.788,77.918,0,0,0,2.781e4,1.334e4,21.697,0.098,NaN,201.599,NaN,0.012,7.969e5,1110.231,0.003,0.691,0.014,0.356,0.215,0.12,NaN,NaN,NaN,NaN,NaN,NaN,NaN,NaN,1.715e-4,16.5,213.825,84,0,3.997,15,1013.246,340.389,0.01,0.024
0.73,0.05,1.602,34.1,1.611,34.288,0.005,0,0.005,0,0.168,3.584,22.175,120.893,9.788,73.213,0,0,0,2.779e4,1.332e4,21.688,0.098,NaN,201.551,NaN,0.012,8.111e5,1223.466,0.008,0.69,0.036,0.355,0.215,0.12,NaN,NaN,NaN,NaN,NaN,NaN,NaN,NaN,2.178e-4,16.5,213.825,84,0,3.983,15,1013.244,340.389,0.01,0.024
0.74,0.068,1.978,37.596,1.989,37.803,0.007,0,0.007,0,0.208,3.952,22.175,120.893,9.788,68.258,0,0,0,2.777e4,1.329e4,21.679,0.098,NaN,201.5,NaN,0.012,8.332e5,1320.018,0.017,0.688,0.073,0.353,0.215,0.12,NaN,NaN,NaN,NaN,NaN,NaN,NaN,NaN,2.689e-4,16.5,213.825,84,0,3.969,15,1013.242,340.389,0.01,0.024
0.75,0.09,2.384,40.571,2.397,40.794,0.009,0,0.009,0,0.251,4.264,22.175,120.893,9.788,63.244,0,0,0,2.774e4,1.327e4,21.669,0.098,NaN,201.445,NaN,0.013,8.637e5,1401.763,0.032,0.685,0.127,0.35,0.215,0.12,NaN,NaN,NaN,NaN,NaN,NaN,NaN,NaN,3.24e-4,16.5,213.825,84,0,3.955,14.999,1013.239,340.389,0.01,0.024
0.76,0.116,2.813,42.932,2.828,43.168,0.012,0,0.012,0,0.296,4.512,22.175,120.893,9.788,58.67,0,0,0,2.771e4,1.324e4,21.659,0.098,NaN,201.387,NaN,0.014,9.093e5,1466.216,0.054,0.682,0.19,0.346,0.215,0.12,NaN,NaN,NaN,NaN,NaN,NaN,NaN,NaN,3.823e-4,16.5,213.825,84,0,3.984,14.999,1013.236,340.388,0.01,0.024
0.77,0.146,3.26,44.721,3.278,44.968,0.015,0,0.015,0,0.343,4.7,22.175,120.893,9.788,54.386,0,0,0,2.769e4,1.321e4,21.648,0.098,NaN,201.327,NaN,0.014,9.623e5,1514.584,0.082,0.678,0.259,0.343,0.215,0.12,NaN,NaN,NaN,NaN,NaN,NaN,NaN,NaN,4.431e-4,16.5,213.825,84,0,4.012,14.999,1013.233,340.388,0.01,0.025
0.78,0.181,3.717,45.794,3.738,46.047,0.019,0,0.019,0,0.391,4.813,22.175,120.893,9.788,50.475,0,0,0,2.766e4,1.318e4,21.637,0.098,NaN,201.266,NaN,0.015,1.021e6,1542.902,0.117,0.674,0.33,0.339,0.215,0.12,NaN,NaN,NaN,NaN,NaN,NaN,NaN,NaN,5.053e-4,16.5,213.825,84,0,4.041,14.999,1013.229,340.388,0.01,0.025
0.79,0.221,4.181,46.38,4.204,46.635,0.023,0,0.023,0,0.439,4.875,22.175,120.893,9.788,46.962,0,0,0,2.763e4,1.315e4,21.626,0.098,NaN,201.204,NaN,0.016,1.085e6,1557.611,0.16,0.67,0.398,0.334,0.215,0.12,NaN,NaN,NaN,NaN,NaN,NaN,NaN,NaN,5.683e-4,16.5,213.825,84,0,4.069,14.999,1013.224,340.388,0.01,0.025
0.8,0.265,4.647,46.606,4.672,46.863,0.028,0,0.028,0,0.488,4.898,22.175,120.893,9.788,43.835,0,0,0,2.76e4,1.312e4,21.615,0.098,NaN,201.142,NaN,0.017,1.153e6,1562.308,0.209,0.666,0.46,0.331,0.215,0.12,NaN,NaN,NaN,NaN,NaN,NaN,NaN,NaN,6.316e-4,16.5,213.825,84,0,4.097,14.998,1013.219,340.388,0.01,0.025
0.81,0.314,5.112,46.581,5.14,46.838,0.033,0,0.033,0,0.537,4.896,22.175,120.893,9.788,40.32,0,0,0,2.757e4,1.31e4,21.604,0.098,NaN,201.08,NaN,0.018,1.213e6,1560.041,0.267,0.662,0.532,0.327,0.215,0.12,NaN,NaN,NaN,NaN,NaN,NaN,NaN,NaN,6.949e-4,16.5,213.825,84,0,4.027,14.998,1013.213,340.388,0.01,0.026
0.82,0.367,5.577,46.51,5.608,46.766,0.039,0,0.039,0,0.586,4.888,22.175,120.893,9.788,37.151,0,0,0,2.754e4,1.307e4,21.593,0.098,NaN,201.018,NaN,0.019,1.278e6,1556.501,0.331,0.659,0.594,0.324,0.215,0.12,NaN,NaN,NaN,NaN,NaN,NaN,NaN,NaN,7.58e-4,16.5,213.825,84,0,3.957,14.998,1013.207,340.387,0.01,0.026
0.83,0.425,6.04,46.329,6.073,46.585,0.045,0,0.045,0,0.635,4.869,22.175,120.893,9.788,34.301,0,0,0,2.751e4,1.304e4,21.582,0.098,NaN,200.956,NaN,0.02,1.345e6,1549.967,0.399,0.656,0.648,0.321,0.215,0.12,NaN,NaN,NaN,NaN,NaN,NaN,NaN,NaN,8.21e-4,16.5,213.825,84,0,3.887,14.997,1013.2,340.387,0.01,0.026
0.84,0.488,6.502,46.264,6.538,46.519,0.051,0,0.051,0,0.683,4.863,22.175,120.893,9.788,31.73,0,0,0,2.749e4,1.301e4,21.571,0.098,NaN,200.895,NaN,0.021,1.415e6,1546.637,0.473,0.653,0.693,0.318,0.215,0.12,NaN,NaN,NaN,NaN,NaN,NaN,NaN,NaN,8.838e-4,16.5,213.825,84,0,3.817,14.997,1013.193,340.387,0.01,0.026
0.85,0.555,6.964,46.243,7.003,46.497,0.058,0,0.058,0,0.732,4.86,22.175,120.893,9.788,29.408,0,0,0,2.746e4,1.298e4,21.56,0.098,NaN,200.833,NaN,0.022,1.488e6,1544.509,0.55,0.65,0.729,0.315,0.215,0.12,NaN,NaN,NaN,NaN,NaN,NaN,NaN,NaN,9.466e-4,16.5,213.825,84,0,3.747,14.996,1013.185,340.387,0.01,0.027
0.86,0.627,7.428,46.363,7.469,46.618,0.066,0,0.066,0,0.781,4.873,22.175,120.893,9.788,27.856,0,0,0,2.743e4,1.295e4,21.549,0.098,NaN,200.771,NaN,0.024,1.569e6,1546.294,0.629,0.647,0.75,0.311,0.215,0.12,NaN,NaN,NaN,NaN,NaN,NaN,NaN,NaN,0.001,16.5,213.825,84,0,3.76,14.996,1013.176,340.386,0.01,0.027
0.87,0.704,7.893,46.556,7.937,46.813,0.074,0,0.074,0,0.83,4.893,22.175,120.893,9.788,26.451,0,0,0,2.74e4,1.292e4,21.538,0.098,NaN,200.708,NaN,0.025,1.651e6,1550.1,0.712,0.644,0.766,0.308,0.215,0.12,NaN,NaN,NaN,NaN,NaN,NaN,NaN,NaN,0.001,16.5,213.825,84,0,3.773,14.995,1013.167,340.386,0.01,0.027
0.88,0.785,8.36,46.749,8.406,47.007,0.083,0,0.083,0,0.879,4.914,22.175,120.893,9.788,25.175,0,0,0,2.737e4,1.29e4,21.527,0.098,NaN,200.645,NaN,0.026,1.735e6,1553.871,0.8,0.641,0.779,0.306,0.215,0.12,NaN,NaN,NaN,NaN,NaN,NaN,NaN,NaN,0.001,16.5,213.825,84,0,3.786,14.995,1013.158,340.386,0.01,0.027
0.89,0.871,8.83,46.951,8.878,47.21,0.092,0,0.092,0,0.928,4.935,22.175,120.893,9.788,24.012,0,0,0,2.734e4,1.287e4,21.516,0.098,NaN,200.582,NaN,0.027,1.82e6,1557.877,0.891,0.638,0.789,0.303,0.215,0.12,NaN,NaN,NaN,NaN,NaN,NaN,NaN,NaN,0.001,16.5,213.825,84,0,3.799,14.994,1013.148,340.385,0.01,0.027
0.9,0.962,9.301,47.125,9.352,47.385,0.101,0,0.101,0,0.978,4.953,22.175,120.893,9.788,22.949,0,0,0,2.731e4,1.284e4,21.505,0.098,NaN,200.519,NaN,0.029,1.906e6,1561.121,0.986,0.636,0.797,0.3,0.215,0.12,NaN,NaN,NaN,NaN,NaN,NaN,NaN,NaN,0.001,16.5,213.825,84,0,3.812,14.994,1013.137,340.385,0.01,0.027
0.91,1.057,9.773,47.299,9.827,47.559,0.111,0,0.111,0,1.027,4.971,22.175,120.893,9.788,22.023,0,0,0,2.728e4,1.281e4,21.493,0.098,NaN,200.456,NaN,0.03,1.993e6,1564.323,1.085,0.633,0.802,0.298,0.215,0.12,NaN,NaN,NaN,NaN,NaN,NaN,NaN,NaN,0.001,16.5,213.825,84,0,3.834,14.993,1013.126,340.385,0.01,0.028
0.925,1.209,10.482,47.269,10.542,47.696,0.127,6.554e-9,0.127,2.952e-6,1.122,6.367,22.175,120.893,9.788,20.673,0,-0.023,-1.321e-6,2.724e4,1.277e4,21.476,0.098,197.191,200.36,-0.192,0.032,2.124e6,1565.157,1.24,0.63,0.807,0.294,0.215,0.12,6.538,-1.731,-1.217e-4,0,0,0,0,-5.389e-6,0.001,16.5,213.825,84,-9.237e-8,3.867,14.992,1013.108,340.384,0.015,0.028
0.948,1.457,11.548,47.477,11.618,47.909,0.154,4.277e-8,0.154,1.59e-5,1.266,6.418,22.175,120.893,9.788,18.924,0,-0.038,-4.173e-6,2.718e4,1.27e4,21.451,0.097,198.609,200.216,-0.097,0.035,2.323e6,1567.44,1.487,0.625,0.809,0.29,0.215,0.12,5.875,-0.573,1.635e-4,0,0,0,0,-1.207e-5,0.002,16.5,213.825,83.999,-8.974e-7,3.916,14.991,1013.079,340.383,0.023,0.028
0.981,1.874,13.176,48.361,13.26,48.8,0.201,1.642e-7,0.201,4.691e-5,1.486,6.526,22.175,120.893,9.788,16.177,0,-0.042,-5.663e-7,2.708e4,1.26e4,21.412,0.097,201.129,199.996,0.069,0.039,2.624e6,1586.273,1.898,0.623,0.809,0.288,0.215,0.12,4.743,0.326,1.093e-4,0,0,0,0,-1.123e-5,0.002,16.5,213.825,83.998,-1.958e-6,3.851,14.988,1013.03,340.382,0.034,0.028
1.031,2.595,15.656,49.764,15.761,50.218,0.283,5.178e-7,0.283,1.048e-4,1.82,6.736,22.175,120.893,9.788,13.958,0,0.003,2.595e-5,2.693e4,1.245e4,21.353,0.097,203.472,199.66,0.231,0.046,3.099e6,1616.404,2.599,0.623,0.794,0.288,0.215,0.12,3.893,0.899,1.787e-4,0,0,0,0,3.29e-8,0.002,16.5,213.825,83.996,-2.048e-7,4.008,14.983,1012.946,340.379,0.05,0.028
1.081,3.441,18.182,50.673,18.31,51.138,0.383,1.119e-6,0.383,1.675e-4,2.162,6.881,22.175,120.893,9.788,12.056,0,0.092,-8.795e-6,2.678e4,1.23e4,21.292,0.097,205.734,199.318,0.389,0.054,3.584e6,1632.74,3.379,0.623,0.772,0.288,0.215,0.12,3.211,1.249,-1.573e-4,0,0,0,0,2.89e-5,0.002,16.5,213.825,83.999,-6.46e-7,4.091,14.978,1012.846,340.375,0.05,0.029
1.131,4.414,20.766,51.844,20.917,52.318,0.5,2.012e-6,0.5,2.307e-4,2.512,7.022,22.175,120.893,9.788,10.184,0,0.245,2.237e-5,2.662e4,1.215e4,21.23,0.097,208.224,198.966,0.561,0.061,4.081e6,1655.692,4.225,0.623,0.744,0.288,0.215,0.12,2.585,1.451,3.85e-4,0,0,0,0,1.597e-4,0.003,16.5,213.825,84.007,-7.903e-6,4.034,14.971,1012.732,340.372,0.05,0.029
1.181,5.518,23.395,52.743,23.57,53.222,0.634,3.24e-6,0.634,2.928e-4,2.867,7.126,22.175,120.893,9.788,8.755,0,0.459,-5.379e-5,2.647e4,1.199e4,21.166,0.096,210.328,198.607,0.71,0.069,4.59e6,1671.028,5.181,0.624,0.721,0.288,0.215,0.121,2.138,1.519,-4.132e-4,0,0,0,0,4.417e-4,0.003,16.5,213.825,84.024,-2.186e-5,4.003,14.964,1012.603,340.367,0.05,0.029
1.231,6.755,26.084,53.942,26.283,54.431,0.786,4.844e-6,0.786,3.529e-4,3.23,7.28,22.175,120.893,9.788,7.943,0,0.733,-3.391e-5,2.631e4,1.184e4,21.101,0.096,211.613,198.239,0.811,0.077,5.114e6,1694.094,6.314,0.624,0.708,0.288,0.216,0.121,1.896,1.536,2.811e-4,0,0,0,0,9.072e-4,0.004,16.5,213.825,84.054,-4.187e-5,4.139,14.956,1012.458,340.362,0.05,0.029
1.281,8.128,28.827,55.049,29.051,55.541,0.957,6.864e-6,0.957,4.109e-4,3.599,7.378,22.175,120.893,9.788,6.997,0,1.073,-1.169e-4,2.616e4,1.168e4,21.035,0.096,213.195,197.862,0.929,0.085,5.649e6,1714.222,7.541,0.624,0.693,0.288,0.216,0.121,1.625,1.509,1.236e-5,0,0,0,0,0.002,0.004,16.5,213.825,84.098,-7.79e-5,4.15,14.947,1012.297,340.357,0.05,0.03
1.331,9.639,31.615,55.923,31.863,56.415,1.146,9.33e-6,1.146,4.663e-4,3.97,7.431,22.175,120.893,9.788,6.24,0,1.47,-1.266e-4,2.6e4,1.152e4,20.967,0.096,214.537,197.478,1.034,0.093,6.194e6,1727.906,8.914,0.624,0.682,0.288,0.216,0.121,1.417,1.463,2.921e-4,0,0,0,0,0.002,0.004,16.5,213.825,84.162,-1.222e-4,4.191,14.937,1012.12,340.351,0.05,0.03
1.381,11.29,34.448,56.847,34.721,57.339,1.354,1.228e-5,1.354,5.194e-4,4.345,7.496,22.175,120.893,9.788,5.811,0,1.937,-1.213e-4,2.583e4,1.136e4,20.898,0.095,215.33,197.085,1.106,0.101,6.748e6,1742.723,10.485,0.625,0.675,0.287,0.216,0.121,1.303,1.437,1.876e-4,0,0,0,0,0.004,0.005,16.5,213.825,84.247,-1.639e-4,4.379,14.927,1011.926,340.344,0.05,0.03
1.431,13.085,37.346,58.153,37.644,58.643,1.581,1.573e-5,1.581,5.701e-4,4.724,7.565,22.175,120.893,9.788,5.416,0,2.481,1.876e-5,2.567e4,1.12e4,20.827,0.095,216.083,196.682,1.176,0.11,7.315e6,1767.008,12.222,0.625,0.67,0.287,0.216,0.122,1.2,1.405,2.321e-4,0,0,0,0,0.005,0.005,16.5,213.825,84.357,-2.091e-4,4.576,14.915,1011.715,340.337,0.05,0.03
1.481,15.026,40.302,59.306,40.624,59.781,1.827,1.972e-5,1.827,6.184e-4,5.103,7.52,22.175,120.893,9.788,4.778,0,3.098,-2.739e-5,2.551e4,1.103e4,20.755,0.095,217.336,196.269,1.277,0.118,7.893e6,1786.669,14.053,0.625,0.661,0.287,0.216,0.122,1.038,1.318,-1.049e-4,0,0,0,0,0.007,0.005,16.5,213.825,84.496,-2.51e-4,4.593,14.902,1011.488,340.33,0.05,0.03
1.531,17.117,43.328,60.723,43.673,61.177,2.091,2.427e-5,2.091,6.649e-4,5.48,7.436,22.175,120.893,9.788,4.152,-5.035e-7,3.753,-2.566e-4,2.534e4,1.086e4,20.68,0.095,218.622,195.845,1.38,0.127,8.485e6,1812.535,16.056,0.626,0.654,0.287,0.216,0.122,0.884,1.212,1.002e-4,0,0,0,0,0.009,0.006,16.5,213.825,84.667,-2.573e-4,4.586,14.889,1011.242,340.321,0.05,0.031
1.581,19.361,46.437,62.39,46.804,62.82,2.375,2.942e-5,2.375,7.098e-4,5.852,7.335,22.175,120.893,9.788,3.668,7.754e-7,4.455,1.824e-5,2.517e4,1.069e4,20.603,0.094,219.659,195.407,1.47,0.136,9.094e6,1844.161,18.296,0.626,0.649,0.287,0.216,0.122,0.768,1.119,-4.696e-4,0,0,0,0,0.011,0.006,16.5,213.825,84.872,-2.829e-4,4.668,14.874,1010.979,340.313,0.05,0.031
1.631,21.763,49.643,64.365,50.031,64.754,2.676,3.52e-5,2.676,7.536e-4,6.217,7.09,22.175,120.893,9.788,2.863,-1.017e-6,5.186,-4.693e-4,2.499e4,1.052e4,20.524,0.094,221.453,194.954,1.606,0.146,9.723e6,1882.472,20.667,0.627,0.641,0.287,0.217,0.123,0.584,0.925,-2.929e-4,0,0,0,0,0.013,0.007,16.5,213.825,85.113,-2.438e-4,4.463,14.859,1010.698,340.303,0.05,0.031
1.681,24.327,52.927,65.906,53.333,66.252,2.996,4.167e-5,2.996,7.97e-4,6.565,6.761,22.175,120.893,9.788,2.236,9.22e-7,5.823,2.512e-5,2.482e4,1.034e4,20.442,0.094,222.928,194.488,1.724,0.156,1.037e7,1909.35,23.322,0.627,0.636,0.287,0.217,0.123,0.446,0.756,8.3e-5,0,0,0,0,0.014,0.007,16.5,213.825,85.389,-1.117e-4,4.368,14.842,1010.397,340.293,0.05,0.031
1.731,27.056,56.252,66.738,56.673,67.036,3.333,4.89e-5,3.333,8.407e-4,6.893,6.312,22.175,120.893,9.788,1.694,2.287e-6,6.45,1.534e-4,2.464e4,1.016e4,20.359,0.094,224.261,194.014,1.833,0.165,1.102e7,1918.283,26.218,0.628,0.633,0.287,0.217,0.124,0.332,0.594,-3.647e-4,0,0,0,0,0.015,0.008,16.5,213.825,85.696,5.572e-5,4.329,14.824,1010.077,340.282,0.05,0.032
1.781,29.953,59.617,67.55,60.05,67.793,3.685,5.696e-5,3.685,8.856e-4,7.196,5.73,22.175,120.893,9.788,1.017,9.891e-7,6.947,-1.211e-4,2.446e4,9987.04,20.275,0.093,225.998,193.53,1.968,0.175,1.168e7,1926.46,29.333,0.628,0.63,0.287,0.217,0.124,0.195,0.367,-3.006e-4,0,0,0,0,0.016,0.008,16.5,213.825,86.031,3.792e-4,4.121,14.805,1009.737,340.271,0.05,0.032
1.831,33.017,62.962,67.123,63.403,67.311,4.052,6.597e-5,4.052,9.329e-4,7.463,5.026,22.175,120.893,9.788,0.438,-1.887e-6,7.23,-0.001,2.429e4,9811.118,20.19,0.093,227.556,193.045,2.092,0.185,1.233e7,1904.644,32.673,0.629,0.629,0.287,0.218,0.124,0.082,0.157,2.987e-5,0,0,0,0,0.015,0.009,16.5,213.825,86.386,9.989e-4,3.968,14.785,1009.378,340.259,0.05,0.032
1.881,36.246,66.187,64.698,66.632,64.837,4.43,7.611e-5,4.43,9.843e-4,7.69,4.244,22.175,120.893,9.788,0.054,0,7.321,-0.009,2.412e4,9641.582,20.107,0.093,228.636,192.571,2.186,0.195,1.296e7,1835.474,36.112,0.63,0.63,0.287,0.218,0.125,0.01,0.008,3.277e-4,0,0,0,0,0.014,0.009,16.5,213.825,86.751,0.002,3.993,14.764,1008.999,340.246,0.05,0.032
1.931,39.635,69.4,64.466,69.847,64.568,4.82,8.756e-5,4.82,0.001,7.885,3.628,22.175,120.893,9.788,0.212,-1.875e-6,-7.253,-0.002,2.395e4,9473.455,20.024,0.093,228.214,192.094,2.189,0.204,1.358e7,1820.229,39.731,0.63,0.63,0.287,0.218,0.125,0.039,0.099,-2.778e-4,0,0,0,0,-0.013,0.009,16.5,213.825,87.116,0.003,4.13,14.742,1008.601,340.233,0.05,0.033
1.981,43.188,72.719,66.574,73.164,66.65,5.219,1.006e-4,5.219,0.001,8.057,3.189,22.175,120.893,9.788,0.314,-5.652e-7,-7.043,-0.001,2.378e4,9301.568,19.938,0.092,227.956,191.6,2.203,0.214,1.423e7,1860.956,43.644,0.631,0.631,0.286,0.219,0.126,0.059,0.14,-5.51e-5,0,0,0,0,-0.011,0.01,16.5,213.825,87.474,0.005,4.449,14.719,1008.185,340.219,0.05,0.033
2.031,46.91,76.139,68.616,76.58,68.668,5.625,1.154e-4,5.625,0.001,8.207,2.68,22.175,120.893,9.788,0.488,1.232e-6,-6.781,-6.564e-4,2.36e4,9126.117,19.849,0.092,227.503,191.087,2.207,0.224,1.489e7,1899.496,47.895,0.632,0.632,0.286,0.219,0.127,0.092,0.212,1.854e-4,0,0,0,0,-0.009,0.01,16.5,213.825,87.82,0.007,4.658,14.695,1007.748,340.204,0.05,0.033
2.081,50.805,79.67,70.844,80.104,70.875,6.039,1.323e-4,6.039,0.001,8.328,2.116,22.175,120.893,9.788,0.72,0,-6.274,-6.384e-4,2.342e4,8946.761,19.757,0.092,226.905,190.556,2.203,0.234,1.558e7,1941.791,52.529,0.633,0.634,0.286,0.219,0.127,0.137,0.308,-1.345e-4,0,0,0,0,-0.007,0.011,16.5,213.825,88.147,0.009,4.746,14.67,1007.291,340.189,0.05,0.033
2.131,54.877,83.238,71.584,83.663,71.6,6.458,1.514e-4,6.458,0.001,8.419,1.491,22.175,120.893,9.788,0.955,3.874e-6,-5.537,-0.001,2.324e4,8766.738,19.663,0.092,226.314,190.014,2.2,0.245,1.627e7,1949.047,57.461,0.634,0.635,0.286,0.22,0.128,0.183,0.408,-1.782e-4,0,0,0,0,-0.005,0.011,16.5,213.825,88.443,0.013,4.765,14.643,1006.814,340.173,0.05,0.034
2.181,59.129,86.808,71.605,87.221,71.61,6.88,1.731e-4,6.88,0.001,8.477,0.864,22.175,120.893,9.788,1.191,-6.822e-7,-4.495,-6.602e-4,2.306e4,8587.562,19.568,0.091,225.73,189.467,2.198,0.255,1.696e7,1939.854,62.654,0.634,0.637,0.286,0.22,0.128,0.23,0.509,-3.67e-4,0,0,0,0,-0.003,0.012,16.5,213.825,88.694,0.017,4.691,14.616,1006.315,340.156,0.05,0.034
2.231,63.559,90.411,72.256,90.81,72.257,7.305,1.975e-4,7.305,0.002,8.507,0.347,22.175,120.893,9.788,1.366,-7.624e-7,-3.124,-0.001,2.288e4,8407.87,19.471,0.091,225.313,188.909,2.206,0.266,1.766e7,1945.437,68.126,0.635,0.639,0.286,0.221,0.129,0.266,0.588,8.243e-5,0,0,0,0,-0.001,0.012,16.5,213.825,88.886,0.024,4.588,14.587,1005.796,340.139,0.05,0.034
2.281,68.171,94.058,73.144,94.443,73.144,7.731,2.251e-4,7.731,0.002,8.514,0.018,22.175,120.893,9.787,1.464,1.628e-6,-1.464,-0.002,2.27e4,8227.163,19.372,0.091,225.097,188.339,2.228,0.277,1.836e7,1956.429,73.878,0.637,0.641,0.286,0.221,0.13,0.286,0.638,-7.622e-6,0,0,0,0,-2.782e-4,0.013,16.5,213.825,89.001,0.03,4.467,14.557,1005.255,340.12,0.05,0.034
2.331,72.965,97.707,73.17,98.076,73.171,8.156,2.561e-4,8.156,0.002,8.507,0.238,22.175,120.893,9.787,1.512,0,0.447,3.015e-4,2.252e4,8047.232,19.272,0.091,225.009,187.762,2.257,0.288,1.907e7,1948.014,79.857,0.638,0.642,0.285,0.221,0.131,0.296,0.669,-8.114e-5,0,0,0,0,2.406e-5,0.013,16.5,213.825,89.027,0.033,4.265,14.526,1004.692,340.101,0.05,0.035
2.381,77.942,101.391,73.884,101.746,73.884,8.581,2.908e-4,8.581,0.002,8.497,0.084,22.175,120.893,9.787,1.371,-2.479e-6,2.552,-0.002,2.234e4,7866.644,19.171,0.09,225.398,187.175,2.317,0.298,1.978e7,1955.138,85.998,0.639,0.642,0.285,0.222,0.132,0.267,0.618,4.459e-4,0,0,0,0,7.279e-4,0.014,16.5,213.825,88.951,0.033,4.211,14.493,1004.109,340.082,0.05,0.035
2.431,83.105,105.126,74.894,105.469,74.896,9.006,3.295e-4,9.006,0.002,8.505,0.465,22.175,120.893,9.787,1.063,-2.998e-7,4.462,-1.718e-4,2.216e4,7684.795,19.067,0.09,226.224,186.573,2.403,0.309,2.05e7,1968.808,92.361,0.64,0.642,0.285,0.222,0.132,0.205,0.49,6.641e-5,0,0,0,0,0.002,0.014,16.5,213.825,88.775,0.03,4.307,14.46,1003.503,340.062,0.05,0.035
2.481,88.456,108.918,76.052,109.253,76.061,9.432,3.723e-4,9.432,0.002,8.547,1.203,22.175,120.893,9.787,0.754,2.113e-6,5.994,-5.847e-5,2.198e4,7501.381,18.96,0.09,227.07,185.956,2.492,0.321,2.123e7,1985.734,99.122,0.641,0.642,0.285,0.223,0.133,0.144,0.355,-1.106e-4,0,0,0,0,0.003,0.015,16.5,213.825,88.511,0.024,4.286,14.425,1002.876,340.04,0.05,0.035
2.531,93.997,112.743,76.67,113.072,76.702,9.862,4.193e-4,9.862,0.002,8.631,2.184,22.175,120.893,9.787,0.38,2.915e-6,7.116,-3.304e-4,2.179e4,7317.476,18.852,0.089,228.113,185.327,2.593,0.332,2.196e7,1991.05,106.226,0.643,0.643,0.285,0.224,0.134,0.072,0.181,-3.4e-4,0,0,0,0,0.005,0.015,16.5,213.825,88.181,0.019,4.304,14.389,1002.226,340.019,0.05,0.036
2.581,99.73,116.582,76.952,116.911,77.023,10.296,4.701e-4,10.296,0.003,8.768,3.301,22.175,120.893,9.787,0.006,-9.61e-6,-7.455,0.006,2.161e4,7133.711,18.741,0.089,229.188,184.688,2.697,0.343,2.27e7,1989.537,113.711,0.644,0.644,0.284,0.224,0.135,0.001,0.007,-1.677e-4,0,0,0,0,-0.005,0.016,16.5,213.825,87.813,0.015,4.336,14.352,1001.553,339.996,0.05,0.036
2.631,105.655,120.418,76.885,120.751,77.007,10.739,5.243e-4,10.739,0.003,8.96,4.336,22.175,120.893,9.787,0.299,0,-7.037,-7.287e-5,2.143e4,6950.733,18.63,0.089,228.42,184.04,2.69,0.354,2.344e7,1981.005,121.562,0.645,0.645,0.284,0.225,0.136,0.056,0.155,-3.181e-4,0,0,0,0,-0.004,0.016,16.5,213.825,87.448,0.012,4.229,14.313,1000.858,339.973,0.05,0.036
2.681,111.772,124.248,76.759,124.588,76.945,11.193,5.82e-4,11.193,0.003,9.202,5.359,22.175,120.893,9.787,0.571,3.129e-6,-5.97,-0.002,2.124e4,6768.605,18.517,0.089,227.724,183.385,2.687,0.366,2.417e7,1971.826,129.741,0.647,0.647,0.284,0.225,0.137,0.109,0.295,-3.021e-4,0,0,0,0,-0.003,0.017,16.5,213.825,87.12,0.011,4.199,14.273,1000.141,339.949,0.05,0.036
2.731,118.079,128.063,76.449,128.415,76.697,11.66,6.428e-4,11.66,0.003,9.492,6.166,22.175,120.893,9.787,0.757,-3.382e-6,-4.082,1.483e-4,2.106e4,6587.653,18.403,0.088,227.274,182.722,2.7,0.377,2.49e7,1959.073,138.184,0.648,0.649,0.284,0.226,0.138,0.145,0.394,-2.589e-4,0,0,0,0,-0.001,0.017,16.5,213.825,86.867,0.009,4.188,14.232,999.401,339.924,0.05,0.036
2.781,124.578,131.872,76.323,132.236,76.602,12.143,7.063e-4,12.143,0.003,9.811,6.526,22.175,120.893,9.787,0.777,-2.518e-6,-1.761,1.337e-4,2.088e4,6407.538,18.288,0.088,227.269,182.051,2.74,0.388,2.563e7,1950.026,146.827,0.65,0.651,0.283,0.227,0.14,0.149,0.41,-2.925e-4,0,0,0,0,-2.049e-4,0.018,16.5,213.825,86.721,0.007,4.054,14.19,998.639,339.898,0.05,0.037
2.831,131.266,135.64,75.528,136.018,75.789,12.641,7.72e-4,12.641,0.003,10.133,6.29,22.175,120.893,9.787,0.625,-1.702e-6,0.528,-3.15e-4,2.071e4,6229.576,18.172,0.088,227.721,181.377,2.809,0.4,2.636e7,1926.697,155.565,0.651,0.652,0.283,0.228,0.141,0.119,0.336,-3.146e-4,0,0,0,0,1.743e-5,0.018,16.5,213.825,86.693,0.007,3.778,14.147,997.855,339.872,0.05,0.037
2.881,138.139,139.291,73.177,139.681,73.396,13.156,8.395e-4,13.156,0.004,10.428,5.665,22.175,120.893,9.787,0.427,-5.175e-6,2.295,-0.001,2.053e4,6056.698,18.058,0.088,228.3,180.711,2.884,0.41,2.705e7,1871.671,164.276,0.653,0.653,0.283,0.228,0.142,0.081,0.234,-1.553e-4,0,0,0,0,3.117e-4,0.019,16.5,213.825,86.767,0.007,3.596,14.102,997.049,339.845,0.05,0.037
2.931,145.192,142.84,71.095,143.239,71.269,13.684,9.092e-4,13.684,0.004,10.69,4.973,22.175,120.893,9.787,0.258,3.447e-6,3.542,0.003,2.036e4,5888.294,17.945,0.087,228.808,180.051,2.955,0.421,2.773e7,1823.229,172.995,0.655,0.655,0.283,0.229,0.143,0.049,0.144,-4.55e-4,0,0,0,0,7.061e-4,0.019,16.5,213.825,86.918,0.009,3.637,14.056,996.221,339.817,0.05,0.037
2.981,152.42,146.287,69.082,146.694,69.197,14.224,9.818e-4,14.224,0.004,10.913,3.986,22.175,120.893,9.787,0.011,5.385e-6,4.19,0.014,2.02e4,5724.161,17.833,0.087,229.539,179.397,3.039,0.431,2.838e7,1776.994,181.736,0.656,0.656,0.282,0.23,0.144,0.002,0.005,4.034e-4,0,0,0,0,9.42e-4,0.02,16.5,213.825,87.116,0.013,3.563,14.009,995.374,339.789,0.05,0.037
3.031,159.817,149.592,66.183,150.001,66.251,14.774,0.001,14.774,0.004,11.081,3.002,22.175,120.893,9.787,0.2,-4.81e-7,-3.643,0.002,2.004e4,5565.832,17.723,0.087,229.061,178.757,3.049,0.441,2.901e7,1714.157,190.377,0.658,0.658,0.282,0.23,0.145,0.038,0.116,3.082e-4,0,0,0,0,-6.81e-4,0.02,16.5,213.825,87.315,0.015,3.529,13.961,994.506,339.759,0.05,0.038
3.081,167.375,152.723,62.712,153.134,62.75,15.331,0.001,15.331,0.004,11.205,2.175,22.175,120.893,9.787,0.351,0,-2.414,-0.002,1.989e4,5414.226,17.616,0.087,228.693,178.134,3.064,0.45,2.96e7,1641.368,198.788,0.659,0.659,0.282,0.231,0.146,0.067,0.205,-3.83e-4,0,0,0,0,-2.869e-4,0.021,16.5,213.825,87.47,0.018,3.509,13.912,993.62,339.73,0.05,0.038
3.131,175.084,155.656,58.695,156.065,58.72,15.894,0.001,15.894,0.004,11.295,1.739,22.175,120.893,9.787,0.391,-4.365e-7,-0.498,-3.9e-4,1.975e4,5270.198,17.514,0.086,228.627,177.533,3.097,0.459,3.015e7,1559.33,206.795,0.661,0.661,0.282,0.232,0.147,0.075,0.231,2.927e-5,0,0,0,0,-1.174e-5,0.021,16.5,213.825,87.542,0.021,3.539,13.862,992.716,339.699,0.05,0.038
3.181,182.933,158.3,52.909,158.708,52.931,16.46,0.001,16.46,0.005,11.37,1.525,22.175,120.893,9.787,0.372,2.573e-6,1.395,-0.003,1.961e4,5136.823,17.417,0.086,228.718,176.969,3.136,0.467,3.064e7,1443.981,214.136,0.662,0.662,0.281,0.232,0.148,0.071,0.223,-1.308e-4,0,0,0,0,8.91e-5,0.021,16.5,213.825,87.518,0.022,3.475,13.811,991.795,339.668,0.05,0.038
3.231,190.905,160.574,45.47,160.981,45.499,17.03,0.001,17.03,0.005,11.438,1.617,22.175,120.893,9.787,0.269,-9.13e-6,3.211,-0.003,1.949e4,5016.93,17.33,0.086,229.035,176.455,3.187,0.473,3.106e7,1298.007,220.507,0.663,0.663,0.281,0.233,0.149,0.051,0.162,-2.314e-4,0,0,0,0,4.59e-4,0.022,16.5,213.825,87.398,0.021,3.386,13.759,990.86,339.637,0.05,0.039
3.281,198.981,162.464,37.767,162.872,37.822,17.604,0.002,17.604,0.005,11.52,2.046,22.175,120.893,9.787,0.075,1.064e-5,4.201,-0.009,1.939e4,4910.835,17.251,0.086,229.597,175.995,3.249,0.479,3.141e7,1148.651,225.833,0.664,0.664,0.281,0.233,0.15,0.014,0.046,-1.202e-5,0,0,0,0,7.678e-4,0.022,16.5,213.825,87.207,0.018,3.389,13.707,989.913,339.605,0.05,0.039
3.331,207.141,163.926,29.203,164.338,29.312,18.183,0.002,18.183,0.005,11.624,2.527,22.175,120.893,9.787,0.149,-1.978e-6,-3.977,-0.003,1.93e4,4819.954,17.183,0.086,229.417,175.597,3.262,0.483,3.167e7,983.929,230.004,0.665,0.665,0.281,0.233,0.15,0.028,0.093,-1.36e-4,0,0,0,0,-6.76e-4,0.022,16.5,213.825,86.996,0.015,3.466,13.654,988.956,339.573,0.05,0.039
3.381,215.363,164.946,20.37,165.364,20.543,18.767,0.002,18.767,0.005,11.746,2.663,22.175,120.893,9.787,0.293,3.955e-6,-2.543,-0.005,1.922e4,4744.715,17.127,0.086,229.039,175.265,3.259,0.486,3.185e7,814.576,232.935,0.665,0.665,0.281,0.234,0.151,0.056,0.182,1.208e-4,0,0,0,0,-2.728e-4,0.022,16.5,213.825,86.83,0.011,3.472,13.6,987.992,339.541,0.05,0.039
3.431,223.626,165.591,12.863,166.015,13.123,19.357,0.002,19.357,0.005,11.868,2.597,22.175,120.893,9.787,0.379,-8.973e-7,-0.584,-0.002,1.916e4,4682.75,17.08,0.086,228.816,174.989,3.262,0.488,3.195e7,670.862,234.731,0.666,0.666,0.281,0.234,0.151,0.072,0.237,3.513e-5,0,0,0,0,-1.426e-5,0.022,16.5,213.825,86.751,0.008,3.575,13.546,987.022,339.508,0.05,0.04
3.481,231.913,165.885,5.892,166.316,6.243,19.953,0.002,19.953,0.006,11.978,2.065,22.175,120.893,9.787,0.341,-6.694e-6,1.785,-0.007,1.911e4,4633.166,17.042,0.085,228.923,174.767,3.282,0.489,3.199e7,536.827,235.418,0.666,0.666,0.281,0.234,0.151,0.065,0.214,-3.081e-4,0,0,0,0,1.329e-4,0.022,16.5,213.825,86.785,0.006,3.657,13.493,986.05,339.475,0.05,0.04
3.531,240.206,165.846,-0.743,166.283,1.33,20.554,0.002,20.554,0.006,12.049,1.103,22.175,120.893,9.787,0.181,-6.12e-7,3.417,-0.01,1.907e4,4595.435,17.013,0.085,229.359,174.598,3.319,0.489,3.196e7,408.489,235.067,0.666,0.666,0.281,0.234,0.151,0.034,0.114,-1.808e-4,0,0,0,0,4.872e-4,0.022,16.5,213.825,86.921,0.005,3.648,13.439,985.078,339.443,0.05,0.04
3.581,248.491,165.558,-5.702,165.998,5.708,21.157,0.002,21.157,0.006,12.075,0.272,22.175,120.893,9.787,0.025,-9.011e-6,3.954,-0.057,1.904e4,4566.618,16.991,0.085,229.787,174.468,3.353,0.488,3.188e7,311.985,233.979,0.666,0.666,0.281,0.234,0.151,0.005,0.016,-5.822e-5,0,0,0,0,6.549e-4,0.022,16.5,213.825,87.113,0.006,3.783,13.385,984.106,339.41,0.05,0.04
3.631,256.757,165.079,-9.529,165.52,9.537,21.761,0.002,21.761,0.006,12.066,0.385,22.175,120.893,9.787,0.108,-5.642e-6,-3.731,-0.011,1.902e4,4544.733,16.974,0.085,229.55,174.369,3.344,0.487,3.177e7,236.943,232.337,0.665,0.665,0.281,0.234,0.151,0.02,0.069,-1.609e-4,0,0,0,0,-5.865e-4,0.022,16.5,213.825,87.31,0.007,3.989,13.331,983.137,339.378,0.05,0.041
3.681,264.995,164.443,-12.665,164.882,12.717,22.363,0.002,22.363,0.006,12.025,1.15,22.175,120.893,9.787,0.288,-8.185e-6,-2.638,-7.546e-4,1.9e4,4528.591,16.961,0.085,229.046,174.295,3.318,0.485,3.163e7,174.76,230.312,0.665,0.665,0.281,0.234,0.151,0.055,0.182,-4.51e-4,0,0,0,0,-2.954e-4,0.022,16.5,213.825,87.472,0.01,3.926,13.278,982.171,339.345,0.05,0.041
3.731,273.198,163.671,-15.372,164.107,15.453,22.963,0.002,22.963,0.006,11.95,1.579,22.175,120.893,9.787,0.381,0,-0.415,-0.005,1.899e4,4517.445,16.953,0.085,228.779,174.245,3.305,0.483,3.146e7,120.672,227.891,0.665,0.665,0.281,0.233,0.15,0.073,0.242,4.03e-4,0,0,0,0,-7.367e-6,0.022,16.5,213.825,87.548,0.014,3.835,13.224,981.208,339.313,0.05,0.041
3.781,281.359,162.785,-17.648,163.217,17.72,23.558,0.003,23.558,0.006,11.867,1.597,22.175,120.893,9.787,0.361,-1.735e-6,1.81,-0.005,1.899e4,4510.545,16.947,0.085,228.82,174.213,3.309,0.48,3.127e7,74.706,225.097,0.664,0.665,0.281,0.233,0.15,0.069,0.229,-1.668e-4,0,0,0,0,1.42e-4,0.022,16.5,213.825,87.511,0.017,3.758,13.171,980.251,339.281,0.05,0.041
3.831,289.475,161.831,-19.011,162.26,19.066,24.149,0.003,24.149,0.006,11.789,1.45,22.175,120.893,9.787,0.299,6.334e-6,3.731,-0.005,1.898e4,4506.296,16.944,0.085,228.976,174.194,3.32,0.478,3.107e7,46.005,222.135,0.664,0.664,0.281,0.233,0.15,0.057,0.189,-6.293e-5,0,0,0,0,6.104e-4,0.022,16.5,213.825,87.366,0.019,3.502,13.118,979.299,339.249,0.05,0.042
3.881,297.541,160.839,-19.772,161.266,19.792,24.737,0.003,24.737,0.007,11.727,0.883,22.175,120.893,9.787,0.11,-1.579e-6,5.116,-0.013,1.898e4,4503.619,16.942,0.085,229.479,174.182,3.351,0.475,3.086e7,28.976,219.049,0.663,0.663,0.281,0.233,0.149,0.021,0.069,4.107e-5,0,0,0,0,0.001,0.022,16.5,213.825,87.138,0.021,3.382,13.066,978.353,339.217,0.05,0.042
3.931,305.558,159.829,-20.135,160.257,20.135,25.323,0.003,25.323,0.007,11.703,0.054,22.175,120.893,9.787,0.163,-1.278e-5,-4.94,-0.004,1.898e4,4501.783,16.941,0.085,229.318,174.174,3.342,0.472,3.064e7,19.875,215.977,0.663,0.663,0.281,0.233,0.149,0.031,0.104,-2.512e-4,0,0,0,0,-0.001,0.022,16.5,213.825,86.88,0.02,3.465,13.014,977.413,339.185,0.05,0.042
3.981,313.524,158.812,-20.301,159.244,20.319,25.908,0.003,25.908,0.007,11.723,0.863,22.175,120.893,9.787,0.46,9.308e-7,-3.211,-0.003,1.898e4,4500.416,16.939,0.085,228.492,174.167,3.292,0.469,3.043e7,14.809,212.994,0.662,0.663,0.281,0.232,0.149,0.088,0.291,2.138e-4,0,0,0,0,-4.693e-4,0.022,16.5,213.825,86.67,0.019,3.783,12.962,976.479,339.154,0.05,0.042
4,316.498,158.429,-20.412,158.863,20.445,26.128,0.003,26.128,0.007,11.743,1.172,22.175,120.893,9.787,0.561,6.688e-7,-2.071,-0.003,1.898e4,4500,16.939,0.085,228.215,174.165,3.276,0.468,3.035e7,11.991,211.894,0.662,0.663,0.281,0.232,0.148,0.108,0.354,-3.762e-4,0,0,0,0,-1.962e-4,0.021,16.5,213.825,86.621,0.018,3.945,12.943,976.13,339.142,0.019,0.042
4.028,320.946,157.838,-20.951,158.277,20.981,26.459,0.003,26.459,0.007,11.775,1.13,22.175,120.893,9.787,0.565,1.798e-6,-0.297,-0.005,1.898e4,4500,16.939,0.085,228.196,174.165,3.275,0.466,3.022e7,0,210.148,0.662,0.662,0.282,0.232,0.148,0.109,0.356,1.365e-4,0,0,0,0,-4.069e-6,0.021,16.5,213.825,86.588,0.016,3.925,12.914,975.608,339.125,0.028,0.043
4.07,327.586,156.958,-20.783,157.402,20.794,26.957,0.003,26.957,0.007,11.817,0.685,22.175,120.893,9.787,0.428,-1.959e-6,2.151,-0.003,1.898e4,4500,16.939,0.085,228.552,174.165,3.296,0.463,3.004e7,0,207.492,0.661,0.662,0.282,0.232,0.148,0.082,0.269,-2.467e-4,0,0,0,0,2.156e-4,0.021,16.5,213.825,86.63,0.014,3.75,12.871,974.83,339.099,0.042,0.043
4.12,335.408,155.924,-20.572,156.372,20.572,27.548,0.003,27.548,0.007,11.828,0.119,22.175,120.893,9.787,0.165,3.891e-6,3.587,-0.009,1.898e4,4500,16.939,0.085,229.254,174.165,3.339,0.461,2.983e7,0,204.405,0.661,0.661,0.282,0.232,0.148,0.031,0.103,-1.297e-4,0,0,0,0,6.073e-4,0.021,16.5,213.825,86.782,0.011,3.494,12.82,973.912,339.068,0.05,0.043
4.17,343.178,154.9,-20.377,155.349,20.392,28.139,0.003,28.139,0.007,11.805,0.795,22.175,120.893,9.787,0.071,-7.33e-6,-3.905,-0.013,1.898e4,4500,16.939,0.085,229.501,174.165,3.354,0.458,2.961e7,0,201.428,0.66,0.66,0.282,0.231,0.147,0.013,0.045,4.948e-4,0,0,0,0,-7.292e-4,0.021,16.5,213.825,86.978,0.01,3.422,12.769,973.001,339.037,0.05,0.043
4.22,350.898,153.886,-20.197,154.334,20.244,28.728,0.004,28.728,0.007,11.749,1.377,22.175,120.893,9.787,0.278,-2.523e-6,-2.932,-0.003,1.898e4,4500,16.939,0.085,228.914,174.165,3.318,0.455,2.94e7,0,198.559,0.66,0.66,0.282,0.231,0.147,0.053,0.176,3.654e-4,0,0,0,0,-4.165e-4,0.021,16.5,213.825,87.154,0.011,3.334,12.719,972.096,339.007,0.05,0.043
4.27,358.567,152.88,-20.037,153.325,20.103,29.313,0.004,29.313,0.007,11.67,1.623,22.175,120.893,9.787,0.372,2.66e-6,-1.11,-0.004,1.898e4,4500,16.939,0.085,228.643,174.165,3.302,0.452,2.919e7,0,195.716,0.659,0.66,0.282,0.231,0.147,0.071,0.234,4.64e-4,0,0,0,0,-6.051e-5,0.021,16.5,213.825,87.257,0.013,3.337,12.669,971.196,338.977,0.05,0.044
4.32,366.186,151.882,-19.894,152.324,19.946,29.895,0.004,29.895,0.007,11.592,1.435,22.175,120.893,9.787,0.317,5.954e-7,0.724,-0.001,1.898e4,4500,16.939,0.085,228.778,174.165,3.31,0.449,2.898e7,0,192.838,0.659,0.659,0.282,0.231,0.146,0.06,0.2,-3.425e-4,0,0,0,0,2.612e-5,0.021,16.5,213.825,87.264,0.017,3.488,12.62,970.302,338.946,0.05,0.044
4.37,373.756,150.891,-19.761,151.331,19.79,30.473,0.004,30.473,0.007,11.53,1.07,22.175,120.893,9.787,0.195,-9.619e-7,1.97,-0.003,1.898e4,4500,16.939,0.085,229.099,174.165,3.329,0.446,2.877e7,0,189.996,0.658,0.659,0.282,0.231,0.146,0.037,0.122,4.59e-4,0,0,0,0,1.957e-4,0.02,16.5,213.825,87.192,0.02,3.621,12.571,969.415,338.917,0.05,0.044
4.42,381.275,149.906,-19.635,150.345,19.646,31.048,0.004,31.048,0.008,11.486,0.647,22.175,120.893,9.787,0.044,-1.281e-6,2.669,-0.013,1.898e4,4500,16.939,0.085,229.504,174.165,3.354,0.443,2.857e7,0,187.223,0.658,0.658,0.282,0.23,0.146,0.008,0.027,1.449e-4,0,0,0,0,3.638e-4,0.02,16.5,213.825,87.071,0.022,3.707,12.522,968.533,338.887,0.05,0.044
4.47,388.746,148.927,-19.515,149.368,19.516,31.622,0.004,31.622,0.008,11.467,0.215,22.175,120.893,9.787,0.116,3.702e-7,-2.388,-0.003,1.898e4,4500,16.939,0.085,229.289,174.165,3.341,0.44,2.836e7,0,184.518,0.658,0.658,0.282,0.23,0.145,0.022,0.073,-2.83e-4,0,0,0,0,-2.953e-4,0.02,16.5,213.825,86.94,0.022,3.82,12.473,967.657,338.858,0.05,0.045
4.52,396.168,147.954,-19.388,148.398,19.388,32.195,0.004,32.195,0.008,11.462,0.011,22.175,120.893,9.786,0.195,1.023e-6,-1.603,-0.002,1.898e4,4500,16.939,0.085,229.057,174.165,3.327,0.437,2.816e7,0,181.881,0.657,0.657,0.282,0.23,0.145,0.037,0.123,4.487e-4,0,0,0,0,-1.348e-4,0.02,16.5,213.825,86.838,0.022,3.801,12.425,966.786,338.828,0.05,0.045
4.57,403.542,146.988,-19.26,147.435,19.261,32.768,0.004,32.768,0.008,11.464,0.151,22.175,120.893,9.786,0.258,1.474e-6,-0.622,-0.002,1.898e4,4500,16.939,0.085,228.872,174.165,3.316,0.434,2.796e7,0,179.276,0.657,0.657,0.282,0.23,0.145,0.049,0.162,1.83e-6,0,0,0,0,-2.056e-5,0.02,16.5,213.825,86.783,0.021,3.867,12.377,965.921,338.799,0.05,0.045
4.62,410.867,146.028,-19.133,146.479,19.135,33.342,0.005,33.342,0.008,11.477,0.312,22.175,120.893,9.786,0.317,1.39e-6,0.835,0.002,1.898e4,4500,16.939,0.085,228.695,174.165,3.305,0.432,2.776e7,0,176.693,0.656,0.656,0.282,0.23,0.144,0.06,0.199,3.543e-4,0,0,0,0,3.754e-5,0.02,16.5,213.825,86.789,0.021,4.102,12.329,965.062,338.77,0.05,0.045
4.67,418.145,145.075,-18.986,145.53,18.986,33.916,0.005,33.916,0.008,11.491,0.125,22.175,120.893,9.786,0.244,6.608e-7,2.285,-0.001,1.898e4,4500,16.939,0.085,228.882,174.165,3.316,0.429,2.756e7,0,174.13,0.656,0.656,0.282,0.229,0.144,0.046,0.153,2.488e-5,0,0,0,0,2.849e-4,0.02,16.5,213.825,86.868,0.02,4.177,12.282,964.209,338.742,0.05,0.046
4.72,425.375,144.13,-18.833,144.587,18.834,34.49,0.005,34.491,0.008,11.487,0.234,22.175,120.893,9.786,0.1,0,2.932,-0.003,1.898e4,4500,16.939,0.085,229.268,174.165,3.34,0.426,2.737e7,0,171.612,0.655,0.655,0.283,0.229,0.144,0.019,0.062,3.355e-4,0,0,0,0,4.752e-4,0.02,16.5,213.825,87.003,0.02,4.183,12.235,963.361,338.713,0.05,0.046
4.77,432.558,143.192,-18.693,143.65,18.697,35.064,0.005,35.064,0.008,11.469,0.402,22.175,120.893,9.786,0.023,3.133e-6,3.198,-0.036,1.898e4,4500,16.939,0.085,229.469,174.165,3.352,0.423,2.717e7,0,169.127,0.655,0.655,0.283,0.229,0.143,0.004,0.014,-3.028e-4,0,0,0,0,5.728e-4,0.019,16.5,213.825,87.16,0.017,4.419,12.188,962.518,338.685,0.05,0.046
4.82,439.694,142.261,-18.547,142.72,18.564,35.637,0.005,35.637,0.008,11.445,0.786,22.175,120.893,9.786,0.141,1.998e-6,-3.217,-0.007,1.898e4,4500,16.939,0.085,229.128,174.165,3.331,0.421,2.698e7,0,166.721,0.655,0.655,0.283,0.229,0.143,0.027,0.09,1.602e-4,0,0,0,0,-5.871e-4,0.019,16.5,213.825,87.322,0.015,4.44,12.142,961.681,338.657,0.05,0.046
4.87,446.784,141.337,-18.404,141.795,18.45,36.208,0.005,36.208,0.008,11.388,1.294,22.175,120.893,9.786,0.354,2.622e-6,-1.838,-0.003,1.898e4,4500,16.939,0.085,228.532,174.165,3.295,0.418,2.679e7,0,164.425,0.654,0.654,0.283,0.229,0.143,0.067,0.222,-2.86e-4,0,0,0,0,-1.942e-4,0.019,16.5,213.825,87.451,0.014,4.204,12.096,960.85,338.629,0.05,0.046
4.92,453.828,140.42,-18.278,140.875,18.333,36.776,0.005,36.776,0.008,11.32,1.417,22.175,120.893,9.786,0.414,0,-0.236,-9.149e-4,1.898e4,4500,16.939,0.085,228.359,174.165,3.284,0.415,2.66e7,0,162.108,0.654,0.654,0.283,0.229,0.142,0.079,0.258,7.834e-5,0,0,0,0,-3.238e-6,0.019,16.5,213.825,87.504,0.014,4.18,12.05,960.024,338.601,0.05,0.047
4.97,460.826,139.509,-18.158,139.962,18.21,37.34,0.005,37.34,0.008,11.249,1.375,22.175,120.893,9.786,0.402,0,1.573,0.002,1.898e4,4500,16.939,0.085,228.376,174.165,3.286,0.413,2.642e7,0,159.807,0.653,0.654,0.283,0.228,0.142,0.076,0.251,-2.909e-5,0,0,0,0,1.459e-4,0.019,16.5,213.825,87.469,0.016,4.097,12.005,959.203,338.574,0.05,0.047
5.02,467.779,138.604,-18.046,139.055,18.081,37.901,0.006,37.901,0.008,11.186,1.131,22.175,120.893,9.786,0.303,-1.48e-6,3.086,-6.35e-4,1.898e4,4500,16.939,0.085,228.635,174.165,3.301,0.41,2.623e7,0,157.508,0.653,0.653,0.283,0.228,0.142,0.057,0.189,9.187e-5,0,0,0,0,5.69e-4,0.019,16.5,213.825,87.349,0.018,4.034,11.959,958.387,338.546,0.05,0.047
5.07,474.687,137.704,-17.941,138.154,17.958,38.459,0.006,38.459,0.009,11.138,0.796,22.175,120.893,9.786,0.158,-1.858e-6,4.032,8.72e-4,1.898e4,4500,16.939,0.085,229.022,174.165,3.325,0.407,2.605e7,0,155.25,0.653,0.653,0.283,0.228,0.142,0.03,0.098,3.125e-4,0,0,0,0,9.84e-4,0.019,16.5,213.825,87.167,0.02,3.947,11.915,957.577,338.519,0.05,0.048
5.12,481.549,136.81,-17.841,137.26,17.847,39.015,0.006,39.015,0.009,11.107,0.462,22.175,120.893,9.786,0.006,-2.037e-6,4.372,-8.98e-4,1.898e4,4500,16.939,0.085,229.433,174.165,3.35,0.405,2.586e7,0,153.051,0.652,0.652,0.283,0.228,0.141,0.001,0.003,-1.934e-4,0,0,0,0,0.001,0.019,16.5,213.825,86.953,0.02,3.815,11.87,956.772,338.492,0.05,0.048
5.17,488.368,135.92,-17.755,136.372,17.755,39.57,0.006,39.57,0.009,11.093,0.028,22.175,120.893,9.786,0.217,4.447e-6,-4.092,-0.002,1.898e4,4500,16.939,0.085,228.837,174.165,3.313,0.402,2.568e7,0,150.896,0.652,0.652,0.283,0.228,0.141,0.041,0.137,1.128e-4,0,0,0,0,-0.001,0.018,16.5,213.825,86.738,0.02,3.869,11.826,955.973,338.465,0.05,0.05
