Time (s),Altitude (m),Vertical velocity (m/s),Vertical acceleration (m/s²),Total velocity (m/s),Total acceleration (m/s²),Position East of launch (m),Position North of launch (m),Lateral distance (m),Lateral direction (°),Lateral velocity (m/s),Lateral acceleration (m/s²),Latitude (°),Longitude (°),Gravitational acceleration (m/s²),Angle of attack (°),Roll rate (°/s),Pitch rate (°/s),Yaw rate (°/s),Mass (g),Motor mass (g),Longitudinal moment of inertia (kg·m²),Rotational moment of inertia (kg·m²),CP location (cm),CG location (cm),Stability margin calibers (​),Mach number (​),Reynolds number (​),Thrust (N),Drag force (N),Drag coefficient (​),Axial drag coefficient (​),Friction drag coefficient (​),Pressure drag coefficient (​),Base drag coefficient (​),Normal force coefficient (​),Pitch moment coefficient (​),Yaw moment coefficient (​),Side force coefficient (​),Roll moment coefficient (​),Roll forcing coefficient (​),Roll damping coefficient (​),Pitch damping coefficient (​),Coriolis acceleration (m/s²),Reference length (cm),Reference area (cm²),Vertical orientation (zenith) (°),Lateral orientation (azimuth) (°),Wind velocity (m/s),Air temperature (°C),Air pressure (mbar),Speed of sound (m/s),Simulation time step (s),Computation time (s)
0.01,-4.772e-4,-0.095,-9.54,0.096,9.593,-5.015e-5,0,5.015e-5,180,0.01,1.003,22.175,120.893,9.788,86.411,0,0,0,2.798e4,1.35e4,21.757,0.099,NaN,201.939,NaN,0.007,4.447e5,3.946,2.956e-5,0.737,4.387e-4,0.402,0.215,0.12,NaN,NaN,NaN,NaN,NaN,NaN,NaN,NaN,1.297e-5,16.5,213.825,84,0,2.276,15,1013.25,340.389,0.01,0.004
0.02,-4.78e-4,-0.096,-9.56,0.096,9.613,-5.024e-5,0,5.024e-5,180,0.01,1.005,22.175,120.893,9.788,86.422,0,0,0,2.798e4,1.35e4,21.757,0.099,NaN,201.939,NaN,0.007,4.435e5,3.399,2.915e-5,0.737,4.349e-4,0.402,0.215,0.12,NaN,NaN,NaN,NaN,NaN,NaN,NaN,NaN,1.299e-5,16.5,213.825,84,0,2.27,15,1013.25,340.389,0.01,0.005
0.03,-4.766e-4,-0.095,-9.532,0.096,9.584,-5.009e-5,0,5.009e-5,180,0.01,1.002,22.175,120.893,9.788,86.421,0,0,0,2.798e4,1.35e4,21.757,0.099,NaN,201.939,NaN,0.007,4.424e5,4.196,2.903e-5,0.737,4.354e-4,0.402,0.215,0.12,NaN,NaN,NaN,NaN,NaN,NaN,NaN,NaN,1.296e-5,16.5,213.825,84,0,2.265,15,1013.25,340.389,0.01,0.005
0.04,-4.78e-4,-0.096,-9.56,0.096,9.612,-5.024e-5,0,5.024e-5,180,0.01,1.005,22.175,120.893,9.788,86.434,0,0,0,2.798e4,1.35e4,21.757,0.099,NaN,201.939,NaN,0.007,4.413e5,3.408,2.857e-5,0.738,4.307e-4,0.403,0.215,0.12,NaN,NaN,NaN,NaN,NaN,NaN,NaN,NaN,1.299e-5,16.5,213.825,84,0,2.259,15,1013.25,340.389,0.01,0.005
0.05,-4.776e-4,-0.096,-9.551,0.096,9.604,-5.019e-5,0,5.019e-5,180,0.01,1.004,22.175,120.893,9.788,86.438,0,0,0,2.798e4,1.35e4,21.757,0.099,NaN,201.939,NaN,0.007,4.401e5,3.638,2.834e-5,0.738,4.293e-4,0.403,0.215,0.12,NaN,NaN,NaN,NaN,NaN,NaN,NaN,NaN,1.298e-5,16.5,213.825,84,0,2.253,15,1013.25,340.389,0.01,0.006
0.06,-4.772e-4,-0.095,-9.544,0.096,9.597,-5.016e-5,0,5.016e-5,180,0.01,1.003,22.175,120.893,9.788,86.418,0,0,0,2.798e4,1.35e4,21.757,0.099,NaN,201.939,NaN,0.007,4.435e5,3.848,2.925e-5,0.737,4.363e-4,0.402,0.215,0.12,NaN,NaN,NaN,NaN,NaN,NaN,NaN,NaN,1.297e-5,16.5,213.825,84,0,2.27,15,1013.25,340.389,0.01,0.006
0.07,-4.775e-4,-0.096,-9.551,0.096,9.603,-5.019e-5,0,5.019e-5,180,0.01,1.004,22.175,120.893,9.788,86.401,0,0,0,2.798e4,1.35e4,21.757,0.099,NaN,201.939,NaN,0.007,4.469e5,3.653,3.008e-5,0.737,4.42e-4,0.402,0.215,0.12,NaN,NaN,NaN,NaN,NaN,NaN,NaN,NaN,1.298e-5,16.5,213.825,84,0,2.288,15,1013.25,340.389,0.01,0.006
0.08,-4.766e-4,-0.095,-9.533,0.096,9.585,-5.01e-5,0,5.01e-5,180,0.01,1.002,22.175,120.893,9.788,86.378,0,0,0,2.798e4,1.35e4,21.757,0.099,NaN,201.938,NaN,0.007,4.503e5,4.165,3.109e-5,0.736,4.499e-4,0.401,0.215,0.12,NaN,NaN,NaN,NaN,NaN,NaN,NaN,NaN,1.296e-5,16.5,213.825,84,0,2.305,15,1013.25,340.389,0.01,0.006
0.09,-4.769e-4,-0.095,-9.537,0.096,9.59,-5.012e-5,0,5.012e-5,180,0.01,1.002,22.175,120.893,9.788,86.362,0,0,0,2.798e4,1.35e4,21.757,0.099,NaN,201.938,NaN,0.007,4.537e5,4.039,3.197e-5,0.735,4.557e-4,0.4,0.215,0.12,NaN,NaN,NaN,NaN,NaN,NaN,NaN,NaN,1.296e-5,16.5,213.825,84,0,2.322,15,1013.25,340.389,0.01,0.006
0.1,-4.775e-4,-0.095,-9.55,0.096,9.602,-5.019e-5,0,5.019e-5,180,0.01,1.004,22.175,120.893,9.788,86.347,0,0,0,2.798e4,1.35e4,21.757,0.099,NaN,201.938,NaN,0.007,4.571e5,3.684,3.28e-5,0.735,4.607e-4,0.4,0.215,0.12,NaN,NaN,NaN,NaN,NaN,NaN,NaN,NaN,1.298e-5,16.5,213.825,84,0,2.34,15,1013.25,340.389,0.01,0.006
0.11,-4.763e-4,-0.095,-9.525,0.096,9.578,-5.006e-5,0,5.006e-5,180,0.01,1.001,22.175,120.893,9.788,86.322,0,0,0,2.798e4,1.35e4,21.757,0.099,NaN,201.938,NaN,0.007,4.609e5,4.369,3.4e-5,0.734,4.697e-4,0.399,0.215,0.12,NaN,NaN,NaN,NaN,NaN,NaN,NaN,NaN,1.295e-5,16.5,213.825,84,0,2.359,15,1013.25,340.389,0.01,0.007
0.12,-4.772e-4,-0.095,-9.545,0.096,9.597,-5.016e-5,0,5.016e-5,180,0.01,1.003,22.175,120.893,9.788,86.308,0,0,0,2.798e4,1.35e4,21.757,0.099,NaN,201.938,NaN,0.007,4.647e5,3.832,3.493e-5,0.733,4.747e-4,0.398,0.215,0.12,NaN,NaN,NaN,NaN,NaN,NaN,NaN,NaN,1.297e-5,16.5,213.825,84,0,2.379,15,1013.25,340.389,0.01,0.007
0.13,-4.76e-4,-0.095,-9.521,0.096,9.573,-5.003e-5,0,5.003e-5,180,0.01,1.001,22.175,120.893,9.788,86.283,0,0,0,2.798e4,1.35e4,21.757,0.099,NaN,201.938,NaN,0.007,4.685e5,4.497,3.617e-5,0.733,4.835e-4,0.397,0.215,0.12,NaN,NaN,NaN,NaN,NaN,NaN,NaN,NaN,1.294e-5,16.5,213.825,84,0,2.398,15,1013.25,340.389,0.01,0.007
0.14,-4.765e-4,-0.095,-9.53,0.096,9.583,-5.008e-5,0,5.008e-5,180,0.01,1.002,22.175,120.893,9.788,86.267,0,0,0,2.798e4,1.35e4,21.757,0.099,NaN,201.937,NaN,0.007,4.723e5,4.238,3.719e-5,0.732,4.893e-4,0.397,0.215,0.12,NaN,NaN,NaN,NaN,NaN,NaN,NaN,NaN,1.295e-5,16.5,213.825,84,0,2.417,15,1013.25,340.389,0.01,0.007
0.15,-4.766e-4,-0.095,-9.533,0.096,9.585,-5.01e-5,0,5.01e-5,180,0.01,1.002,22.175,120.893,9.788,86.25,0,0,0,2.798e4,1.35e4,21.757,0.099,NaN,201.937,NaN,0.007,4.761e5,4.165,3.828e-5,0.731,4.957e-4,0.396,0.215,0.12,NaN,NaN,NaN,NaN,NaN,NaN,NaN,NaN,1.296e-5,16.5,213.825,84,0,2.437,15,1013.25,340.389,0.01,0.007
0.16,-4.754e-4,-0.095,-9.509,0.096,9.561,-4.997e-5,0,4.997e-5,180,0.01,0.999,22.175,120.893,9.788,86.285,0,0,0,2.797e4,1.35e4,21.757,0.099,NaN,201.937,NaN,0.007,4.675e5,4.835,3.596e-5,0.733,4.829e-4,0.398,0.215,0.12,NaN,NaN,NaN,NaN,NaN,NaN,NaN,NaN,1.292e-5,16.5,213.825,84,0,2.393,15,1013.25,340.389,0.01,0.008
0.17,-4.764e-4,-0.095,-9.528,0.096,9.58,-5.007e-5,0,5.007e-5,180,0.01,1.001,22.175,120.893,9.788,86.333,0,0,0,2.797e4,1.35e4,21.757,0.099,NaN,201.937,NaN,0.007,4.589e5,4.308,3.344e-5,0.734,4.659e-4,0.399,0.215,0.12,NaN,NaN,NaN,NaN,NaN,NaN,NaN,NaN,1.295e-5,16.5,213.825,84,0,2.349,15,1013.25,340.389,0.01,0.008
0.18,-4.748e-4,-0.095,-9.495,0.095,9.548,-4.99e-5,0,4.99e-5,180,0.01,0.998,22.175,120.893,9.788,86.369,0,0,0,2.797e4,1.35e4,21.757,0.099,NaN,201.937,NaN,0.007,4.504e5,5.219,3.133e-5,0.736,4.534e-4,0.401,0.215,0.12,NaN,NaN,NaN,NaN,NaN,NaN,NaN,NaN,1.291e-5,16.5,213.825,84,0,2.305,15,1013.25,340.389,0.01,0.008
0.19,-4.759e-4,-0.095,-9.517,0.096,9.57,-5.002e-5,0,5.002e-5,180,0.01,1,22.175,120.893,9.788,86.421,0,0,0,2.797e4,1.35e4,21.757,0.099,NaN,201.937,NaN,0.007,4.418e5,4.595,2.896e-5,0.738,4.355e-4,0.403,0.215,0.12,NaN,NaN,NaN,NaN,NaN,NaN,NaN,NaN,1.294e-5,16.5,213.825,84,0,2.261,15,1013.25,340.389,0.01,0.008
0.2,-4.751e-4,-0.095,-9.502,0.096,9.554,-4.993e-5,0,4.993e-5,180,0.01,0.999,22.175,120.893,9.788,86.465,0,0,0,2.797e4,1.35e4,21.757,0.099,NaN,201.936,NaN,0.006,4.332e5,5.035,2.691e-5,0.739,4.209e-4,0.404,0.215,0.12,NaN,NaN,NaN,NaN,NaN,NaN,NaN,NaN,1.292e-5,16.5,213.825,84,0,2.218,15,1013.25,340.389,0.01,0.008
0.21,-4.738e-4,-0.095,-9.475,0.095,9.527,-4.979e-5,0,4.979e-5,180,0.01,0.996,22.175,120.893,9.788,86.487,0,0,0,2.797e4,1.35e4,21.757,0.099,NaN,201.936,NaN,0.006,4.281e5,5.782,2.582e-5,0.74,4.135e-4,0.405,0.215,0.12,NaN,NaN,NaN,NaN,NaN,NaN,NaN,NaN,1.288e-5,16.5,213.825,84,0,2.191,15,1013.25,340.389,0.01,0.008
0.22,-4.746e-4,-0.095,-9.492,0.095,9.544,-4.988e-5,0,4.988e-5,180,0.01,0.998,22.175,120.893,9.788,86.522,0,0,0,2.797e4,1.35e4,21.756,0.099,NaN,201.936,NaN,0.006,4.229e5,5.316,2.451e-5,0.741,4.021e-4,0.406,0.215,0.12,NaN,NaN,NaN,NaN,NaN,NaN,NaN,NaN,1.29e-5,16.5,213.825,84,0,2.165,15,1013.25,340.389,0.01,0.009
0.23,-4.728e-4,-0.095,-9.456,0.095,9.508,-4.969e-5,0,4.969e-5,180,0.01,0.994,22.175,120.893,9.788,86.543,0,0,0,2.797e4,1.35e4,21.756,0.099,NaN,201.936,NaN,0.006,4.178e5,6.314,2.351e-5,0.743,3.954e-4,0.407,0.215,0.12,NaN,NaN,NaN,NaN,NaN,NaN,NaN,NaN,1.285e-5,16.5,213.825,84,0,2.139,15,1013.25,340.389,0.01,0.009
0.24,-4.742e-4,-0.095,-9.484,0.095,9.536,-4.984e-5,0,4.984e-5,180,0.01,0.997,22.175,120.893,9.788,86.583,0,0,0,2.797e4,1.35e4,21.756,0.099,NaN,201.935,NaN,0.006,4.126e5,5.531,2.221e-5,0.744,3.828e-4,0.409,0.215,0.12,NaN,NaN,NaN,NaN,NaN,NaN,NaN,NaN,1.289e-5,16.5,213.825,84,0,2.113,15,1013.25,340.389,0.01,0.009
0.25,-4.731e-4,-0.095,-9.462,0.095,9.515,-4.973e-5,0,4.973e-5,180,0.01,0.995,22.175,120.893,9.788,86.609,0,0,0,2.797e4,1.35e4,21.756,0.099,NaN,201.935,NaN,0.006,4.075e5,6.14,2.119e-5,0.745,3.746e-4,0.41,0.215,0.12,NaN,NaN,NaN,NaN,NaN,NaN,NaN,NaN,1.286e-5,16.5,213.825,84,0,2.086,15,1013.25,340.389,0.01,0.009
0.26,-4.722e-4,-0.094,-9.444,0.095,9.496,-4.963e-5,0,4.963e-5,180,0.01,0.993,22.175,120.893,9.788,86.57,0,0,0,2.797e4,1.35e4,21.756,0.099,NaN,201.935,NaN,0.006,4.13e5,6.656,2.249e-5,0.744,3.871e-4,0.408,0.215,0.12,NaN,NaN,NaN,NaN,NaN,NaN,NaN,NaN,1.284e-5,16.5,213.825,84,0,2.114,15,1013.25,340.389,0.01,0.009
0.27,-4.729e-4,-0.095,-9.457,0.095,9.509,-4.97e-5,0,4.97e-5,180,0.01,0.994,22.175,120.893,9.788,86.539,0,0,0,2.797e4,1.35e4,21.756,0.099,NaN,201.935,NaN,0.006,4.184e5,6.293,2.366e-5,0.742,3.966e-4,0.407,0.215,0.12,NaN,NaN,NaN,NaN,NaN,NaN,NaN,NaN,1.285e-5,16.5,213.825,84,0,2.142,15,1013.25,340.389,0.01,0.01
0.28,-4.709e-4,-0.094,-9.418,0.095,9.47,-4.95e-5,0,4.95e-5,180,0.01,0.99,22.175,120.893,9.788,86.496,0,0,0,2.797e4,1.35e4,21.756,0.099,NaN,201.934,NaN,0.006,4.239e5,7.383,2.515e-5,0.741,4.108e-4,0.406,0.215,0.12,NaN,NaN,NaN,NaN,NaN,NaN,NaN,NaN,1.28e-5,16.5,213.825,84,0,2.17,15,1013.25,340.389,0.01,0.01
0.29,-4.715e-4,-0.094,-9.43,0.095,9.482,-4.956e-5,0,4.956e-5,180,0.01,0.991,22.175,120.893,9.788,86.468,0,0,0,2.797e4,1.35e4,21.756,0.099,NaN,201.934,NaN,0.006,4.294e5,7.04,2.64e-5,0.74,4.202e-4,0.405,0.215,0.12,NaN,NaN,NaN,NaN,NaN,NaN,NaN,NaN,1.282e-5,16.5,213.825,84,0,2.198,15,1013.25,340.389,0.01,0.01
0.3,-4.705e-4,-0.094,-9.411,0.095,9.463,-4.946e-5,0,4.946e-5,180,0.01,0.989,22.175,120.893,9.788,86.432,0,0,0,2.797e4,1.35e4,21.756,0.099,NaN,201.934,NaN,0.007,4.349e5,7.588,2.786e-5,0.739,4.324e-4,0.404,0.215,0.12,NaN,NaN,NaN,NaN,NaN,NaN,NaN,NaN,1.279e-5,16.5,213.825,84,0,2.226,15,1013.25,340.389,0.01,0.01
0.31,-4.688e-4,-0.094,-9.376,0.094,9.428,-4.927e-5,0,4.927e-5,180,0.01,0.985,22.175,120.893,9.788,86.427,0,0,0,2.797e4,1.35e4,21.756,0.099,NaN,201.934,NaN,0.007,4.341e5,8.575,2.787e-5,0.739,4.341e-4,0.404,0.215,0.12,NaN,NaN,NaN,NaN,NaN,NaN,NaN,NaN,1.274e-5,16.5,213.825,84,0,2.222,15,1013.25,340.389,0.01,0.01
0.32,-4.69e-4,-0.094,-9.38,0.094,9.432,-4.929e-5,0,4.929e-5,180,0.01,0.986,22.175,120.893,9.788,86.433,0,0,0,2.797e4,1.35e4,21.756,0.099,NaN,201.933,NaN,0.006,4.332e5,8.457,2.764e-5,0.739,4.322e-4,0.404,0.215,0.12,NaN,NaN,NaN,NaN,NaN,NaN,NaN,NaN,1.275e-5,16.5,213.825,84,0,2.218,15,1013.25,340.389,0.01,0.01
0.33,-4.666e-4,-0.093,-9.331,0.094,9.383,-4.904e-5,0,4.904e-5,180,0.01,0.981,22.175,120.893,9.788,86.425,0,0,0,2.797e4,1.35e4,21.756,0.099,NaN,201.933,NaN,0.006,4.324e5,9.828,2.773e-5,0.739,4.352e-4,0.404,0.215,0.12,NaN,NaN,NaN,NaN,NaN,NaN,NaN,NaN,1.268e-5,16.5,213.825,84,0,2.214,15,1013.25,340.389,0.01,0.011
0.34,-4.662e-4,-0.093,-9.324,0.094,9.376,-4.9e-5,0,4.9e-5,180,0.01,0.98,22.175,120.893,9.788,86.427,0,0,0,2.797e4,1.35e4,21.756,0.099,NaN,201.932,NaN,0.006,4.316e5,10.028,2.757e-5,0.74,4.343e-4,0.405,0.215,0.12,NaN,NaN,NaN,NaN,NaN,NaN,NaN,NaN,1.267e-5,16.5,213.825,84,0,2.209,15,1013.25,340.389,0.01,0.011
0.35,-4.653e-4,-0.093,-9.307,0.094,9.358,-4.891e-5,0,4.891e-5,180,0.01,0.978,22.175,120.893,9.788,86.427,0,0,0,2.797e4,1.35e4,21.756,0.099,NaN,201.932,NaN,0.006,4.308e5,10.514,2.747e-5,0.74,4.344e-4,0.405,0.215,0.12,NaN,NaN,NaN,NaN,NaN,NaN,NaN,NaN,1.265e-5,16.5,213.825,84,0,2.205,15,1013.25,340.389,0.01,0.011
0.36,-4.62e-4,-0.092,-9.241,0.093,9.292,-4.856e-5,0,4.856e-5,180,0.01,0.971,22.175,120.893,9.788,86.424,0,0,0,2.797e4,1.35e4,21.756,0.099,NaN,201.932,NaN,0.006,4.283e5,12.371,2.724e-5,0.74,4.358e-4,0.405,0.215,0.12,NaN,NaN,NaN,NaN,NaN,NaN,NaN,NaN,1.256e-5,16.5,213.825,84,0,2.192,15,1013.25,340.389,0.01,0.011
0.37,-4.612e-4,-0.092,-9.223,0.093,9.274,-4.847e-5,0,4.847e-5,180,0.01,0.969,22.175,120.893,9.788,86.434,0,0,0,2.797e4,1.35e4,21.756,0.099,NaN,201.931,NaN,0.006,4.258e5,12.862,2.673e-5,0.741,4.327e-4,0.406,0.215,0.12,NaN,NaN,NaN,NaN,NaN,NaN,NaN,NaN,1.254e-5,16.5,213.825,84,0,2.18,15,1013.25,340.389,0.01,0.011
0.38,-4.582e-4,-0.092,-9.164,0.092,9.215,-4.816e-5,0,4.816e-5,180,0.01,0.963,22.175,120.893,9.788,86.432,0,0,0,2.797e4,1.35e4,21.756,0.099,NaN,201.931,NaN,0.006,4.233e5,14.525,2.647e-5,0.741,4.334e-4,0.406,0.215,0.12,NaN,NaN,NaN,NaN,NaN,NaN,NaN,NaN,1.246e-5,16.5,213.825,84,0,2.167,15,1013.25,340.389,0.01,0.011
0.39,-4.561e-4,-0.091,-9.122,0.092,9.172,-4.794e-5,0,4.794e-5,180,0.01,0.959,22.175,120.893,9.788,86.436,0,0,0,2.797e4,1.35e4,21.755,0.099,NaN,201.93,NaN,0.006,4.208e5,15.717,2.611e-5,0.742,4.326e-4,0.407,0.215,0.12,NaN,NaN,NaN,NaN,NaN,NaN,NaN,NaN,1.24e-5,16.5,213.825,84,0,2.154,15,1013.25,340.389,0.01,0.012
0.4,-4.543e-4,-0.091,-9.085,0.091,9.135,-4.774e-5,0,4.774e-5,180,0.01,0.955,22.175,120.893,9.788,86.44,0,0,0,2.797e4,1.35e4,21.755,0.099,NaN,201.929,NaN,0.006,4.183e5,16.751,2.572e-5,0.742,4.313e-4,0.407,0.215,0.12,NaN,NaN,NaN,NaN,NaN,NaN,NaN,NaN,1.235e-5,16.5,213.825,84,0,2.141,15,1013.25,340.389,0.01,0.012
0.41,-4.507e-4,-0.09,-9.015,0.091,9.064,-4.737e-5,0,4.737e-5,180,0.009,0.947,22.175,120.893,9.788,86.406,0,0,0,2.797e4,1.349e4,21.755,0.099,NaN,201.929,NaN,0.006,4.21e5,18.736,2.678e-5,0.742,4.434e-4,0.407,0.215,0.12,NaN,NaN,NaN,NaN,NaN,NaN,NaN,NaN,1.225e-5,16.5,213.825,84,0,2.155,15,1013.25,340.389,0.01,0.012
0.42,-4.481e-4,-0.09,-8.963,0.09,9.012,-4.71e-5,0,4.71e-5,180,0.009,0.942,22.175,120.893,9.788,86.377,0,0,0,2.797e4,1.349e4,21.755,0.099,NaN,201.928,NaN,0.006,4.237e5,20.199,2.776e-5,0.741,4.538e-4,0.406,0.215,0.12,NaN,NaN,NaN,NaN,NaN,NaN,NaN,NaN,1.218e-5,16.5,213.825,84,0,2.169,15,1013.25,340.389,0.01,0.012
0.43,-4.428e-4,-0.089,-8.857,0.089,8.906,-4.654e-5,0,4.654e-5,180,0.009,0.931,22.175,120.893,9.788,86.334,0,0,0,2.797e4,1.349e4,21.755,0.099,NaN,201.927,NaN,0.006,4.264e5,23.171,2.909e-5,0.741,4.695e-4,0.406,0.215,0.12,NaN,NaN,NaN,NaN,NaN,NaN,NaN,NaN,1.204e-5,16.5,213.825,84,0,2.183,15,1013.25,340.389,0.01,0.012
0.44,-4.388e-4,-0.088,-8.777,0.088,8.825,-4.612e-5,0,4.612e-5,180,0.009,0.922,22.175,120.893,9.788,86.298,0,0,0,2.797e4,1.349e4,21.755,0.099,NaN,201.926,NaN,0.006,4.291e5,25.427,3.029e-5,0.74,4.828e-4,0.405,0.215,0.12,NaN,NaN,NaN,NaN,NaN,NaN,NaN,NaN,1.193e-5,16.5,213.825,84,0,2.196,15,1013.25,340.389,0.01,0.013
0.45,-4.324e-4,-0.086,-8.648,0.087,8.695,-4.545e-5,0,4.545e-5,180,0.009,0.909,22.175,120.893,9.788,86.25,0,0,0,2.797e4,1.349e4,21.754,0.099,NaN,201.925,NaN,0.006,4.318e5,29.05,3.184e-5,0.74,5.012e-4,0.405,0.215,0.12,NaN,NaN,NaN,NaN,NaN,NaN,NaN,NaN,1.175e-5,16.5,213.825,84,0,2.21,15,1013.25,340.389,0.01,0.013
0.46,-4.243e-4,-0.085,-8.487,0.085,8.534,-4.46e-5,0,4.46e-5,180,0.009,0.892,22.175,120.893,9.788,86.209,0,0,0,2.797e4,1.349e4,21.754,0.099,NaN,201.923,NaN,0.006,4.317e5,33.572,3.288e-5,0.74,5.177e-4,0.405,0.215,0.12,NaN,NaN,NaN,NaN,NaN,NaN,NaN,NaN,1.154e-5,16.5,213.825,84,0,2.209,15,1013.25,340.389,0.01,0.013
0.47,-4.172e-4,-0.083,-8.344,0.084,8.39,-4.385e-5,0,4.385e-5,180,0.009,0.877,22.175,120.893,9.788,86.172,0,0,0,2.797e4,1.349e4,21.754,0.099,NaN,201.922,NaN,0.006,4.316e5,37.604,3.382e-5,0.74,5.328e-4,0.405,0.215,0.12,NaN,NaN,NaN,NaN,NaN,NaN,NaN,NaN,1.134e-5,16.5,213.825,84,0,2.209,15,1013.25,340.389,0.01,0.013
0.48,-4.021e-4,-0.08,-8.042,0.081,8.087,-4.226e-5,0,4.226e-5,180,0.008,0.845,22.175,120.893,9.788,86.094,0,0,0,2.797e4,1.349e4,21.754,0.099,NaN,201.92,NaN,0.006,4.315e5,46.076,3.589e-5,0.74,5.656e-4,0.405,0.215,0.12,NaN,NaN,NaN,NaN,NaN,NaN,NaN,NaN,1.093e-5,16.5,213.825,84,0,2.208,15,1013.25,340.389,0.01,0.013
0.49,-3.871e-4,-0.077,-7.742,0.078,7.785,-4.069e-5,0,4.069e-5,180,0.008,0.814,22.175,120.893,9.788,86.016,0,0,0,2.797e4,1.349e4,21.753,0.099,NaN,201.918,NaN,0.006,4.315e5,54.513,3.803e-5,0.74,5.996e-4,0.405,0.215,0.12,NaN,NaN,NaN,NaN,NaN,NaN,NaN,NaN,1.052e-5,16.5,213.825,84,0,2.208,15,1013.25,340.389,0.01,0.014
0.5,-3.674e-4,-0.073,-7.348,0.074,7.388,-3.862e-5,0,3.862e-5,180,0.008,0.772,22.175,120.893,9.788,85.914,0,0,0,2.796e4,1.349e4,21.753,0.099,NaN,201.916,NaN,0.006,4.314e5,65.594,4.099e-5,0.74,6.463e-4,0.405,0.215,0.12,NaN,NaN,NaN,NaN,NaN,NaN,NaN,NaN,9.988e-6,16.5,213.825,84,0,2.207,15,1013.25,340.389,0.01,0.014
0.51,-3.456e-4,-0.069,-6.913,0.07,6.951,-3.633e-5,0,3.633e-5,180,0.007,0.727,22.175,120.893,9.788,85.803,0,0,0,2.796e4,1.349e4,21.752,0.099,NaN,201.913,NaN,0.006,4.307e5,77.832,4.42e-5,0.74,6.994e-4,0.405,0.215,0.12,NaN,NaN,NaN,NaN,NaN,NaN,NaN,NaN,9.396e-6,16.5,213.825,84,0,2.203,15,1013.25,340.389,0.01,0.014
0.52,-3.255e-4,-0.065,-6.51,0.065,6.546,-3.421e-5,0,3.421e-5,180,0.007,0.684,22.175,120.893,9.788,85.701,0,0,0,2.796e4,1.349e4,21.752,0.099,NaN,201.909,NaN,0.006,4.299e5,89.154,4.73e-5,0.74,7.511e-4,0.405,0.215,0.12,NaN,NaN,NaN,NaN,NaN,NaN,NaN,NaN,8.848e-6,16.5,213.825,84,0,2.199,15,1013.25,340.389,0.01,0.014
0.53,-3.016e-4,-0.06,-6.031,0.061,6.064,-3.169e-5,0,3.169e-5,180,0.006,0.634,22.175,120.893,9.788,85.579,0,0,0,2.796e4,1.348e4,21.751,0.099,NaN,201.905,NaN,0.006,4.292e5,102.609,5.123e-5,0.74,8.162e-4,0.405,0.215,0.12,NaN,NaN,NaN,NaN,NaN,NaN,NaN,NaN,8.198e-6,16.5,213.825,84,0,2.195,15,1013.25,340.389,0.01,0.014
0.54,-2.786e-4,-0.056,-5.571,0.056,5.602,-2.928e-5,0,2.928e-5,180,0.006,0.586,22.175,120.893,9.788,85.461,0,0,0,2.796e4,1.348e4,21.75,0.099,NaN,201.901,NaN,0.006,4.285e5,115.517,5.519e-5,0.74,8.823e-4,0.405,0.215,0.12,NaN,NaN,NaN,NaN,NaN,NaN,NaN,NaN,7.573e-6,16.5,213.825,84,0,2.191,15,1013.25,340.389,0.01,0.015
0.55,-2.552e-4,-0.051,-5.104,0.051,5.132,-2.682e-5,0,2.682e-5,180,0.005,0.536,22.175,120.893,9.788,85.34,0,0,0,2.796e4,1.348e4,21.749,0.099,NaN,201.896,NaN,0.006,4.277e5,128.661,5.943e-5,0.74,9.534e-4,0.405,0.215,0.12,NaN,NaN,NaN,NaN,NaN,NaN,NaN,NaN,6.937e-6,16.5,213.825,84,0,2.187,15,1013.25,340.389,0.01,0.015
0.56,-2.294e-4,-0.046,-4.589,0.046,4.614,-2.412e-5,0,2.412e-5,180,0.005,0.482,22.175,120.893,9.788,85.221,0,0,0,2.795e4,1.348e4,21.748,0.099,NaN,201.89,NaN,0.006,4.222e5,143.124,6.25e-5,0.742,0.001,0.407,0.215,0.12,NaN,NaN,NaN,NaN,NaN,NaN,NaN,NaN,6.237e-6,16.5,213.825,84,0,2.158,15,1013.25,340.389,0.01,0.015
0.57,-2.041e-4,-0.041,-4.081,0.041,4.103,-2.145e-5,0,2.145e-5,180,0.004,0.429,22.175,120.893,9.788,85.1,0,0,0,2.795e4,1.347e4,21.747,0.099,NaN,201.884,NaN,0.006,4.167e5,157.378,6.563e-5,0.743,0.001,0.408,0.215,0.12,NaN,NaN,NaN,NaN,NaN,NaN,NaN,NaN,5.547e-6,16.5,213.825,84,0,2.129,15,1013.25,340.389,0.01,0.015
0.58,-1.763e-4,-0.035,-3.526,0.035,3.545,-1.853e-5,0,1.853e-5,180,0.004,0.371,22.175,120.893,9.788,84.963,0,0,0,2.795e4,1.347e4,21.746,0.099,NaN,201.877,NaN,0.006,4.112e5,172.956,6.943e-5,0.744,0.001,0.409,0.215,0.12,NaN,NaN,NaN,NaN,NaN,NaN,NaN,NaN,4.793e-6,16.5,213.825,84,0,2.101,15,1013.25,340.389,0.01,0.015
0.59,-1.471e-4,-0.029,-2.941,0.03,2.957,-1.546e-5,0,1.546e-5,180,0.003,0.309,22.175,120.893,9.788,84.814,0,0,0,2.794e4,1.347e4,21.745,0.099,NaN,201.87,NaN,0.006,4.057e5,189.374,7.376e-5,0.745,0.001,0.41,0.215,0.12,NaN,NaN,NaN,NaN,NaN,NaN,NaN,NaN,3.998e-6,16.5,213.825,84,0,2.072,15,1013.25,340.389,0.01,0.015
0.6,-1.112e-4,-0.022,-2.224,0.022,2.236,-1.169e-5,0,1.169e-5,180,0.002,0.234,22.175,120.893,9.788,84.624,0,0,0,2.794e4,1.346e4,21.743,0.099,NaN,201.862,NaN,0.006,4.003e5,209.49,7.994e-5,0.746,0.001,0.411,0.215,0.12,NaN,NaN,NaN,NaN,NaN,NaN,NaN,NaN,3.023e-6,16.5,213.825,84,0,2.044,15,1013.25,340.389,0.01,0.016
0.61,-7.014e-5,-0.014,-1.402,0.014,1.41,-7.372e-6,0,7.372e-6,180,0.001,0.147,22.175,120.893,9.788,84.392,0,0,0,2.793e4,1.346e4,21.742,0.099,NaN,201.853,NaN,0.006,4.018e5,232.539,9.115e-5,0.746,0.002,0.411,0.215,0.12,NaN,NaN,NaN,NaN,NaN,NaN,NaN,NaN,1.907e-6,16.5,213.825,84,0,2.051,15,1013.25,340.389,0.01,0.016
0.62,-2.035e-5,-0.004,-0.406,0.004,0.408,-2.139e-6,0,2.139e-6,180,4.275e-4,0.043,22.175,120.893,9.788,84.113,0,0,0,2.793e4,1.345e4,21.74,0.099,NaN,201.843,NaN,0.006,4.033e5,260.473,1.059e-4,0.746,0.002,0.411,0.215,0.12,NaN,NaN,NaN,NaN,NaN,NaN,NaN,NaN,5.528e-7,16.5,213.825,84,0,2.058,15,1013.25,340.389,0.01,0.016
0.63,4.068e-5,0.008,0.815,0.008,0.82,4.276e-6,0,4.276e-6,0,8.556e-4,0.086,22.175,120.893,9.788,83.774,0,0,0,2.792e4,1.345e4,21.738,0.099,NaN,201.831,NaN,0.006,4.049e5,294.705,1.257e-4,0.745,0.002,0.41,0.215,0.12,NaN,NaN,NaN,NaN,NaN,NaN,NaN,NaN,1.106e-6,16.5,213.825,84,0,2.064,15,1013.25,340.389,0.01,0.016
0.64,2.334e-4,0.03,2.228,0.031,2.24,2.453e-5,0,2.453e-5,0,0.003,0.234,22.175,120.893,9.788,83.16,0,0,0,2.792e4,1.344e4,21.736,0.099,NaN,201.818,NaN,0.006,4.067e5,334.309,1.67e-4,0.745,0.003,0.41,0.215,0.12,NaN,NaN,NaN,NaN,NaN,NaN,NaN,NaN,4.133e-6,16.5,213.825,84,0,2.071,15,1013.25,340.389,0.01,0.016
0.65,7.362e-4,0.07,3.977,0.071,3.998,7.738e-5,0,7.738e-5,0,0.007,0.418,22.175,120.893,9.788,82.073,0,0,0,2.791e4,1.344e4,21.733,0.099,NaN,201.803,NaN,0.006,4.091e5,383.29,2.596e-4,0.744,0.005,0.409,0.215,0.12,NaN,NaN,NaN,NaN,NaN,NaN,NaN,NaN,9.536e-6,16.5,213.825,84,0,2.078,15,1013.25,340.389,0.01,0.017
0.66,0.002,0.131,6.099,0.132,6.133,1.832e-4,0,1.832e-4,0,0.014,0.641,22.175,120.893,9.788,80.413,0,0,0,2.79e4,1.343e4,21.73,0.099,NaN,201.786,NaN,0.006,4.109e5,442.735,4.545e-4,0.744,0.008,0.409,0.215,0.12,NaN,NaN,NaN,NaN,NaN,NaN,NaN,NaN,1.782e-5,16.5,213.825,84,0,2.078,15,1013.25,340.389,0.01,0.017
0.67,0.003,0.219,8.745,0.22,8.793,3.669e-4,0,3.669e-4,0,0.023,0.919,22.175,120.893,9.788,78.062,0,0,0,2.789e4,1.342e4,21.726,0.098,NaN,201.766,NaN,0.006,4.142e5,516.791,8.668e-4,0.743,0.015,0.408,0.215,0.12,NaN,NaN,NaN,NaN,NaN,NaN,NaN,NaN,2.97e-5,16.5,213.825,84,0,2.078,15,1013.25,340.389,0.01,0.017
0.68,0.006,0.339,12.037,0.341,12.103,6.598e-4,0,6.598e-4,0,0.036,1.265,22.175,120.893,9.788,74.893,0,0,0,2.788e4,1.341e4,21.722,0.098,NaN,201.742,NaN,0.006,4.197e5,608.866,0.002,0.742,0.029,0.407,0.215,0.12,NaN,NaN,NaN,NaN,NaN,NaN,NaN,NaN,4.606e-5,16.5,213.825,84,0,2.078,15,1013.249,340.389,0.01,0.017
0.69,0.01,0.5,16.098,0.503,16.187,0.001,0,0.001,0,0.053,1.692,22.175,120.893,9.788,70.8,0,0,0,2.787e4,1.339e4,21.717,0.098,NaN,201.714,NaN,0.006,4.291e5,722.382,0.004,0.74,0.056,0.405,0.215,0.12,NaN,NaN,NaN,NaN,NaN,NaN,NaN,NaN,6.793e-5,16.5,213.825,84,0,2.078,15,1013.249,340.389,0.01,0.017
0.7,0.017,0.707,20.716,0.711,20.83,0.002,0,0.002,0,0.074,2.177,22.175,120.893,9.788,65.822,0,0,0,2.785e4,1.338e4,21.711,0.098,NaN,201.681,NaN,0.007,4.442e5,851.314,0.007,0.737,0.105,0.402,0.215,0.12,NaN,NaN,NaN,NaN,NaN,NaN,NaN,NaN,9.608e-5,16.5,213.825,84,0,2.078,15,1013.248,340.389,0.01,0.018
0.71,0.025,0.962,25.485,0.967,25.626,0.003,0,0.003,0,0.101,2.679,22.175,120.893,9.788,60,0,0,0,2.783e4,1.336e4,21.704,0.098,NaN,201.643,NaN,0.007,4.635e5,984.251,0.013,0.733,0.183,0.398,0.215,0.12,NaN,NaN,NaN,NaN,NaN,NaN,NaN,NaN,1.307e-4,16.5,213.825,84,0,2.059,15,1013.247,340.389,0.01,0.018
0.72,0.036,1.262,30.015,1.269,30.181,0.004,0,0.004,0,0.133,3.155,22.175,120.893,9.788,53.845,0,0,0,2.781e4,1.334e4,21.697,0.098,NaN,201.599,NaN,0.007,4.924e5,1110.231,0.024,0.728,0.289,0.393,0.215,0.12,NaN,NaN,NaN,NaN,NaN,NaN,NaN,NaN,1.715e-4,16.5,213.825,84,0,2.039,15,1013.246,340.389,0.01,0.023
0.73,0.05,1.602,34.099,1.611,34.287,0.005,0,0.005,0,0.168,3.584,22.175,120.893,9.788,47.778,0,0,0,2.779e4,1.332e4,21.688,0.098,NaN,201.551,NaN,0.008,5.316e5,1223.466,0.04,0.722,0.411,0.387,0.215,0.12,NaN,NaN,NaN,NaN,NaN,NaN,NaN,NaN,2.178e-4,16.5,213.825,84,0,2.019,15,1013.244,340.389,0.01,0.023
0.74,0.068,1.978,37.595,1.989,37.802,0.007,0,0.007,0,0.208,3.951,22.175,120.893,9.788,42.136,0,0,0,2.777e4,1.329e4,21.679,0.098,NaN,201.5,NaN,0.009,5.811e5,1320.018,0.061,0.715,0.533,0.38,0.215,0.12,NaN,NaN,NaN,NaN,NaN,NaN,NaN,NaN,2.689e-4,16.5,213.825,84,0,2,15,1013.242,340.389,0.01,0.023
0.75,0.09,2.384,40.568,2.397,40.792,0.009,0,0.009,0,0.251,4.264,22.175,120.893,9.788,37.098,0,0,0,2.774e4,1.327e4,21.669,0.098,NaN,201.445,NaN,0.01,6.4e5,1401.763,0.089,0.707,0.639,0.372,0.215,0.12,NaN,NaN,NaN,NaN,NaN,NaN,NaN,NaN,3.24e-4,16.5,213.825,84,0,1.98,14.999,1013.239,340.389,0.01,0.023
0.76,0.116,2.813,42.929,2.828,43.166,0.012,0,0.012,0,0.296,4.512,22.175,120.893,9.788,33.107,0,0,0,2.771e4,1.324e4,21.659,0.098,NaN,201.387,NaN,0.011,7.106e5,1466.216,0.123,0.699,0.715,0.364,0.215,0.12,NaN,NaN,NaN,NaN,NaN,NaN,NaN,NaN,3.823e-4,16.5,213.825,84,0,1.991,14.999,1013.236,340.388,0.01,0.024
0.77,0.146,3.26,44.718,3.278,44.965,0.015,0,0.015,0,0.343,4.7,22.175,120.893,9.788,29.722,0,0,0,2.769e4,1.321e4,21.648,0.098,NaN,201.327,NaN,0.012,7.871e5,1514.584,0.163,0.692,0.771,0.357,0.215,0.12,NaN,NaN,NaN,NaN,NaN,NaN,NaN,NaN,4.43e-4,16.5,213.825,84,0,2.002,14.999,1013.233,340.388,0.01,0.024
0.78,0.181,3.717,45.791,3.738,46.043,0.019,0,0.019,0,0.391,4.813,22.175,120.893,9.788,26.882,0,0,0,2.766e4,1.318e4,21.637,0.098,NaN,201.266,NaN,0.013,8.678e5,1542.902,0.208,0.685,0.809,0.35,0.215,0.12,NaN,NaN,NaN,NaN,NaN,NaN,NaN,NaN,5.052e-4,16.5,213.825,84,0,2.012,14.999,1013.229,340.388,0.01,0.024
0.79,0.221,4.181,46.376,4.204,46.632,0.023,0,0.023,0,0.439,4.874,22.175,120.893,9.788,24.5,0,0,0,2.763e4,1.315e4,21.626,0.098,NaN,201.204,NaN,0.014,9.512e5,1557.611,0.257,0.678,0.833,0.343,0.215,0.12,NaN,NaN,NaN,NaN,NaN,NaN,NaN,NaN,5.682e-4,16.5,213.825,84,0,2.023,14.999,1013.224,340.388,0.01,0.024
0.8,0.265,4.646,46.602,4.672,46.859,0.028,0,0.028,0,0.488,4.898,22.175,120.893,9.788,22.497,0,0,0,2.76e4,1.312e4,21.615,0.098,NaN,201.142,NaN,0.016,1.036e6,1562.308,0.31,0.673,0.848,0.338,0.215,0.12,NaN,NaN,NaN,NaN,NaN,NaN,NaN,NaN,6.316e-4,16.5,213.825,84,0,2.034,14.998,1013.219,340.388,0.01,0.025
0.81,0.314,5.112,46.577,5.14,46.834,0.033,0,0.033,0,0.537,4.895,22.175,120.893,9.788,20.671,0,0,0,2.757e4,1.31e4,21.604,0.098,NaN,201.08,NaN,0.017,1.121e6,1560.041,0.367,0.667,0.855,0.332,0.215,0.12,NaN,NaN,NaN,NaN,NaN,NaN,NaN,NaN,6.948e-4,16.5,213.825,84,0,2.031,14.998,1013.213,340.388,0.01,0.025
0.82,0.367,5.577,46.506,5.607,46.762,0.039,0,0.039,0,0.586,4.888,22.175,120.893,9.788,19.107,0,0,0,2.754e4,1.307e4,21.593,0.098,NaN,201.018,NaN,0.018,1.207e6,1556.501,0.426,0.663,0.857,0.328,0.215,0.12,NaN,NaN,NaN,NaN,NaN,NaN,NaN,NaN,7.58e-4,16.5,213.825,84,0,2.027,14.998,1013.207,340.387,0.01,0.025
0.83,0.425,6.04,46.326,6.073,46.581,0.045,0,0.045,0,0.635,4.869,22.175,120.893,9.788,17.755,0,0,0,2.751e4,1.304e4,21.582,0.098,NaN,200.956,NaN,0.019,1.294e6,1549.967,0.488,0.658,0.855,0.323,0.215,0.12,NaN,NaN,NaN,NaN,NaN,NaN,NaN,NaN,8.209e-4,16.5,213.825,84,0,2.023,14.997,1013.2,340.387,0.01,0.025
0.84,0.488,6.502,46.262,6.538,46.516,0.051,0,0.051,0,0.683,4.862,22.175,120.893,9.788,16.575,0,0,0,2.749e4,1.301e4,21.571,0.098,NaN,200.895,NaN,0.021,1.38e6,1546.637,0.552,0.654,0.85,0.319,0.215,0.12,NaN,NaN,NaN,NaN,NaN,NaN,NaN,NaN,8.838e-4,16.5,213.825,84,0,2.02,14.997,1013.193,340.387,0.01,0.025
0.85,0.555,6.964,46.24,7.002,46.495,0.058,0,0.058,0,0.732,4.86,22.175,120.893,9.788,15.536,0,0,0,2.746e4,1.298e4,21.56,0.098,NaN,200.833,NaN,0.022,1.468e6,1544.509,0.618,0.651,0.842,0.315,0.215,0.12,NaN,NaN,NaN,NaN,NaN,NaN,NaN,NaN,9.466e-4,16.5,213.825,84,0,2.016,14.996,1013.185,340.387,0.01,0.026
0.86,0.627,7.427,46.361,7.468,46.616,0.066,0,0.066,0,0.781,4.873,22.175,120.893,9.788,14.678,0,0,0,2.743e4,1.295e4,21.549,0.098,NaN,200.771,NaN,0.023,1.556e6,1546.294,0.686,0.647,0.831,0.312,0.215,0.12,NaN,NaN,NaN,NaN,NaN,NaN,NaN,NaN,0.001,16.5,213.825,84,0,2.023,14.996,1013.176,340.386,0.01,0.026
0.87,0.704,7.893,46.555,7.936,46.811,0.074,0,0.074,0,0.83,4.893,22.175,120.893,9.788,13.909,0,0,0,2.74e4,1.292e4,21.538,0.098,NaN,200.708,NaN,0.025,1.646e6,1550.1,0.757,0.644,0.82,0.309,0.215,0.12,NaN,NaN,NaN,NaN,NaN,NaN,NaN,NaN,0.001,16.5,213.825,84,0,2.029,14.995,1013.167,340.386,0.01,0.026
0.88,0.785,8.36,46.748,8.406,47.006,0.083,0,0.083,0,0.879,4.913,22.175,120.893,9.788,13.217,0,0,0,2.737e4,1.29e4,21.527,0.098,NaN,200.645,NaN,0.026,1.736e6,1553.871,0.83,0.641,0.809,0.306,0.215,0.12,NaN,NaN,NaN,NaN,NaN,NaN,NaN,NaN,0.001,16.5,213.825,84,0,2.035,14.995,1013.158,340.386,0.01,0.026
0.89,0.871,8.829,46.951,8.878,47.209,0.092,0,0.092,0,0.928,4.935,22.175,120.893,9.788,12.59,0,0,0,2.734e4,1.287e4,21.516,0.098,NaN,200.582,NaN,0.027,1.826e6,1557.877,0.906,0.638,0.797,0.303,0.215,0.12,NaN,NaN,NaN,NaN,NaN,NaN,NaN,NaN,0.001,16.5,213.825,84,0,2.042,14.994,1013.148,340.385,0.01,0.026
0.9,0.962,9.3,47.126,9.351,47.385,0.101,0,0.101,0,0.977,4.953,22.175,120.893,9.788,12.021,0,0,0,2.731e4,1.284e4,21.505,0.098,NaN,200.519,NaN,0.029,1.917e6,1561.121,0.985,0.635,0.786,0.3,0.215,0.12,NaN,NaN,NaN,NaN,NaN,NaN,NaN,NaN,0.001,16.5,213.825,84,0,2.048,14.994,1013.137,340.385,0.01,0.027
0.91,1.057,9.773,47.299,9.827,47.56,0.111,0,0.111,0,1.027,4.971,22.175,120.893,9.788,11.464,0,0,0,2.728e4,1.281e4,21.493,0.098,NaN,200.456,NaN,0.03,2.008e6,1564.323,1.065,0.633,0.775,0.297,0.215,0.12,NaN,NaN,NaN,NaN,NaN,NaN,NaN,NaN,0.001,16.5,213.825,84,0,2.047,14.993,1013.126,340.385,0.01,0.027
0.925,1.209,10.482,47.326,10.541,47.685,0.127,6.539e-9,0.127,2.947e-6,1.115,5.84,22.175,120.893,9.788,10.782,0,0.011,-1.922e-6,2.724e4,1.277e4,21.476,0.098,207.384,200.36,0.426,0.032,2.146e6,1565.157,1.194,0.629,0.76,0.294,0.215,0.12,2.78,1.184,-4.458e-4,0,0,0,0,1.185e-6,0.001,16.5,213.825,84,1.577e-8,2.046,14.992,1013.108,340.384,0.015,0.027
0.948,1.457,11.55,47.54,11.617,47.899,0.154,4.254e-8,0.154,1.586e-5,1.246,5.85,22.175,120.893,9.788,9.905,0,0.032,3.463e-6,2.718e4,1.27e4,21.451,0.097,208.606,200.216,0.508,0.035,2.354e6,1567.44,1.399,0.624,0.741,0.289,0.215,0.12,2.496,1.269,-2.539e-4,0,0,0,0,8.256e-6,0.002,16.5,213.825,83.999,3.599e-8,2.045,14.991,1013.079,340.383,0.023,0.027
0.981,1.874,13.18,48.43,13.259,48.791,0.199,1.626e-7,0.199,4.678e-5,1.446,5.929,22.175,120.893,9.788,8.678,0,0.074,-5.31e-6,2.708e4,1.26e4,21.412,0.097,210.43,199.996,0.632,0.04,2.671e6,1586.273,1.749,0.623,0.719,0.288,0.215,0.12,2.114,1.337,-1.629e-4,0,0,0,0,3.413e-5,0.002,16.5,213.825,83.998,-6.88e-7,2.007,14.988,1013.03,340.382,0.034,0.028
1.031,2.595,15.663,49.844,15.761,50.212,0.279,5.098e-7,0.279,1.047e-4,1.749,6.063,22.175,120.893,9.788,7.157,0,0.16,-2.202e-5,2.693e4,1.245e4,21.353,0.097,212.895,199.66,0.802,0.047,3.153e6,1616.404,2.354,0.623,0.695,0.288,0.215,0.12,1.67,1.34,-6.705e-5,0,0,0,0,1.145e-4,0.002,16.5,213.825,83.992,-6.643e-8,1.915,14.983,1012.946,340.379,0.05,0.028
1.081,3.441,18.194,50.761,18.309,51.133,0.374,1.095e-6,0.374,1.677e-4,2.056,6.161,22.175,120.893,9.788,5.797,0,0.275,1.579e-5,2.678e4,1.23e4,21.292,0.097,215.317,199.318,0.97,0.055,3.643e6,1632.74,3.048,0.623,0.674,0.288,0.215,0.12,1.298,1.259,-1.793e-4,0,0,0,0,2.514e-4,0.002,16.5,213.825,83.981,1.867e-6,1.75,14.978,1012.846,340.375,0.05,0.028
1.131,4.416,20.782,51.935,20.917,52.313,0.485,1.96e-6,0.485,2.317e-4,2.369,6.279,22.175,120.893,9.788,5.052,0,0.413,-1.71e-6,2.662e4,1.215e4,21.23,0.097,216.741,198.966,1.077,0.062,4.15e6,1655.692,3.894,0.623,0.663,0.288,0.215,0.121,1.106,1.191,-3.266e-4,0,0,0,0,4.384e-4,0.003,16.5,213.825,83.964,7.296e-6,1.704,14.971,1012.732,340.372,0.05,0.028
1.181,5.521,23.416,52.835,23.569,53.216,0.611,3.147e-6,0.611,2.95e-4,2.687,6.361,22.175,120.893,9.788,4.663,0,0.587,4.88e-5,2.647e4,1.199e4,21.166,0.096,217.518,198.607,1.146,0.07,4.67e6,1671.028,4.893,0.624,0.658,0.288,0.215,0.121,1.008,1.154,-1.088e-4,0,0,0,0,6.99e-4,0.003,16.5,213.825,83.939,1.487e-5,1.748,14.964,1012.603,340.367,0.05,0.028
1.231,6.759,26.109,54.036,26.282,54.423,0.754,4.699e-6,0.754,3.573e-4,3.01,6.473,22.175,120.893,9.788,4.474,0,0.8,3.057e-7,2.631e4,1.184e4,21.101,0.096,217.906,198.239,1.192,0.078,5.204e6,1694.094,6.056,0.624,0.656,0.288,0.216,0.121,0.961,1.145,4.409e-4,0,0,0,0,0.001,0.004,16.5,213.825,83.905,2.973e-5,1.862,14.956,1012.457,340.362,0.05,0.029
1.281,8.133,28.858,55.138,29.05,55.532,0.912,6.661e-6,0.912,4.184e-4,3.339,6.603,22.175,120.893,9.788,4.13,0,1.061,-6.535e-5,2.616e4,1.168e4,21.035,0.096,218.62,197.862,1.258,0.086,5.746e6,1714.222,7.338,0.624,0.652,0.288,0.216,0.121,0.878,1.103,3.089e-4,0,0,0,0,0.002,0.004,16.5,213.825,83.858,5.511e-5,1.891,14.947,1012.296,340.357,0.05,0.029
1.331,9.645,31.649,56.002,31.862,56.405,1.088,9.08e-6,1.088,4.784e-4,3.673,6.731,22.175,120.893,9.788,3.775,0,1.358,7.796e-5,2.6e4,1.152e4,20.967,0.096,219.377,197.478,1.327,0.094,6.295e6,1727.906,8.756,0.624,0.648,0.287,0.216,0.121,0.793,1.051,-7.047e-5,0,0,0,0,0.002,0.004,16.5,213.825,83.798,6.327e-5,1.894,14.937,1012.119,340.351,0.05,0.029
1.381,11.299,34.486,56.916,34.719,57.33,1.28,1.2e-5,1.28,5.374e-4,4.015,6.876,22.175,120.893,9.788,3.527,0,1.701,-8.936e-5,2.583e4,1.136e4,20.898,0.095,219.919,197.085,1.384,0.103,6.855e6,1742.723,10.344,0.625,0.646,0.287,0.216,0.121,0.735,1.014,-2.969e-4,0,0,0,0,0.003,0.005,16.5,213.825,83.722,9.148e-5,1.945,14.927,1011.925,340.344,0.05,0.029
1.431,13.095,37.388,58.205,37.642,58.636,1.489,1.547e-5,1.489,5.954e-4,4.367,7.096,22.175,120.893,9.788,3.243,2.882e-7,2.093,1.293e-4,2.567e4,1.12e4,20.827,0.095,220.552,196.682,1.447,0.111,7.427e6,1767.008,12.092,0.625,0.643,0.287,0.216,0.122,0.67,0.965,-3.441e-5,0,0,0,0,0.004,0.005,16.5,213.825,83.627,1.263e-4,1.968,14.915,1011.714,340.337,0.05,0.03
1.481,15.039,40.345,59.324,40.621,59.776,1.717,1.955e-5,1.717,6.527e-4,4.729,7.342,22.175,120.893,9.788,2.907,0,2.524,1.687e-5,2.551e4,1.103e4,20.755,0.095,221.316,196.269,1.518,0.12,8.008e6,1786.669,13.996,0.625,0.64,0.287,0.216,0.122,0.593,0.897,2.502e-5,0,0,0,0,0.004,0.005,16.5,213.825,83.512,1.375e-4,1.946,14.902,1011.486,340.33,0.05,0.03
1.531,17.131,43.371,60.693,43.67,61.178,1.962,2.429e-5,1.962,7.09e-4,5.108,7.689,22.175,120.893,9.788,2.443,0,2.98,1.548e-4,2.534e4,1.086e4,20.68,0.095,222.399,195.845,1.609,0.129,8.599e6,1812.535,16.049,0.626,0.636,0.287,0.216,0.122,0.491,0.785,1.261e-4,0,0,0,0,0.005,0.006,16.5,213.825,83.374,1.524e-4,1.815,14.889,1011.241,340.321,0.05,0.03
1.581,19.378,46.476,62.304,46.801,62.826,2.228,2.972e-5,2.228,7.643e-4,5.506,8.082,22.175,120.893,9.788,2.128,0,3.428,5.006e-5,2.517e4,1.069e4,20.603,0.094,223.159,195.407,1.682,0.138,9.21e6,1844.161,18.353,0.626,0.634,0.287,0.217,0.122,0.423,0.705,4.573e-4,0,0,0,0,0.006,0.006,16.5,213.825,83.214,1.639e-4,1.783,14.874,1010.977,340.313,0.05,0.03
1.631,21.781,49.677,64.201,50.029,64.764,2.513,3.59e-5,2.513,8.183e-4,5.925,8.519,22.175,120.893,9.788,1.969,1.05e-6,3.917,4.331e-4,2.499e4,1.052e4,20.524,0.094,223.557,194.954,1.733,0.148,9.843e6,1882.472,20.945,0.627,0.634,0.287,0.217,0.123,0.389,0.668,-4.357e-4,0,0,0,0,0.007,0.007,16.5,213.825,83.031,2.095e-4,1.888,14.858,1010.695,340.303,0.05,0.03
1.681,24.347,52.95,65.655,53.331,66.269,2.821,4.29e-5,2.821,8.714e-4,6.366,9.002,22.175,120.893,9.788,1.654,0,4.438,5.874e-4,2.482e4,1.034e4,20.442,0.094,224.346,194.488,1.81,0.157,1.049e7,1909.35,23.722,0.627,0.632,0.287,0.217,0.123,0.324,0.577,-2.194e-4,0,0,0,0,0.008,0.007,16.5,213.825,82.822,1.892e-4,1.862,14.842,1010.395,340.293,0.05,0.031
1.731,27.077,56.26,66.39,56.673,67.063,3.15,5.076e-5,3.15,9.231e-4,6.829,9.476,22.175,120.893,9.788,1.274,-7.248e-7,4.91,3.092e-4,2.464e4,1.016e4,20.359,0.094,225.32,194.014,1.897,0.167,1.113e7,1918.283,26.692,0.628,0.631,0.287,0.217,0.124,0.246,0.458,-4.575e-4,0,0,0,0,0.009,0.008,16.5,213.825,82.588,1.503e-4,1.766,14.824,1010.074,340.282,0.05,0.031
1.781,29.974,59.605,67.093,60.053,67.831,3.504,5.949e-5,3.504,9.727e-4,7.316,9.981,22.175,120.893,9.788,0.969,1.773e-6,5.33,0.001,2.446e4,9987.04,20.275,0.093,226.126,193.53,1.976,0.177,1.179e7,1926.46,29.915,0.628,0.63,0.287,0.217,0.124,0.185,0.356,-3.028e-4,0,0,0,0,0.009,0.008,16.5,213.825,82.332,1.262e-4,1.737,14.805,1009.735,340.271,0.05,0.031
1.831,33.037,62.925,66.561,63.409,67.362,3.882,6.914e-5,3.882,0.001,7.822,10.356,22.175,120.893,9.788,0.697,-1.363e-6,5.693,8.632e-4,2.429e4,9811.118,20.19,0.093,226.864,193.045,2.05,0.187,1.245e7,1904.644,33.32,0.629,0.63,0.287,0.218,0.125,0.132,0.261,1.715e-4,0,0,0,0,0.009,0.009,16.5,213.825,82.056,1.271e-4,1.74,14.785,1009.375,340.259,0.05,0.031
1.881,36.263,66.12,64.049,66.643,64.902,4.286,7.977e-5,4.286,0.001,8.332,10.482,22.175,120.893,9.788,0.427,8.954e-7,5.968,0.002,2.412e4,9641.582,20.107,0.093,227.609,192.571,2.123,0.197,1.308e7,1835.474,36.788,0.63,0.63,0.287,0.218,0.125,0.08,0.161,-3.885e-4,0,0,0,0,0.009,0.009,16.5,213.825,81.764,1.788e-4,1.741,14.764,1008.997,340.246,0.05,0.032
1.931,39.648,69.298,63.714,69.863,64.647,4.716,9.143e-5,4.716,0.001,8.866,10.949,22.175,120.893,9.788,0.154,0,6.123,0.007,2.395e4,9473.455,20.024,0.093,228.38,192.094,2.199,0.206,1.37e7,1820.229,40.427,0.63,0.63,0.287,0.218,0.126,0.029,0.054,-1.425e-4,0,0,0,0,0.009,0.009,16.5,213.825,81.461,1.815e-4,1.728,14.742,1008.6,340.233,0.05,0.032
1.981,43.195,72.575,65.688,73.187,66.743,5.173,1.042e-4,5.173,0.001,9.441,11.823,22.175,120.893,9.788,0.158,-2.34e-6,-6.114,0.008,2.378e4,9301.568,19.938,0.092,228.39,191.6,2.23,0.216,1.435e7,1860.956,44.377,0.631,0.631,0.286,0.219,0.126,0.029,0.074,3.682e-4,0,0,0,0,-0.008,0.01,16.5,213.825,81.155,1.551e-4,1.647,14.719,1008.184,340.219,0.05,0.032
2.031,46.908,75.947,67.59,76.611,68.775,5.661,1.181e-4,5.661,0.001,10.061,12.711,22.175,120.893,9.788,0.428,1.059e-6,-5.873,0.002,2.36e4,9126.117,19.849,0.092,227.672,191.087,2.217,0.226,1.501e7,1899.496,48.672,0.632,0.632,0.286,0.219,0.127,0.08,0.185,-4.433e-5,0,0,0,0,-0.007,0.01,16.5,213.825,80.854,1.151e-4,1.584,14.695,1007.748,340.204,0.05,0.032
2.081,50.792,79.423,69.679,80.144,70.994,6.18,1.331e-4,6.18,0.001,10.726,13.598,22.175,120.893,9.788,0.599,0,-5.439,0.002,2.342e4,8946.761,19.757,0.092,227.235,190.556,2.223,0.236,1.57e7,1941.791,53.343,0.633,0.633,0.286,0.219,0.127,0.113,0.257,4.466e-4,0,0,0,0,-0.005,0.011,16.5,213.825,80.571,1.873e-4,1.611,14.67,1007.293,340.189,0.05,0.033
2.131,54.851,82.93,70.316,83.713,71.728,6.734,1.494e-4,6.734,0.001,11.422,14.161,22.175,120.893,9.788,0.657,-1.909e-6,-4.854,0.002,2.324e4,8766.738,19.663,0.092,227.105,190.014,2.248,0.247,1.639e7,1949.047,58.297,0.634,0.635,0.286,0.22,0.128,0.125,0.283,1.308e-4,0,0,0,0,-0.004,0.011,16.5,213.825,80.313,2.228e-4,1.756,14.643,1006.817,340.173,0.05,0.033
2.181,59.085,86.435,70.252,87.283,71.747,7.323,1.67e-4,7.323,0.001,12.139,14.569,22.175,120.893,9.788,0.71,1.06e-6,-4.187,0.001,2.306e4,8587.562,19.568,0.091,226.994,189.467,2.274,0.257,1.709e7,1939.854,63.474,0.635,0.636,0.286,0.22,0.129,0.135,0.309,1.125e-4,0,0,0,0,-0.003,0.012,16.5,213.825,80.087,3.397e-4,1.866,14.616,1006.32,340.156,0.05,0.033
2.231,63.495,89.968,70.82,90.885,72.402,7.948,1.862e-4,7.948,0.001,12.881,15.051,22.175,120.893,9.788,0.768,-2.769e-6,-3.367,0.002,2.288e4,8407.87,19.471,0.091,226.869,188.909,2.301,0.268,1.779e7,1945.437,68.917,0.636,0.637,0.286,0.221,0.129,0.146,0.338,-7.465e-5,0,0,0,0,-0.002,0.012,16.5,213.825,79.898,5.407e-4,1.908,14.587,1005.803,340.139,0.05,0.033
2.281,68.083,93.541,71.63,94.531,73.295,8.611,2.071e-4,8.611,0.001,13.647,15.534,22.175,120.893,9.787,0.829,-3.899e-7,-2.406,0.002,2.27e4,8227.163,19.372,0.091,226.738,188.339,2.327,0.279,1.849e7,1956.429,74.649,0.637,0.638,0.286,0.221,0.13,0.158,0.369,2.7e-5,0,0,0,0,-7.411e-4,0.013,16.5,213.825,79.753,8.762e-4,1.868,14.557,1005.265,340.121,0.05,0.033
2.331,72.849,97.113,71.614,98.179,73.325,9.313,2.302e-4,9.313,0.001,14.429,15.749,22.175,120.893,9.787,0.838,6.315e-7,-1.277,2.028e-4,2.252e4,8047.232,19.272,0.091,226.746,187.762,2.363,0.29,1.92e7,1948.014,80.603,0.638,0.639,0.285,0.222,0.131,0.16,0.379,3.404e-5,0,0,0,0,-1.936e-4,0.013,16.5,213.825,79.661,0.001,1.823,14.526,1004.706,340.102,0.05,0.034
2.381,77.795,100.718,72.308,101.862,74.034,10.055,2.559e-4,10.055,0.001,15.222,15.892,22.175,120.893,9.787,0.746,0,-0.096,0.002,2.234e4,7866.644,19.171,0.09,227.025,187.175,2.415,0.3,1.991e7,1955.138,86.843,0.639,0.64,0.285,0.222,0.132,0.142,0.344,-1.876e-4,0,0,0,0,-1.027e-6,0.014,16.5,213.825,79.627,0.002,1.863,14.494,1004.126,340.082,0.05,0.034
2.431,82.922,104.374,73.327,105.596,75.035,10.836,2.847e-4,10.836,0.002,16.021,15.919,22.175,120.893,9.787,0.593,-3.496e-7,0.981,0.002,2.216e4,7684.795,19.067,0.09,227.468,186.573,2.478,0.311,2.063e7,1968.808,93.409,0.64,0.641,0.285,0.223,0.133,0.113,0.278,-2.142e-4,0,0,0,0,9.879e-5,0.014,16.5,213.825,79.65,0.002,1.928,14.461,1003.525,340.062,0.05,0.034
2.481,88.233,108.089,74.522,109.39,76.187,11.657,3.173e-4,11.657,0.002,16.819,15.843,22.175,120.893,9.787,0.417,5.989e-7,1.882,0.002,2.198e4,7501.381,18.96,0.09,227.981,185.956,2.547,0.323,2.137e7,1985.734,100.335,0.641,0.642,0.285,0.223,0.134,0.079,0.2,7.503e-5,0,0,0,0,3.387e-4,0.015,16.5,213.825,79.723,0.003,1.97,14.426,1002.902,340.041,0.05,0.034
2.531,93.731,111.838,75.222,113.216,76.81,12.517,3.544e-4,12.517,0.002,17.605,15.539,22.175,120.893,9.787,0.211,-3.334e-7,2.506,0.002,2.179e4,7317.476,18.852,0.089,228.585,185.327,2.622,0.334,2.21e7,1991.05,107.604,0.643,0.643,0.285,0.224,0.134,0.04,0.103,3.326e-4,0,0,0,0,5.605e-4,0.015,16.5,213.825,79.834,0.003,2.027,14.391,1002.257,340.02,0.05,0.035
2.581,99.417,115.608,75.605,117.058,77.115,13.417,3.962e-4,13.417,0.002,18.372,15.186,22.175,120.893,9.787,0.058,3.973e-6,2.745,0.006,2.161e4,7133.711,18.741,0.089,229.05,184.688,2.689,0.345,2.284e7,1989.537,115.164,0.644,0.644,0.284,0.224,0.135,0.011,0.028,3.849e-4,0,0,0,0,6.296e-4,0.016,16.5,213.825,79.967,0.003,1.965,14.354,1001.59,339.997,0.05,0.035
2.631,105.292,119.38,75.672,120.901,77.077,14.354,4.432e-4,14.354,0.002,19.117,14.649,22.175,120.893,9.787,0.145,3.51e-6,-2.715,7.65e-6,2.143e4,6950.733,18.63,0.089,228.851,184.04,2.716,0.357,2.358e7,1981.005,123.061,0.646,0.646,0.284,0.225,0.137,0.027,0.074,4.542e-5,0,0,0,0,-5.772e-4,0.016,16.5,213.825,80.105,0.003,2.021,14.316,1000.901,339.974,0.05,0.035
2.681,111.355,123.153,75.681,124.74,76.994,15.328,4.953e-4,15.328,0.002,19.834,14.158,22.175,120.893,9.787,0.303,-4.879e-7,-2.053,0.001,2.124e4,6768.605,18.517,0.089,228.459,183.385,2.732,0.368,2.432e7,1971.826,131.249,0.647,0.647,0.284,0.226,0.138,0.057,0.156,-2.871e-4,0,0,0,0,-3.1e-4,0.017,16.5,213.825,80.226,0.003,2.059,14.276,1000.19,339.95,0.05,0.035
2.731,117.607,126.918,75.477,128.567,76.729,16.337,5.523e-4,16.337,0.002,20.529,13.803,22.175,120.893,9.787,0.381,-3.932e-7,-1.11,0.002,2.106e4,6587.653,18.403,0.088,228.291,182.722,2.762,0.379,2.505e7,1959.073,139.659,0.649,0.649,0.284,0.226,0.139,0.072,0.199,-3.83e-4,0,0,0,0,-8.542e-5,0.017,16.5,213.825,80.306,0.003,2.025,14.236,999.457,339.926,0.05,0.035
2.781,124.047,130.679,75.408,132.39,76.62,17.381,6.134e-4,17.381,0.002,21.212,13.576,22.175,120.893,9.787,0.44,5.112e-7,0.11,6.111e-4,2.088e4,6407.538,18.288,0.088,228.18,182.051,2.796,0.391,2.578e7,1950.026,148.379,0.65,0.651,0.283,0.227,0.14,0.083,0.233,-1.752e-4,0,0,0,0,7.971e-7,0.018,16.5,213.825,80.331,0.002,2.088,14.194,998.701,339.9,0.05,0.035
2.831,130.674,134.402,74.593,136.172,75.809,18.458,6.78e-4,18.458,0.002,21.882,13.521,22.175,120.893,9.787,0.403,0,1.559,2.04e-4,2.071e4,6229.576,18.172,0.088,228.326,181.377,2.845,0.402,2.65e7,1926.697,157.231,0.652,0.652,0.283,0.228,0.141,0.077,0.218,3.721e-4,0,0,0,0,1.502e-4,0.018,16.5,213.825,80.289,0.002,2.097,14.151,997.924,339.874,0.05,0.036
2.881,137.484,138.006,72.164,139.836,73.43,19.569,7.459e-4,19.569,0.002,22.547,13.577,22.175,120.893,9.787,0.249,-2.561e-6,2.734,-0.001,2.053e4,6056.698,18.058,0.088,228.796,180.711,2.914,0.412,2.719e7,1871.671,165.97,0.653,0.653,0.283,0.228,0.142,0.047,0.137,1.32e-4,0,0,0,0,4.38e-4,0.019,16.5,213.825,80.179,0.002,1.958,14.106,997.125,339.847,0.05,0.036
2.931,144.472,141.501,69.971,143.394,71.319,20.713,8.174e-4,20.713,0.002,23.222,13.802,22.175,120.893,9.787,0.081,9.946e-7,3.3,0.003,2.036e4,5888.294,17.945,0.087,229.305,180.051,2.985,0.423,2.787e7,1823.229,174.742,0.655,0.655,0.283,0.229,0.143,0.015,0.045,2.843e-4,0,0,0,0,6.068e-4,0.019,16.5,213.825,80.025,0.003,1.865,14.061,996.306,339.82,0.05,0.036
2.981,151.631,144.89,67.828,146.85,69.267,21.891,8.933e-4,21.891,0.002,23.909,14.045,22.175,120.893,9.787,0.068,-7.072e-6,-3.333,0.007,2.02e4,5724.161,17.833,0.087,229.388,179.397,3.03,0.433,2.852e7,1776.994,183.549,0.656,0.656,0.282,0.23,0.144,0.013,0.04,4.995e-4,0,0,0,0,-5.903e-4,0.02,16.5,213.825,79.856,0.004,1.83,14.014,995.466,339.792,0.05,0.036
3.031,158.957,148.13,64.824,150.159,66.342,23.103,9.746e-4,23.103,0.002,24.599,14.112,22.175,120.893,9.787,0.207,7.778e-7,-2.725,-2.478e-4,2.004e4,5565.832,17.723,0.087,229.052,178.757,3.048,0.443,2.914e7,1714.157,192.205,0.658,0.658,0.282,0.23,0.145,0.039,0.12,1.999e-4,0,0,0,0,-3.777e-4,0.02,16.5,213.825,79.702,0.004,1.755,13.967,994.607,339.763,0.05,0.036
3.081,166.44,151.194,61.304,153.294,62.855,24.35,0.001,24.35,0.002,25.285,13.876,22.175,120.893,9.787,0.286,0,-1.533,0.003,1.989e4,5414.226,17.616,0.087,228.879,178.134,3.075,0.452,2.973e7,1641.368,200.607,0.659,0.66,0.282,0.231,0.147,0.054,0.168,-4.886e-4,0,0,0,0,-1.147e-4,0.021,16.5,213.825,79.595,0.004,1.69,13.918,993.729,339.733,0.05,0.036
3.131,174.071,154.058,57.322,156.227,58.828,25.631,0.001,25.631,0.003,25.946,13.227,22.175,120.893,9.787,0.284,-9.415e-7,-0.103,0.003,1.975e4,5270.198,17.514,0.086,228.928,177.533,3.115,0.461,3.028e7,1559.33,208.635,0.661,0.661,0.282,0.232,0.148,0.054,0.168,-2.306e-4,0,0,0,0,-4.986e-7,0.021,16.5,213.825,79.555,0.005,1.662,13.869,992.834,339.703,0.05,0.037
3.181,181.839,156.639,51.662,158.873,53.036,26.944,0.001,26.944,0.003,26.551,11.994,22.175,120.893,9.787,0.225,0,1.214,-7.448e-4,1.961e4,5136.823,17.417,0.086,229.131,176.969,3.161,0.469,3.077e7,1443.981,215.972,0.662,0.662,0.281,0.232,0.149,0.043,0.135,-3.076e-4,0,0,0,0,6.699e-5,0.022,16.5,213.825,79.585,0.005,1.606,13.818,991.923,339.673,0.05,0.037
3.231,189.726,158.858,44.445,161.149,45.587,28.284,0.001,28.284,0.003,27.072,10.143,22.175,120.893,9.787,0.085,-5.944e-6,2.136,8.032e-5,1.949e4,5016.93,17.33,0.086,229.551,176.455,3.218,0.475,3.119e7,1298.007,222.4,0.663,0.663,0.281,0.233,0.149,0.016,0.051,-4.148e-4,0,0,0,0,2.015e-4,0.022,16.5,213.825,79.673,0.005,1.635,13.767,990.998,339.642,0.05,0.037
3.281,197.715,160.706,36.996,163.041,37.886,29.649,0.001,29.649,0.003,27.494,8.164,22.175,120.893,9.787,0.073,5.612e-6,-2.118,-0.004,1.939e4,4910.835,17.251,0.086,229.613,175.995,3.25,0.481,3.154e7,1148.651,227.836,0.664,0.664,0.281,0.233,0.15,0.014,0.045,1.872e-4,0,0,0,0,-1.935e-4,0.022,16.5,213.825,79.784,0.004,1.691,13.715,990.061,339.61,0.05,0.037
3.331,205.786,162.14,28.674,164.508,29.344,31.031,0.002,31.031,0.003,27.815,6.238,22.175,120.893,9.787,0.176,1.428e-6,-1.33,0.001,1.93e4,4819.954,17.183,0.086,229.353,175.597,3.258,0.485,3.18e7,983.929,232.04,0.665,0.665,0.281,0.234,0.151,0.033,0.109,2.684e-5,0,0,0,0,-7.491e-5,0.022,16.5,213.825,79.873,0.003,1.669,13.662,989.115,339.578,0.05,0.037
3.381,213.918,163.142,20.029,165.534,20.536,32.428,0.002,32.428,0.003,28.044,4.537,22.175,120.893,9.787,0.211,0,-0.15,0.003,1.922e4,4744.715,17.127,0.086,229.273,175.265,3.273,0.488,3.198e7,814.576,234.927,0.666,0.666,0.281,0.234,0.151,0.04,0.131,3.968e-4,0,0,0,0,-9.387e-7,0.022,16.5,213.825,79.911,0.003,1.611,13.61,988.161,339.546,0.05,0.038
3.431,222.091,163.774,12.637,166.186,13.059,33.834,0.002,33.834,0.003,28.206,3.296,22.175,120.893,9.787,0.191,2.77e-6,1.097,0.004,1.916e4,4682.75,17.08,0.086,229.338,174.989,3.294,0.49,3.208e7,670.862,236.69,0.666,0.666,0.281,0.234,0.151,0.036,0.119,3.133e-4,0,0,0,0,4.995e-5,0.022,16.5,213.825,79.885,0.003,1.576,13.556,987.202,339.514,0.05,0.038
3.481,230.287,164.061,5.713,166.487,6.156,35.247,0.002,35.247,0.003,28.315,2.294,22.175,120.893,9.787,0.131,-5.015e-6,2.098,-0.003,1.911e4,4633.166,17.042,0.085,229.507,174.767,3.318,0.491,3.212e7,536.827,237.411,0.666,0.666,0.281,0.234,0.151,0.025,0.083,7.137e-5,0,0,0,0,1.822e-4,0.023,16.5,213.825,79.802,0.004,1.585,13.503,986.241,339.482,0.05,0.038
3.531,238.489,164.016,-0.929,166.453,1.741,36.664,0.002,36.664,0.003,28.379,1.472,22.175,120.893,9.787,0.033,-4.096e-6,2.643,-0.007,1.907e4,4595.435,17.013,0.085,229.779,174.598,3.344,0.491,3.209e7,408.489,237.112,0.666,0.666,0.281,0.234,0.151,0.006,0.02,2.619e-4,0,0,0,0,2.892e-4,0.023,16.5,213.825,79.679,0.005,1.582,13.45,985.279,339.449,0.05,0.038
3.581,246.682,163.72,-5.919,166.168,5.998,38.084,0.002,38.084,0.003,28.418,0.969,22.175,120.893,9.787,0.077,-1.834e-6,-2.495,-0.004,1.904e4,4566.618,16.991,0.085,229.652,174.468,3.345,0.49,3.202e7,311.985,236.054,0.666,0.666,0.281,0.234,0.151,0.015,0.049,3.605e-4,0,0,0,0,-2.586e-4,0.022,16.5,213.825,79.547,0.007,1.549,13.397,984.318,339.417,0.05,0.039
3.631,254.856,163.231,-9.769,165.69,9.787,39.505,0.002,39.505,0.003,28.44,0.59,22.175,120.893,9.787,0.17,-4.294e-7,-1.719,-0.004,1.902e4,4544.733,16.974,0.085,229.389,174.369,3.335,0.489,3.19e7,236.943,234.412,0.666,0.666,0.281,0.234,0.151,0.032,0.108,2.548e-4,0,0,0,0,-1.235e-4,0.022,16.5,213.825,79.44,0.007,1.48,13.343,983.36,339.385,0.05,0.039
3.681,263.002,162.584,-12.874,165.053,12.874,40.928,0.003,40.928,0.004,28.442,0.026,22.175,120.893,9.787,0.162,1.015e-6,-0.554,-0.001,1.9e4,4528.591,16.961,0.085,229.402,174.295,3.34,0.487,3.176e7,174.76,232.36,0.665,0.666,0.281,0.234,0.151,0.031,0.103,3.205e-4,0,0,0,0,-1.295e-5,0.022,16.5,213.825,79.384,0.007,1.551,13.29,982.404,339.353,0.05,0.04
3.731,271.111,161.804,-15.511,164.279,15.528,42.349,0.003,42.349,0.004,28.409,0.725,22.175,120.893,9.787,0.106,1.209e-6,0.197,-0.005,1.899e4,4517.445,16.953,0.085,229.545,174.245,3.352,0.485,3.16e7,120.672,229.911,0.665,0.665,0.281,0.234,0.151,0.02,0.067,-8.79e-5,0,0,0,0,1.655e-6,0.022,16.5,213.825,79.377,0.007,1.633,13.238,981.453,339.321,0.05,0.04
3.781,279.179,160.914,-17.703,163.392,17.757,43.768,0.003,43.768,0.004,28.346,1.38,22.175,120.893,9.787,0.035,-8.263e-7,0.658,-0.002,1.899e4,4510.545,16.947,0.085,229.727,174.213,3.364,0.482,3.141e7,74.706,227.12,0.665,0.665,0.281,0.233,0.15,0.007,0.022,3.789e-4,0,0,0,0,1.861e-5,0.022,16.5,213.825,79.402,0.006,1.664,13.185,980.507,339.289,0.05,0.04
3.831,287.201,159.96,-19.002,162.436,19.088,45.183,0.003,45.183,0.004,28.258,1.815,22.175,120.893,9.787,0.022,0,-0.664,0.002,1.898e4,4506.296,16.944,0.085,229.748,174.194,3.367,0.48,3.12e7,46.005,224.128,0.664,0.664,0.281,0.233,0.15,0.004,0.014,-2.78e-5,0,0,0,0,-1.914e-5,0.022,16.5,213.825,79.437,0.006,1.639,13.133,979.566,339.258,0.05,0.04
3.881,295.174,158.97,-19.704,161.444,19.812,46.593,0.003,46.593,0.004,28.156,2.06,22.175,120.893,9.787,0.058,-2.919e-7,-0.424,0.005,1.898e4,4503.619,16.942,0.085,229.634,174.182,3.361,0.477,3.099e7,28.976,221.035,0.664,0.664,0.281,0.233,0.15,0.011,0.037,2.551e-4,0,0,0,0,-7.908e-6,0.022,16.5,213.825,79.466,0.005,1.574,13.081,978.631,339.226,0.05,0.04
3.931,303.097,157.966,-19.99,160.436,20.118,47.998,0.003,47.998,0.004,28.046,2.271,22.175,120.893,9.787,0.107,1.232e-6,0.004,0.002,1.898e4,4501.783,16.941,0.085,229.484,174.174,3.352,0.474,3.078e7,19.875,217.978,0.663,0.663,0.281,0.233,0.149,0.02,0.068,-1.21e-4,0,0,0,0,0,0.022,16.5,213.825,79.477,0.005,1.603,13.03,977.702,339.195,0.05,0.04
3.981,310.971,156.958,-20.077,159.423,20.22,49.398,0.003,49.398,0.004,27.928,2.394,22.175,120.893,9.787,0.139,-3.168e-7,0.761,0.001,1.898e4,4500.416,16.939,0.085,229.379,174.167,3.346,0.471,3.057e7,14.809,214.96,0.663,0.663,0.281,0.232,0.149,0.026,0.088,-1.605e-4,0,0,0,0,2.614e-5,0.022,16.5,213.825,79.457,0.005,1.682,12.979,976.778,339.164,0.05,0.041
4,313.91,156.579,-20.163,159.042,20.308,49.921,0.004,49.921,0.004,27.882,2.421,22.175,120.893,9.787,0.142,1.329e-6,1.076,0.004,1.898e4,4500,16.939,0.085,229.364,174.165,3.345,0.47,3.049e7,11.991,213.83,0.662,0.662,0.281,0.232,0.149,0.027,0.09,-4.238e-4,0,0,0,0,5.245e-5,0.022,16.5,213.825,79.44,0.004,1.71,12.96,976.434,339.152,0.019,0.041
4.028,318.306,155.996,-20.693,158.456,20.847,50.704,0.004,50.704,0.004,27.811,2.528,22.175,120.893,9.787,0.144,1.315e-6,1.532,0.004,1.898e4,4500,16.939,0.085,229.351,174.165,3.345,0.468,3.037e7,0,212.113,0.662,0.662,0.281,0.232,0.148,0.027,0.091,-4.718e-4,0,0,0,0,1.072e-4,0.021,16.5,213.825,79.403,0.004,1.779,12.931,975.918,339.135,0.028,0.041
4.07,324.868,155.126,-20.577,157.58,20.718,51.875,0.004,51.875,0.004,27.706,2.408,22.175,120.893,9.787,0.11,0,2.165,0.006,1.898e4,4500,16.939,0.085,229.431,174.165,3.349,0.466,3.019e7,0,209.542,0.662,0.662,0.282,0.232,0.148,0.021,0.069,9.054e-6,0,0,0,0,2.164e-4,0.021,16.5,213.825,79.325,0.005,1.846,12.888,975.148,339.109,0.042,0.041
4.12,332.599,154.1,-20.47,156.55,20.578,53.258,0.004,53.258,0.004,27.592,2.11,22.175,120.893,9.787,0.017,-2.288e-6,2.543,0.056,1.898e4,4500,16.939,0.085,229.675,174.165,3.364,0.463,2.998e7,0,206.493,0.661,0.661,0.282,0.232,0.148,0.003,0.01,-4.843e-4,0,0,0,0,3.024e-4,0.021,16.5,213.825,79.205,0.005,1.835,12.838,974.242,339.079,0.05,0.041
4.17,340.278,153.078,-20.358,155.528,20.443,54.635,0.004,54.635,0.004,27.495,1.861,22.175,120.893,9.787,0.063,6.523e-6,-2.306,0.009,1.898e4,4500,16.939,0.085,229.531,174.165,3.355,0.46,2.976e7,0,203.52,0.661,0.661,0.282,0.232,0.147,0.012,0.04,-1.678e-4,0,0,0,0,-2.519e-4,0.021,16.5,213.825,79.081,0.005,1.852,12.788,973.341,339.049,0.05,0.042
4.22,347.907,152.064,-20.232,154.514,20.305,56.007,0.004,56.007,0.004,27.405,1.71,22.175,120.893,9.787,0.112,6.091e-6,-1.934,0.002,1.898e4,4500,16.939,0.085,229.381,174.165,3.346,0.457,2.955e7,0,200.623,0.66,0.66,0.282,0.231,0.147,0.021,0.071,-4.557e-4,0,0,0,0,-1.795e-4,0.021,16.5,213.825,78.973,0.006,1.916,12.739,972.446,339.018,0.05,0.042
4.27,355.485,151.055,-20.114,153.507,20.171,57.375,0.004,57.375,0.004,27.325,1.515,22.175,120.893,9.787,0.175,2.571e-6,-1.138,0.003,1.898e4,4500,16.939,0.085,229.194,174.165,3.335,0.454,2.934e7,0,197.705,0.66,0.66,0.282,0.231,0.147,0.033,0.11,-1.744e-4,0,0,0,0,-6.299e-5,0.021,16.5,213.825,78.897,0.007,1.838,12.689,971.558,338.989,0.05,0.042
4.32,363.012,150.053,-19.968,152.507,20.023,58.74,0.005,58.74,0.005,27.252,1.478,22.175,120.893,9.787,0.182,3.449e-6,-0.135,-3.313e-4,1.898e4,4500,16.939,0.085,229.161,174.165,3.333,0.451,2.913e7,0,194.838,0.659,0.659,0.282,0.231,0.146,0.034,0.115,-3.894e-4,0,0,0,0,-9.042e-7,0.021,16.5,213.825,78.865,0.008,1.784,12.64,970.675,338.959,0.05,0.042
4.37,370.49,149.059,-19.776,151.516,19.849,60.1,0.005,60.1,0.005,27.174,1.697,22.175,120.893,9.787,0.097,1.974e-6,0.644,0.004,1.898e4,4500,16.939,0.085,229.381,174.165,3.346,0.448,2.893e7,0,192.07,0.659,0.659,0.282,0.231,0.146,0.018,0.061,-4.833e-4,0,0,0,0,2.073e-5,0.021,16.5,213.825,78.88,0.008,1.864,12.592,969.798,338.93,0.05,0.042
4.42,377.918,148.075,-19.575,150.531,19.675,61.457,0.005,61.457,0.005,27.08,1.979,22.175,120.893,9.787,0.014,6.964e-7,-0.766,0.018,1.898e4,4500,16.939,0.085,229.597,174.165,3.359,0.445,2.873e7,0,189.367,0.658,0.658,0.282,0.231,0.146,0.003,0.009,1.288e-4,0,0,0,0,-2.967e-5,0.02,16.5,213.825,78.919,0.009,1.968,12.544,968.926,338.9,0.05,0.043
4.47,385.298,147.101,-19.404,149.554,19.518,62.808,0.005,62.808,0.005,26.977,2.109,22.175,120.893,9.787,0.074,1.309e-6,-0.537,0.004,1.898e4,4500,16.939,0.085,229.417,174.165,3.349,0.442,2.852e7,0,186.651,0.658,0.658,0.282,0.23,0.145,0.014,0.046,-4.9e-4,0,0,0,0,-1.477e-5,0.02,16.5,213.825,78.953,0.009,1.942,12.496,968.061,338.871,0.05,0.043
4.52,392.629,146.135,-19.251,148.585,19.371,64.155,0.005,64.155,0.005,26.87,2.152,22.175,120.893,9.787,0.102,1.138e-6,-0.114,0.004,1.898e4,4500,16.939,0.085,229.326,174.165,3.343,0.44,2.832e7,0,183.963,0.657,0.658,0.282,0.23,0.145,0.019,0.064,5.128e-5,0,0,0,0,-6.769e-7,0.02,16.5,213.825,78.97,0.009,1.886,12.448,967.201,338.842,0.05,0.043
4.57,399.911,145.176,-19.106,147.622,19.23,65.495,0.006,65.495,0.005,26.762,2.172,22.175,120.893,9.786,0.12,1.397e-6,0.418,0.004,1.898e4,4500,16.939,0.085,229.262,174.165,3.339,0.437,2.812e7,0,181.339,0.657,0.657,0.282,0.23,0.145,0.023,0.075,2.37e-5,0,0,0,0,9.189e-6,0.02,16.5,213.825,78.962,0.009,1.874,12.401,966.347,338.814,0.05,0.043
4.62,407.146,144.224,-18.969,146.666,19.093,66.831,0.006,66.831,0.005,26.654,2.172,22.175,120.893,9.786,0.129,2.866e-6,1.022,0.005,1.898e4,4500,16.939,0.085,229.224,174.165,3.337,0.434,2.792e7,0,178.781,0.657,0.657,0.282,0.23,0.144,0.024,0.081,4.463e-4,0,0,0,0,5.559e-5,0.02,16.5,213.825,78.925,0.008,1.915,12.354,965.499,338.785,0.05,0.044
4.67,414.334,143.279,-18.856,145.717,18.967,68.161,0.006,68.161,0.005,26.547,2.046,22.175,120.893,9.786,0.089,9.857e-7,1.631,0.005,1.898e4,4500,16.939,0.085,229.322,174.165,3.343,0.431,2.773e7,0,176.231,0.656,0.656,0.282,0.23,0.144,0.017,0.056,1.331e-4,0,0,0,0,1.434e-4,0.02,16.5,213.825,78.858,0.007,1.904,12.307,964.656,338.757,0.05,0.044
4.72,421.474,142.338,-18.763,144.775,18.852,69.486,0.006,69.486,0.005,26.451,1.828,22.175,120.893,9.786,0.01,1.36e-6,1.79,0.028,1.898e4,4500,16.939,0.085,229.528,174.165,3.355,0.428,2.753e7,0,173.692,0.656,0.656,0.282,0.229,0.144,0.002,0.007,3.237e-5,0,0,0,0,1.751e-4,0.02,16.5,213.825,78.771,0.007,1.83,12.26,963.818,338.729,0.05,0.044
4.77,428.568,141.402,-18.664,143.839,18.737,70.806,0.006,70.806,0.005,26.363,1.657,22.175,120.893,9.786,0.052,1.468e-6,-1.727,0.007,1.898e4,4500,16.939,0.085,229.398,174.165,3.347,0.426,2.734e7,0,171.22,0.655,0.655,0.283,0.229,0.144,0.01,0.033,2.213e-4,0,0,0,0,-1.652e-4,0.019,16.5,213.825,78.681,0.008,1.804,12.214,962.986,338.701,0.05,0.044
4.82,435.615,140.472,-18.567,142.91,18.626,72.122,0.007,72.122,0.005,26.285,1.484,22.175,120.893,9.786,0.117,2.741e-6,-1.339,0.003,1.898e4,4500,16.939,0.085,229.207,174.165,3.336,0.423,2.714e7,0,168.767,0.655,0.655,0.283,0.229,0.143,0.022,0.073,1.7e-4,0,0,0,0,-1.005e-4,0.019,16.5,213.825,78.603,0.009,1.729,12.169,962.16,338.673,0.05,0.044
4.87,442.615,139.546,-18.449,141.987,18.505,73.435,0.007,73.435,0.005,26.214,1.433,22.175,120.893,9.786,0.132,1.586e-6,-0.703,0.001,1.898e4,4500,16.939,0.085,229.152,174.165,3.333,0.42,2.695e7,0,166.374,0.654,0.655,0.283,0.229,0.143,0.025,0.082,1.368e-4,0,0,0,0,-2.807e-5,0.019,16.5,213.825,78.552,0.01,1.707,12.123,961.339,338.645,0.05,0.045
4.92,449.569,138.627,-18.313,141.07,18.373,74.743,0.007,74.743,0.005,26.14,1.486,22.175,120.893,9.786,0.103,2.009e-6,-0.248,-0.001,1.898e4,4500,16.939,0.085,229.219,174.165,3.337,0.418,2.676e7,0,164.035,0.654,0.654,0.283,0.229,0.143,0.019,0.065,-1.898e-4,0,0,0,0,-3.534e-6,0.019,16.5,213.825,78.529,0.01,1.732,12.078,960.523,338.618,0.05,0.045
4.97,456.478,137.715,-18.18,140.16,18.243,76.049,0.007,76.049,0.005,26.065,1.522,22.175,120.893,9.786,0.08,1.602e-6,0.185,0.003,1.898e4,4500,16.939,0.085,229.273,174.165,3.34,0.415,2.657e7,0,161.696,0.654,0.654,0.283,0.229,0.142,0.015,0.05,-4.418e-4,0,0,0,0,1.988e-6,0.019,16.5,213.825,78.529,0.011,1.681,12.033,959.713,338.591,0.05,0.045
5.02,463.341,136.809,-18.043,139.255,18.112,77.35,0.008,77.35,0.006,25.987,1.584,22.175,120.893,9.786,0.043,2.277e-6,0.443,0.005,1.898e4,4500,16.939,0.085,229.362,174.165,3.345,0.412,2.639e7,0,159.391,0.653,0.653,0.283,0.228,0.142,0.008,0.027,-9.961e-5,0,0,0,0,1.157e-5,0.019,16.5,213.825,78.546,0.011,1.626,11.988,958.908,338.564,0.05,0.045
5.07,470.159,135.91,-17.91,138.357,17.984,78.647,0.008,78.647,0.006,25.907,1.634,22.175,120.893,9.786,0.011,2.189e-6,0.549,0.017,1.898e4,4500,16.939,0.085,229.442,174.165,3.35,0.41,2.62e7,0,157.109,0.653,0.653,0.283,0.228,0.142,0.002,0.007,6.553e-5,0,0,0,0,1.805e-5,0.019,16.5,213.825,78.572,0.011,1.543,11.944,958.108,338.537,0.05,0.045
5.12,476.932,135.018,-17.773,137.465,17.856,79.941,0.008,79.941,0.006,25.824,1.721,22.175,120.893,9.786,0.039,8.799e-7,-0.54,0.005,1.898e4,4500,16.939,0.085,229.352,174.165,3.345,0.407,2.602e7,0,154.881,0.653,0.653,0.283,0.228,0.142,0.007,0.025,-2.532e-4,0,0,0,0,-1.769e-5,0.019,16.5,213.825,78.599,0.011,1.498,11.9,957.314,338.51,0.05,0.046
5.17,483.661,134.133,-17.632,136.579,17.728,81.23,0.008,81.23,0.006,25.734,1.844,22.175,120.893,9.786,0.105,1.369e-6,-0.21,0.004,1.898e4,4500,16.939,0.085,229.157,174.165,3.333,0.404,2.584e7,0,152.723,0.652,0.652,0.283,0.228,0.141,0.02,0.065,4.196e-4,0,0,0,0,-2.712e-6,0.018,16.5,213.825,78.619,0.011,1.524,11.856,956.525,338.484,0.05,0.046
