Time (s),Altitude (m),Vertical velocity (m/s),Vertical acceleration (m/s²),Total velocity (m/s),Total acceleration (m/s²),Position East of launch (m),Position North of launch (m),Lateral distance (m),Lateral direction (°),Lateral velocity (m/s),Lateral acceleration (m/s²),Latitude (°),Longitude (°),Gravitational acceleration (m/s²),Angle of attack (°),Roll rate (°/s),Pitch rate (°/s),Yaw rate (°/s),Mass (g),Motor mass (g),Longitudinal moment of inertia (kg·m²),Rotational moment of inertia (kg·m²),CP location (cm),CG location (cm),Stability margin calibers (​),Mach number (​),Reynolds number (​),Thrust (N),Drag force (N),Drag coefficient (​),Axial drag coefficient (​),Friction drag coefficient (​),Pressure drag coefficient (​),Base drag coefficient (​),Normal force coefficient (​),Pitch moment coefficient (​),Yaw moment coefficient (​),Side force coefficient (​),Roll moment coefficient (​),Roll forcing coefficient (​),Roll damping coefficient (​),Pitch damping coefficient (​),Coriolis acceleration (m/s²),Reference length (cm),Reference area (cm²),Vertical orientation (zenith) (°),Lateral orientation (azimuth) (°),Wind velocity (m/s),Air temperature (°C),Air pressure (mbar),Speed of sound (m/s),Simulation time step (s),Computation time (s)
0.01,-4.772e-4,-0.095,-9.54,0.096,9.593,-5.015e-5,0,5.015e-5,180,0.01,1.003,22.175,120.893,9.788,85.444,0,0,0,2.798e4,1.35e4,21.757,0.099,NaN,201.939,NaN,0.011,7.422e5,3.946,1.575e-4,0.696,8.387e-4,0.361,0.215,0.12,NaN,NaN,NaN,NaN,NaN,NaN,NaN,NaN,1.297e-5,16.5,213.825,84,0,3.795,15,1013.25,340.389,0.01,0.004
0.02,-4.78e-4,-0.096,-9.56,0.096,9.613,-5.024e-5,0,5.024e-5,180,0.01,1.005,22.175,120.893,9.788,85.452,0,0,0,2.798e4,1.35e4,21.757,0.099,NaN,201.939,NaN,0.011,7.395e5,3.399,1.555e-4,0.696,8.346e-4,0.361,0.215,0.12,NaN,NaN,NaN,NaN,NaN,NaN,NaN,NaN,1.299e-5,16.5,213.825,84,0,3.781,15,1013.25,340.389,0.01,0.005
0.03,-4.766e-4,-0.095,-9.532,0.096,9.584,-5.009e-5,0,5.009e-5,180,0.01,1.002,22.175,120.893,9.788,85.453,0,0,0,2.798e4,1.35e4,21.757,0.099,NaN,201.939,NaN,0.011,7.368e5,4.196,1.543e-4,0.697,8.343e-4,0.362,0.215,0.12,NaN,NaN,NaN,NaN,NaN,NaN,NaN,NaN,1.296e-5,16.5,213.825,84,0,3.767,15,1013.25,340.389,0.01,0.005
0.04,-4.78e-4,-0.096,-9.56,0.096,9.612,-5.024e-5,0,5.024e-5,180,0.01,1.005,22.175,120.893,9.788,85.463,0,0,0,2.798e4,1.35e4,21.757,0.099,NaN,201.939,NaN,0.011,7.34e5,3.408,1.523e-4,0.697,8.294e-4,0.362,0.215,0.12,NaN,NaN,NaN,NaN,NaN,NaN,NaN,NaN,1.299e-5,16.5,213.825,84,0,3.753,15,1013.25,340.389,0.01,0.005
0.05,-4.776e-4,-0.096,-9.551,0.096,9.604,-5.019e-5,0,5.019e-5,180,0.01,1.004,22.175,120.893,9.788,85.467,0,0,0,2.798e4,1.35e4,21.757,0.099,NaN,201.939,NaN,0.011,7.313e5,3.638,1.508e-4,0.697,8.274e-4,0.362,0.215,0.12,NaN,NaN,NaN,NaN,NaN,NaN,NaN,NaN,1.298e-5,16.5,213.825,84,0,3.739,15,1013.25,340.389,0.01,0.005
0.06,-4.772e-4,-0.095,-9.544,0.096,9.597,-5.016e-5,0,5.016e-5,180,0.01,1.003,22.175,120.893,9.788,85.452,0,0,0,2.798e4,1.35e4,21.757,0.099,NaN,201.939,NaN,0.011,7.385e5,3.848,1.552e-4,0.696,8.349e-4,0.361,0.215,0.12,NaN,NaN,NaN,NaN,NaN,NaN,NaN,NaN,1.297e-5,16.5,213.825,84,0,3.776,15,1013.25,340.389,0.01,0.005
0.07,-4.775e-4,-0.096,-9.551,0.096,9.603,-5.019e-5,0,5.019e-5,180,0.01,1.004,22.175,120.893,9.788,85.439,0,0,0,2.798e4,1.35e4,21.757,0.099,NaN,201.939,NaN,0.011,7.457e5,3.653,1.594e-4,0.696,8.411e-4,0.361,0.215,0.12,NaN,NaN,NaN,NaN,NaN,NaN,NaN,NaN,1.298e-5,16.5,213.825,84,0,3.812,15,1013.25,340.389,0.01,0.006
0.08,-4.766e-4,-0.095,-9.533,0.096,9.585,-5.01e-5,0,5.01e-5,180,0.01,1.002,22.175,120.893,9.788,85.422,0,0,0,2.798e4,1.35e4,21.757,0.099,NaN,201.938,NaN,0.011,7.529e5,4.165,1.64e-4,0.695,8.492e-4,0.36,0.215,0.12,NaN,NaN,NaN,NaN,NaN,NaN,NaN,NaN,1.296e-5,16.5,213.825,84,0,3.849,15,1013.25,340.389,0.01,0.006
0.09,-4.769e-4,-0.095,-9.537,0.096,9.59,-5.012e-5,0,5.012e-5,180,0.01,1.002,22.175,120.893,9.788,85.41,0,0,0,2.798e4,1.35e4,21.757,0.099,NaN,201.938,NaN,0.011,7.601e5,4.039,1.684e-4,0.694,8.554e-4,0.359,0.215,0.12,NaN,NaN,NaN,NaN,NaN,NaN,NaN,NaN,1.296e-5,16.5,213.825,84,0,3.886,15,1013.25,340.389,0.01,0.006
0.1,-4.775e-4,-0.095,-9.55,0.096,9.602,-5.019e-5,0,5.019e-5,180,0.01,1.004,22.175,120.893,9.788,85.398,0,0,0,2.798e4,1.35e4,21.757,0.099,NaN,201.938,NaN,0.011,7.673e5,3.684,1.727e-4,0.694,8.608e-4,0.359,0.215,0.12,NaN,NaN,NaN,NaN,NaN,NaN,NaN,NaN,1.298e-5,16.5,213.825,84,0,3.923,15,1013.25,340.389,0.01,0.006
0.11,-4.763e-4,-0.095,-9.525,0.096,9.578,-5.006e-5,0,5.006e-5,180,0.01,1.001,22.175,120.893,9.788,85.413,0,0,0,2.798e4,1.35e4,21.757,0.099,NaN,201.938,NaN,0.011,7.574e5,4.369,1.669e-4,0.695,8.539e-4,0.36,0.215,0.12,NaN,NaN,NaN,NaN,NaN,NaN,NaN,NaN,1.295e-5,16.5,213.825,84,0,3.872,15,1013.25,340.389,0.01,0.007
0.12,-4.772e-4,-0.095,-9.545,0.096,9.597,-5.016e-5,0,5.016e-5,180,0.01,1.003,22.175,120.893,9.788,85.435,0,0,0,2.798e4,1.35e4,21.757,0.099,NaN,201.938,NaN,0.011,7.474e5,3.832,1.605e-4,0.696,8.432e-4,0.36,0.215,0.12,NaN,NaN,NaN,NaN,NaN,NaN,NaN,NaN,1.297e-5,16.5,213.825,84,0,3.821,15,1013.25,340.389,0.01,0.007
0.13,-4.76e-4,-0.095,-9.521,0.096,9.573,-5.003e-5,0,5.003e-5,180,0.01,1.001,22.175,120.893,9.788,85.45,0,0,0,2.798e4,1.35e4,21.757,0.099,NaN,201.938,NaN,0.011,7.375e5,4.497,1.549e-4,0.697,8.359e-4,0.361,0.215,0.12,NaN,NaN,NaN,NaN,NaN,NaN,NaN,NaN,1.294e-5,16.5,213.825,84,0,3.771,15,1013.25,340.389,0.01,0.007
0.14,-4.765e-4,-0.095,-9.53,0.096,9.583,-5.008e-5,0,5.008e-5,180,0.01,1.002,22.175,120.893,9.788,85.471,0,0,0,2.798e4,1.35e4,21.757,0.099,NaN,201.937,NaN,0.011,7.276e5,4.238,1.489e-4,0.698,8.256e-4,0.362,0.215,0.12,NaN,NaN,NaN,NaN,NaN,NaN,NaN,NaN,1.295e-5,16.5,213.825,84,0,3.72,15,1013.25,340.389,0.01,0.007
0.15,-4.766e-4,-0.095,-9.533,0.096,9.585,-5.01e-5,0,5.01e-5,180,0.01,1.002,22.175,120.893,9.788,85.492,0,0,0,2.798e4,1.35e4,21.757,0.099,NaN,201.937,NaN,0.011,7.177e5,4.165,1.432e-4,0.699,8.157e-4,0.363,0.215,0.12,NaN,NaN,NaN,NaN,NaN,NaN,NaN,NaN,1.296e-5,16.5,213.825,84,0,3.67,15,1013.25,340.389,0.01,0.007
0.16,-4.754e-4,-0.095,-9.509,0.096,9.561,-4.997e-5,0,4.997e-5,180,0.01,0.999,22.175,120.893,9.788,85.474,0,0,0,2.797e4,1.35e4,21.757,0.099,NaN,201.937,NaN,0.011,7.249e5,4.835,1.477e-4,0.698,8.248e-4,0.363,0.215,0.12,NaN,NaN,NaN,NaN,NaN,NaN,NaN,NaN,1.292e-5,16.5,213.825,84,0,3.706,15,1013.25,340.389,0.01,0.008
0.17,-4.764e-4,-0.095,-9.528,0.096,9.58,-5.007e-5,0,5.007e-5,180,0.01,1.001,22.175,120.893,9.788,85.462,0,0,0,2.797e4,1.35e4,21.757,0.099,NaN,201.937,NaN,0.011,7.321e5,4.308,1.516e-4,0.697,8.302e-4,0.362,0.215,0.12,NaN,NaN,NaN,NaN,NaN,NaN,NaN,NaN,1.295e-5,16.5,213.825,84,0,3.743,15,1013.25,340.389,0.01,0.008
0.18,-4.748e-4,-0.095,-9.495,0.095,9.548,-4.99e-5,0,4.99e-5,180,0.01,0.998,22.175,120.893,9.788,85.443,0,0,0,2.797e4,1.35e4,21.757,0.099,NaN,201.937,NaN,0.011,7.394e5,5.219,1.564e-4,0.696,8.398e-4,0.361,0.215,0.12,NaN,NaN,NaN,NaN,NaN,NaN,NaN,NaN,1.291e-5,16.5,213.825,84,0,3.78,15,1013.25,340.389,0.01,0.008
0.19,-4.759e-4,-0.095,-9.517,0.096,9.57,-5.002e-5,0,5.002e-5,180,0.01,1,22.175,120.893,9.788,85.432,0,0,0,2.797e4,1.35e4,21.757,0.099,NaN,201.937,NaN,0.011,7.466e5,4.595,1.604e-4,0.696,8.447e-4,0.361,0.215,0.12,NaN,NaN,NaN,NaN,NaN,NaN,NaN,NaN,1.294e-5,16.5,213.825,84,0,3.817,15,1013.25,340.389,0.01,0.008
0.2,-4.751e-4,-0.095,-9.502,0.096,9.554,-4.993e-5,0,4.993e-5,180,0.01,0.999,22.175,120.893,9.788,85.416,0,0,0,2.797e4,1.35e4,21.757,0.099,NaN,201.936,NaN,0.011,7.538e5,5.035,1.651e-4,0.695,8.526e-4,0.36,0.215,0.12,NaN,NaN,NaN,NaN,NaN,NaN,NaN,NaN,1.292e-5,16.5,213.825,84,0,3.854,15,1013.25,340.389,0.01,0.008
0.21,-4.738e-4,-0.095,-9.475,0.095,9.527,-4.979e-5,0,4.979e-5,180,0.01,0.996,22.175,120.893,9.788,85.401,0,0,0,2.797e4,1.35e4,21.757,0.099,NaN,201.936,NaN,0.011,7.596e5,5.782,1.691e-4,0.694,8.6e-4,0.359,0.215,0.12,NaN,NaN,NaN,NaN,NaN,NaN,NaN,NaN,1.288e-5,16.5,213.825,84,0,3.884,15,1013.25,340.389,0.01,0.009
0.22,-4.746e-4,-0.095,-9.492,0.095,9.544,-4.988e-5,0,4.988e-5,180,0.01,0.998,22.175,120.893,9.788,85.393,0,0,0,2.797e4,1.35e4,21.756,0.099,NaN,201.936,NaN,0.011,7.654e5,5.316,1.725e-4,0.694,8.639e-4,0.359,0.215,0.12,NaN,NaN,NaN,NaN,NaN,NaN,NaN,NaN,1.29e-5,16.5,213.825,84,0,3.913,15,1013.25,340.389,0.01,0.009
0.23,-4.728e-4,-0.095,-9.456,0.095,9.508,-4.969e-5,0,4.969e-5,180,0.01,0.994,22.175,120.893,9.788,85.377,0,0,0,2.797e4,1.35e4,21.756,0.099,NaN,201.936,NaN,0.012,7.712e5,6.314,1.767e-4,0.693,8.719e-4,0.358,0.215,0.12,NaN,NaN,NaN,NaN,NaN,NaN,NaN,NaN,1.285e-5,16.5,213.825,84,0,3.943,15,1013.25,340.389,0.01,0.009
0.24,-4.742e-4,-0.095,-9.484,0.095,9.536,-4.984e-5,0,4.984e-5,180,0.01,0.997,22.175,120.893,9.788,85.371,0,0,0,2.797e4,1.35e4,21.756,0.099,NaN,201.935,NaN,0.012,7.77e5,5.531,1.799e-4,0.693,8.747e-4,0.358,0.215,0.12,NaN,NaN,NaN,NaN,NaN,NaN,NaN,NaN,1.289e-5,16.5,213.825,84,0,3.972,15,1013.25,340.389,0.01,0.009
0.25,-4.731e-4,-0.095,-9.462,0.095,9.515,-4.973e-5,0,4.973e-5,180,0.01,0.995,22.175,120.893,9.788,85.358,0,0,0,2.797e4,1.35e4,21.756,0.099,NaN,201.935,NaN,0.012,7.828e5,6.14,1.841e-4,0.692,8.814e-4,0.357,0.215,0.12,NaN,NaN,NaN,NaN,NaN,NaN,NaN,NaN,1.286e-5,16.5,213.825,84,0,4.002,15,1013.25,340.389,0.01,0.009
0.26,-4.722e-4,-0.094,-9.444,0.095,9.496,-4.963e-5,0,4.963e-5,180,0.01,0.993,22.175,120.893,9.788,85.348,0,0,0,2.797e4,1.35e4,21.756,0.099,NaN,201.935,NaN,0.012,7.869e5,6.656,1.87e-4,0.692,8.863e-4,0.357,0.215,0.12,NaN,NaN,NaN,NaN,NaN,NaN,NaN,NaN,1.284e-5,16.5,213.825,84,0,4.023,15,1013.25,340.389,0.01,0.009
0.27,-4.729e-4,-0.095,-9.457,0.095,9.509,-4.97e-5,0,4.97e-5,180,0.01,0.994,22.175,120.893,9.788,85.343,0,0,0,2.797e4,1.35e4,21.756,0.099,NaN,201.935,NaN,0.012,7.91e5,6.293,1.895e-4,0.691,8.887e-4,0.356,0.215,0.12,NaN,NaN,NaN,NaN,NaN,NaN,NaN,NaN,1.285e-5,16.5,213.825,84,0,4.044,15,1013.25,340.389,0.01,0.01
0.28,-4.709e-4,-0.094,-9.418,0.095,9.47,-4.95e-5,0,4.95e-5,180,0.01,0.99,22.175,120.893,9.788,85.331,0,0,0,2.797e4,1.35e4,21.756,0.099,NaN,201.934,NaN,0.012,7.951e5,7.383,1.928e-4,0.691,8.952e-4,0.356,0.215,0.12,NaN,NaN,NaN,NaN,NaN,NaN,NaN,NaN,1.28e-5,16.5,213.825,84,0,4.064,15,1013.25,340.389,0.01,0.01
0.29,-4.715e-4,-0.094,-9.43,0.095,9.482,-4.956e-5,0,4.956e-5,180,0.01,0.991,22.175,120.893,9.788,85.326,0,0,0,2.797e4,1.35e4,21.756,0.099,NaN,201.934,NaN,0.012,7.992e5,7.04,1.954e-4,0.691,8.976e-4,0.356,0.215,0.12,NaN,NaN,NaN,NaN,NaN,NaN,NaN,NaN,1.282e-5,16.5,213.825,84,0,4.085,15,1013.25,340.389,0.01,0.01
0.3,-4.706e-4,-0.094,-9.411,0.095,9.463,-4.946e-5,0,4.946e-5,180,0.01,0.989,22.175,120.893,9.788,85.316,0,0,0,2.797e4,1.35e4,21.756,0.099,NaN,201.934,NaN,0.012,8.033e5,7.588,1.984e-4,0.69,9.025e-4,0.355,0.215,0.12,NaN,NaN,NaN,NaN,NaN,NaN,NaN,NaN,1.279e-5,16.5,213.825,84,0,4.106,15,1013.25,340.389,0.01,0.01
0.31,-4.688e-4,-0.094,-9.376,0.094,9.428,-4.927e-5,0,4.927e-5,180,0.01,0.985,22.175,120.893,9.788,85.336,0,0,0,2.797e4,1.35e4,21.756,0.099,NaN,201.934,NaN,0.012,7.885e5,8.575,1.892e-4,0.692,8.932e-4,0.357,0.215,0.12,NaN,NaN,NaN,NaN,NaN,NaN,NaN,NaN,1.274e-5,16.5,213.825,84,0,4.031,15,1013.25,340.389,0.01,0.011
0.32,-4.69e-4,-0.094,-9.38,0.094,9.432,-4.929e-5,0,4.929e-5,180,0.01,0.986,22.175,120.893,9.788,85.362,0,0,0,2.797e4,1.35e4,21.756,0.099,NaN,201.933,NaN,0.012,7.738e5,8.457,1.796e-4,0.693,8.803e-4,0.358,0.215,0.12,NaN,NaN,NaN,NaN,NaN,NaN,NaN,NaN,1.275e-5,16.5,213.825,84,0,3.956,15,1013.25,340.389,0.01,0.011
0.33,-4.666e-4,-0.093,-9.331,0.094,9.383,-4.904e-5,0,4.904e-5,180,0.01,0.981,22.175,120.893,9.788,85.381,0,0,0,2.797e4,1.35e4,21.756,0.099,NaN,201.933,NaN,0.011,7.59e5,9.828,1.71e-4,0.694,8.713e-4,0.359,0.215,0.12,NaN,NaN,NaN,NaN,NaN,NaN,NaN,NaN,1.268e-5,16.5,213.825,84,0,3.88,15,1013.25,340.389,0.01,0.011
0.34,-4.662e-4,-0.093,-9.324,0.094,9.376,-4.9e-5,0,4.9e-5,180,0.01,0.98,22.175,120.893,9.788,85.407,0,0,0,2.797e4,1.35e4,21.756,0.099,NaN,201.932,NaN,0.011,7.443e5,10.028,1.621e-4,0.696,8.585e-4,0.361,0.215,0.12,NaN,NaN,NaN,NaN,NaN,NaN,NaN,NaN,1.267e-5,16.5,213.825,84,0,3.805,15,1013.25,340.389,0.01,0.011
0.35,-4.653e-4,-0.093,-9.307,0.094,9.358,-4.891e-5,0,4.891e-5,180,0.01,0.978,22.175,120.893,9.788,85.433,0,0,0,2.797e4,1.35e4,21.756,0.099,NaN,201.932,NaN,0.011,7.295e5,10.514,1.535e-4,0.697,8.462e-4,0.362,0.215,0.12,NaN,NaN,NaN,NaN,NaN,NaN,NaN,NaN,1.265e-5,16.5,213.825,84,0,3.73,15,1013.25,340.389,0.01,0.011
0.36,-4.62e-4,-0.092,-9.241,0.093,9.292,-4.856e-5,0,4.856e-5,180,0.01,0.971,22.175,120.893,9.788,85.447,0,0,0,2.797e4,1.35e4,21.756,0.099,NaN,201.932,NaN,0.011,7.174e5,12.371,1.473e-4,0.699,8.4e-4,0.364,0.215,0.12,NaN,NaN,NaN,NaN,NaN,NaN,NaN,NaN,1.256e-5,16.5,213.825,84,0,3.668,15,1013.25,340.389,0.01,0.012
0.37,-4.612e-4,-0.092,-9.223,0.093,9.274,-4.847e-5,0,4.847e-5,180,0.01,0.969,22.175,120.893,9.788,85.469,0,0,0,2.797e4,1.35e4,21.756,0.099,NaN,201.931,NaN,0.011,7.052e5,12.862,1.406e-4,0.7,8.295e-4,0.365,0.215,0.12,NaN,NaN,NaN,NaN,NaN,NaN,NaN,NaN,1.254e-5,16.5,213.825,84,0,3.605,15,1013.25,340.389,0.01,0.012
0.38,-4.582e-4,-0.092,-9.164,0.092,9.215,-4.816e-5,0,4.816e-5,180,0.01,0.963,22.175,120.893,9.788,85.486,0,0,0,2.797e4,1.35e4,21.756,0.099,NaN,201.931,NaN,0.01,6.93e5,14.525,1.346e-4,0.701,8.223e-4,0.366,0.215,0.12,NaN,NaN,NaN,NaN,NaN,NaN,NaN,NaN,1.246e-5,16.5,213.825,84,0,3.543,15,1013.25,340.389,0.01,0.012
0.39,-4.561e-4,-0.091,-9.122,0.092,9.172,-4.794e-5,0,4.794e-5,180,0.01,0.959,22.175,120.893,9.788,85.505,0,0,0,2.797e4,1.35e4,21.755,0.099,NaN,201.93,NaN,0.01,6.808e5,15.717,1.285e-4,0.703,8.134e-4,0.367,0.215,0.12,NaN,NaN,NaN,NaN,NaN,NaN,NaN,NaN,1.24e-5,16.5,213.825,84,0,3.481,15,1013.25,340.389,0.01,0.012
0.4,-4.543e-4,-0.091,-9.085,0.091,9.135,-4.774e-5,0,4.774e-5,180,0.01,0.955,22.175,120.893,9.788,85.526,0,0,0,2.797e4,1.35e4,21.755,0.099,NaN,201.929,NaN,0.01,6.686e5,16.751,1.224e-4,0.704,8.036e-4,0.369,0.215,0.12,NaN,NaN,NaN,NaN,NaN,NaN,NaN,NaN,1.235e-5,16.5,213.825,84,0,3.419,15,1013.25,340.389,0.01,0.012
0.41,-4.507e-4,-0.09,-9.015,0.091,9.064,-4.737e-5,0,4.737e-5,180,0.009,0.947,22.175,120.893,9.788,85.498,0,0,0,2.797e4,1.349e4,21.755,0.099,NaN,201.929,NaN,0.01,6.761e5,18.736,1.274e-4,0.703,8.179e-4,0.368,0.215,0.12,NaN,NaN,NaN,NaN,NaN,NaN,NaN,NaN,1.225e-5,16.5,213.825,84,0,3.457,15,1013.25,340.389,0.01,0.012
0.42,-4.481e-4,-0.09,-8.963,0.09,9.012,-4.71e-5,0,4.71e-5,180,0.009,0.942,22.175,120.893,9.788,85.473,0,0,0,2.797e4,1.349e4,21.755,0.099,NaN,201.928,NaN,0.01,6.836e5,20.199,1.322e-4,0.702,8.304e-4,0.367,0.215,0.12,NaN,NaN,NaN,NaN,NaN,NaN,NaN,NaN,1.218e-5,16.5,213.825,84,0,3.495,15,1013.25,340.389,0.01,0.013
0.43,-4.428e-4,-0.089,-8.857,0.089,8.906,-4.654e-5,0,4.654e-5,180,0.009,0.931,22.175,120.893,9.788,85.44,0,0,0,2.797e4,1.349e4,21.755,0.099,NaN,201.927,NaN,0.01,6.91e5,23.171,1.379e-4,0.701,8.474e-4,0.366,0.215,0.12,NaN,NaN,NaN,NaN,NaN,NaN,NaN,NaN,1.204e-5,16.5,213.825,84,0,3.533,15,1013.25,340.389,0.01,0.013
0.44,-4.388e-4,-0.088,-8.777,0.088,8.825,-4.612e-5,0,4.612e-5,180,0.009,0.922,22.175,120.893,9.788,85.412,0,0,0,2.797e4,1.349e4,21.755,0.099,NaN,201.926,NaN,0.01,6.985e5,25.427,1.433e-4,0.701,8.62e-4,0.366,0.215,0.12,NaN,NaN,NaN,NaN,NaN,NaN,NaN,NaN,1.193e-5,16.5,213.825,84,0,3.571,15,1013.25,340.389,0.01,0.013
0.45,-4.324e-4,-0.086,-8.648,0.087,8.695,-4.545e-5,0,4.545e-5,180,0.009,0.909,22.175,120.893,9.788,85.376,0,0,0,2.797e4,1.349e4,21.754,0.099,NaN,201.925,NaN,0.011,7.06e5,29.05,1.496e-4,0.7,8.808e-4,0.365,0.215,0.12,NaN,NaN,NaN,NaN,NaN,NaN,NaN,NaN,1.175e-5,16.5,213.825,84,0,3.609,15,1013.25,340.389,0.01,0.013
0.46,-4.243e-4,-0.085,-8.487,0.085,8.534,-4.46e-5,0,4.46e-5,180,0.009,0.892,22.175,120.893,9.788,85.34,0,0,0,2.797e4,1.349e4,21.754,0.099,NaN,201.923,NaN,0.011,7.115e5,33.572,1.553e-4,0.699,9.005e-4,0.364,0.215,0.12,NaN,NaN,NaN,NaN,NaN,NaN,NaN,NaN,1.154e-5,16.5,213.825,84,0,3.637,15,1013.25,340.389,0.01,0.013
0.47,-4.172e-4,-0.083,-8.344,0.084,8.39,-4.385e-5,0,4.385e-5,180,0.009,0.877,22.175,120.893,9.788,85.307,0,0,0,2.797e4,1.349e4,21.754,0.099,NaN,201.922,NaN,0.011,7.17e5,37.604,1.609e-4,0.699,9.186e-4,0.364,0.215,0.12,NaN,NaN,NaN,NaN,NaN,NaN,NaN,NaN,1.134e-5,16.5,213.825,84,0,3.665,15,1013.25,340.389,0.01,0.013
0.48,-4.021e-4,-0.08,-8.042,0.081,8.087,-4.226e-5,0,4.226e-5,180,0.008,0.845,22.175,120.893,9.788,85.25,0,0,0,2.797e4,1.349e4,21.754,0.099,NaN,201.92,NaN,0.011,7.225e5,46.076,1.692e-4,0.698,9.51e-4,0.363,0.215,0.12,NaN,NaN,NaN,NaN,NaN,NaN,NaN,NaN,1.093e-5,16.5,213.825,84,0,3.693,15,1013.25,340.389,0.01,0.014
0.49,-3.871e-4,-0.077,-7.742,0.078,7.785,-4.069e-5,0,4.069e-5,180,0.008,0.814,22.175,120.893,9.788,85.195,0,0,0,2.797e4,1.349e4,21.753,0.099,NaN,201.918,NaN,0.011,7.281e5,54.513,1.777e-4,0.697,9.835e-4,0.362,0.215,0.12,NaN,NaN,NaN,NaN,NaN,NaN,NaN,NaN,1.052e-5,16.5,213.825,84,0,3.721,15,1013.25,340.389,0.01,0.014
0.5,-3.674e-4,-0.073,-7.348,0.074,7.388,-3.862e-5,0,3.862e-5,180,0.008,0.772,22.175,120.893,9.788,85.125,0,0,0,2.796e4,1.349e4,21.753,0.099,NaN,201.916,NaN,0.011,7.336e5,65.594,1.88e-4,0.697,0.001,0.362,0.215,0.12,NaN,NaN,NaN,NaN,NaN,NaN,NaN,NaN,9.988e-6,16.5,213.825,84,0,3.749,15,1013.25,340.389,0.01,0.014
0.51,-3.456e-4,-0.069,-6.913,0.07,6.951,-3.633e-5,0,3.633e-5,180,0.007,0.727,22.175,120.893,9.788,85.046,0,0,0,2.796e4,1.349e4,21.752,0.099,NaN,201.913,NaN,0.011,7.422e5,77.832,2.015e-4,0.696,0.001,0.361,0.215,0.12,NaN,NaN,NaN,NaN,NaN,NaN,NaN,NaN,9.396e-6,16.5,213.825,84,0,3.793,15,1013.25,340.389,0.01,0.014
0.52,-3.255e-4,-0.065,-6.51,0.065,6.546,-3.421e-5,0,3.421e-5,180,0.007,0.684,22.175,120.893,9.788,84.974,0,0,0,2.796e4,1.349e4,21.752,0.099,NaN,201.909,NaN,0.011,7.509e5,89.154,2.15e-4,0.695,0.001,0.36,0.215,0.12,NaN,NaN,NaN,NaN,NaN,NaN,NaN,NaN,8.848e-6,16.5,213.825,84,0,3.836,15,1013.25,340.389,0.01,0.015
0.53,-3.016e-4,-0.06,-6.031,0.061,6.064,-3.169e-5,0,3.169e-5,180,0.006,0.634,22.175,120.893,9.788,84.892,0,0,0,2.796e4,1.348e4,21.751,0.099,NaN,201.905,NaN,0.011,7.595e5,102.609,2.304e-4,0.694,0.001,0.359,0.215,0.12,NaN,NaN,NaN,NaN,NaN,NaN,NaN,NaN,8.198e-6,16.5,213.825,84,0,3.88,15,1013.25,340.389,0.01,0.015
0.54,-2.786e-4,-0.056,-5.571,0.056,5.602,-2.928e-5,0,2.928e-5,180,0.006,0.586,22.175,120.893,9.788,84.815,0,0,0,2.796e4,1.348e4,21.75,0.099,NaN,201.901,NaN,0.012,7.681e5,115.517,2.46e-4,0.694,0.001,0.358,0.215,0.12,NaN,NaN,NaN,NaN,NaN,NaN,NaN,NaN,7.573e-6,16.5,213.825,84,0,3.923,15,1013.25,340.389,0.01,0.015
0.55,-2.552e-4,-0.051,-5.104,0.051,5.132,-2.682e-5,0,2.682e-5,180,0.005,0.536,22.175,120.893,9.788,84.738,0,0,0,2.796e4,1.348e4,21.749,0.099,NaN,201.896,NaN,0.012,7.767e5,128.661,2.623e-4,0.693,0.001,0.358,0.215,0.12,NaN,NaN,NaN,NaN,NaN,NaN,NaN,NaN,6.937e-6,16.5,213.825,84,0,3.967,15,1013.25,340.389,0.01,0.015
0.56,-2.294e-4,-0.046,-4.589,0.046,4.614,-2.412e-5,0,2.412e-5,180,0.005,0.482,22.175,120.893,9.788,84.671,0,0,0,2.795e4,1.348e4,21.748,0.099,NaN,201.89,NaN,0.012,7.679e5,143.124,2.664e-4,0.694,0.001,0.358,0.215,0.12,NaN,NaN,NaN,NaN,NaN,NaN,NaN,NaN,6.237e-6,16.5,213.825,84,0,3.921,15,1013.25,340.389,0.01,0.015
0.57,-2.041e-4,-0.041,-4.081,0.041,4.103,-2.145e-5,0,2.145e-5,180,0.004,0.429,22.175,120.893,9.788,84.604,0,0,0,2.795e4,1.347e4,21.747,0.099,NaN,201.884,NaN,0.011,7.59e5,157.378,2.704e-4,0.694,0.001,0.359,0.215,0.12,NaN,NaN,NaN,NaN,NaN,NaN,NaN,NaN,5.547e-6,16.5,213.825,84,0,3.876,15,1013.25,340.389,0.01,0.015
0.58,-1.763e-4,-0.035,-3.526,0.035,3.545,-1.853e-5,0,1.853e-5,180,0.004,0.371,22.175,120.893,9.788,84.528,0,0,0,2.795e4,1.347e4,21.746,0.099,NaN,201.877,NaN,0.011,7.502e5,172.956,2.756e-4,0.695,0.001,0.36,0.215,0.12,NaN,NaN,NaN,NaN,NaN,NaN,NaN,NaN,4.793e-6,16.5,213.825,84,0,3.83,15,1013.25,340.389,0.01,0.016
0.59,-1.471e-4,-0.029,-2.941,0.03,2.957,-1.546e-5,0,1.546e-5,180,0.003,0.309,22.175,120.893,9.788,84.446,0,0,0,2.794e4,1.347e4,21.745,0.099,NaN,201.87,NaN,0.011,7.414e5,189.374,2.816e-4,0.696,0.002,0.361,0.215,0.12,NaN,NaN,NaN,NaN,NaN,NaN,NaN,NaN,3.998e-6,16.5,213.825,84,0,3.785,15,1013.25,340.389,0.01,0.016
0.6,-1.112e-4,-0.022,-2.224,0.022,2.236,-1.169e-5,0,1.169e-5,180,0.002,0.234,22.175,120.893,9.788,84.341,0,0,0,2.794e4,1.346e4,21.743,0.099,NaN,201.862,NaN,0.011,7.326e5,209.49,2.908e-4,0.697,0.002,0.362,0.215,0.12,NaN,NaN,NaN,NaN,NaN,NaN,NaN,NaN,3.023e-6,16.5,213.825,84,0,3.739,15,1013.25,340.389,0.01,0.016
0.61,-7.014e-5,-0.014,-1.402,0.014,1.41,-7.372e-6,0,7.372e-6,180,0.001,0.147,22.175,120.893,9.788,84.214,0,0,0,2.793e4,1.346e4,21.742,0.099,NaN,201.853,NaN,0.011,7.346e5,232.539,3.12e-4,0.697,0.002,0.362,0.215,0.12,NaN,NaN,NaN,NaN,NaN,NaN,NaN,NaN,1.907e-6,16.5,213.825,84,0,3.748,15,1013.25,340.389,0.01,0.016
0.62,-2.035e-5,-0.004,-0.406,0.004,0.408,-2.139e-6,0,2.139e-6,180,4.275e-4,0.043,22.175,120.893,9.788,84.062,0,0,0,2.793e4,1.345e4,21.74,0.099,NaN,201.843,NaN,0.011,7.367e5,260.473,3.385e-4,0.697,0.002,0.362,0.215,0.12,NaN,NaN,NaN,NaN,NaN,NaN,NaN,NaN,5.528e-7,16.5,213.825,84,0,3.758,15,1013.25,340.389,0.01,0.016
0.63,4.068e-5,0.008,0.815,0.008,0.82,4.276e-6,0,4.276e-6,0,8.556e-4,0.086,22.175,120.893,9.788,83.876,0,0,0,2.792e4,1.345e4,21.738,0.099,NaN,201.831,NaN,0.011,7.388e5,294.705,3.726e-4,0.696,0.002,0.361,0.215,0.12,NaN,NaN,NaN,NaN,NaN,NaN,NaN,NaN,1.106e-6,16.5,213.825,84,0,3.767,15,1013.25,340.389,0.01,0.016
0.64,2.334e-4,0.03,2.228,0.031,2.24,2.453e-5,0,2.453e-5,0,0.003,0.234,22.175,120.893,9.788,83.539,0,0,0,2.792e4,1.344e4,21.736,0.099,NaN,201.818,NaN,0.011,7.411e5,334.309,4.385e-4,0.696,0.002,0.361,0.215,0.12,NaN,NaN,NaN,NaN,NaN,NaN,NaN,NaN,4.133e-6,16.5,213.825,84,0,3.777,15,1013.25,340.389,0.01,0.016
0.65,7.362e-4,0.07,3.976,0.071,3.998,7.738e-5,0,7.738e-5,0,0.007,0.418,22.175,120.893,9.788,82.941,0,0,0,2.791e4,1.344e4,21.733,0.099,NaN,201.803,NaN,0.011,7.439e5,383.29,5.723e-4,0.696,0.003,0.361,0.215,0.12,NaN,NaN,NaN,NaN,NaN,NaN,NaN,NaN,9.536e-6,16.5,213.825,84,0,3.787,15,1013.25,340.389,0.01,0.017
0.66,0.002,0.131,6.099,0.132,6.133,1.832e-4,0,1.832e-4,0,0.014,0.641,22.175,120.893,9.788,82.055,0,0,0,2.79e4,1.343e4,21.73,0.099,NaN,201.786,NaN,0.011,7.574e5,442.735,8.359e-4,0.695,0.004,0.359,0.215,0.12,NaN,NaN,NaN,NaN,NaN,NaN,NaN,NaN,1.782e-5,16.5,213.825,84,0,3.847,15,1013.25,340.389,0.01,0.017
0.67,0.003,0.219,8.745,0.22,8.793,3.669e-4,0,3.669e-4,0,0.023,0.919,22.175,120.893,9.788,80.818,0,0,0,2.789e4,1.342e4,21.726,0.098,NaN,201.766,NaN,0.012,7.718e5,516.791,0.001,0.693,0.006,0.358,0.215,0.12,NaN,NaN,NaN,NaN,NaN,NaN,NaN,NaN,2.97e-5,16.5,213.825,84,0,3.908,15,1013.25,340.389,0.01,0.017
0.68,0.006,0.339,12.037,0.341,12.103,6.598e-4,0,6.598e-4,0,0.036,1.265,22.175,120.893,9.788,79.163,0,0,0,2.788e4,1.341e4,21.722,0.098,NaN,201.742,NaN,0.012,7.878e5,608.866,0.002,0.692,0.01,0.357,0.215,0.12,NaN,NaN,NaN,NaN,NaN,NaN,NaN,NaN,4.606e-5,16.5,213.825,84,0,3.969,15,1013.249,340.389,0.01,0.017
0.69,0.01,0.5,16.098,0.503,16.187,0.001,0,0.001,0,0.053,1.692,22.175,120.893,9.788,77.02,0,0,0,2.787e4,1.339e4,21.717,0.098,NaN,201.714,NaN,0.012,8.062e5,722.382,0.004,0.69,0.017,0.355,0.215,0.12,NaN,NaN,NaN,NaN,NaN,NaN,NaN,NaN,6.793e-5,16.5,213.825,84,0,4.029,15,1013.249,340.389,0.01,0.017
0.7,0.017,0.707,20.716,0.711,20.83,0.002,0,0.002,0,0.074,2.177,22.175,120.893,9.788,74.367,0,0,0,2.785e4,1.338e4,21.711,0.098,NaN,201.681,NaN,0.012,8.281e5,851.314,0.007,0.688,0.029,0.353,0.215,0.12,NaN,NaN,NaN,NaN,NaN,NaN,NaN,NaN,9.608e-5,16.5,213.825,84,0,4.09,15,1013.248,340.389,0.01,0.017
0.71,0.025,0.962,25.485,0.967,25.626,0.003,0,0.003,0,0.101,2.679,22.175,120.893,9.788,70.965,0,0,0,2.783e4,1.336e4,21.704,0.098,NaN,201.643,NaN,0.013,8.358e5,984.251,0.012,0.687,0.051,0.352,0.215,0.12,NaN,NaN,NaN,NaN,NaN,NaN,NaN,NaN,1.307e-4,16.5,213.825,84,0,4.052,15,1013.247,340.389,0.01,0.017
0.72,0.036,1.262,30.015,1.269,30.181,0.004,0,0.004,0,0.133,3.155,22.175,120.893,9.788,67.08,0,0,0,2.781e4,1.334e4,21.697,0.098,NaN,201.599,NaN,0.013,8.499e5,1110.231,0.021,0.686,0.084,0.351,0.215,0.12,NaN,NaN,NaN,NaN,NaN,NaN,NaN,NaN,1.715e-4,16.5,213.825,84,0,4.015,15,1013.246,340.389,0.01,0.018
0.73,0.05,1.602,34.099,1.611,34.287,0.005,0,0.005,0,0.168,3.584,22.175,120.893,9.788,62.866,0,0,0,2.779e4,1.332e4,21.688,0.098,NaN,201.551,NaN,0.013,8.713e5,1223.466,0.034,0.685,0.132,0.349,0.215,0.12,NaN,NaN,NaN,NaN,NaN,NaN,NaN,NaN,2.178e-4,16.5,213.825,84,0,3.977,15,1013.244,340.389,0.01,0.023
0.74,0.068,1.978,37.595,1.989,37.802,0.007,0,0.007,0,0.208,3.951,22.175,120.893,9.788,58.499,0,0,0,2.777e4,1.329e4,21.679,0.098,NaN,201.5,NaN,0.013,9.008e5,1320.018,0.053,0.682,0.193,0.347,0.215,0.12,NaN,NaN,NaN,NaN,NaN,NaN,NaN,NaN,2.689e-4,16.5,213.825,84,0,3.939,15,1013.242,340.389,0.01,0.023
0.75,0.09,2.384,40.569,2.397,40.792,0.009,0,0.009,0,0.251,4.264,22.175,120.893,9.788,54.14,0,0,0,2.774e4,1.327e4,21.669,0.098,NaN,201.445,NaN,0.014,9.386e5,1401.763,0.079,0.679,0.264,0.344,0.215,0.12,NaN,NaN,NaN,NaN,NaN,NaN,NaN,NaN,3.24e-4,16.5,213.825,84,0,3.901,14.999,1013.239,340.389,0.01,0.023
0.76,0.116,2.813,42.93,2.828,43.166,0.012,0,0.012,0,0.296,4.512,22.175,120.893,9.788,49.998,0,0,0,2.771e4,1.324e4,21.659,0.098,NaN,201.387,NaN,0.015,9.86e5,1466.216,0.113,0.676,0.341,0.341,0.215,0.12,NaN,NaN,NaN,NaN,NaN,NaN,NaN,NaN,3.823e-4,16.5,213.825,84,0,3.874,14.999,1013.236,340.388,0.01,0.023
0.77,0.146,3.26,44.719,3.278,44.965,0.015,0,0.015,0,0.343,4.7,22.175,120.893,9.788,46.114,0,0,0,2.769e4,1.321e4,21.648,0.098,NaN,201.327,NaN,0.016,1.041e6,1514.584,0.154,0.672,0.417,0.337,0.215,0.12,NaN,NaN,NaN,NaN,NaN,NaN,NaN,NaN,4.43e-4,16.5,213.825,84,0,3.847,14.999,1013.233,340.388,0.01,0.023
0.78,0.181,3.717,45.791,3.738,46.043,0.019,0,0.019,0,0.391,4.813,22.175,120.893,9.788,42.557,0,0,0,2.766e4,1.318e4,21.637,0.098,NaN,201.266,NaN,0.016,1.101e6,1542.902,0.202,0.669,0.489,0.334,0.215,0.12,NaN,NaN,NaN,NaN,NaN,NaN,NaN,NaN,5.053e-4,16.5,213.825,84,0,3.819,14.999,1013.229,340.388,0.01,0.024
0.79,0.221,4.181,46.376,4.204,46.632,0.023,0,0.023,0,0.439,4.874,22.175,120.893,9.788,39.344,0,0,0,2.763e4,1.315e4,21.626,0.098,NaN,201.204,NaN,0.017,1.166e6,1557.611,0.257,0.665,0.554,0.33,0.215,0.12,NaN,NaN,NaN,NaN,NaN,NaN,NaN,NaN,5.682e-4,16.5,213.825,84,0,3.792,14.999,1013.224,340.388,0.01,0.024
0.8,0.265,4.646,46.602,4.672,46.859,0.028,0,0.028,0,0.488,4.898,22.175,120.893,9.788,36.467,0,0,0,2.76e4,1.312e4,21.615,0.098,NaN,201.142,NaN,0.019,1.235e6,1562.308,0.317,0.661,0.61,0.326,0.215,0.12,NaN,NaN,NaN,NaN,NaN,NaN,NaN,NaN,6.316e-4,16.5,213.825,84,0,3.764,14.998,1013.219,340.388,0.01,0.024
0.81,0.314,5.112,46.577,5.14,46.833,0.033,0,0.033,0,0.537,4.895,22.175,120.893,9.788,34.071,0,0,0,2.757e4,1.31e4,21.604,0.098,NaN,201.08,NaN,0.02,1.31e6,1560.041,0.382,0.658,0.654,0.322,0.215,0.12,NaN,NaN,NaN,NaN,NaN,NaN,NaN,NaN,6.948e-4,16.5,213.825,84,0,3.763,14.998,1013.213,340.388,0.01,0.024
0.82,0.367,5.577,46.505,5.607,46.761,0.039,0,0.039,0,0.586,4.888,22.175,120.893,9.788,31.94,0,0,0,2.754e4,1.307e4,21.593,0.098,NaN,201.018,NaN,0.021,1.386e6,1556.501,0.452,0.654,0.69,0.319,0.215,0.12,NaN,NaN,NaN,NaN,NaN,NaN,NaN,NaN,7.58e-4,16.5,213.825,84,0,3.761,14.998,1013.207,340.387,0.01,0.025
0.83,0.425,6.04,46.325,6.073,46.58,0.045,0,0.045,0,0.635,4.869,22.175,120.893,9.788,30.042,0,0,0,2.751e4,1.304e4,21.582,0.098,NaN,200.956,NaN,0.022,1.464e6,1549.967,0.526,0.651,0.72,0.316,0.215,0.12,NaN,NaN,NaN,NaN,NaN,NaN,NaN,NaN,8.209e-4,16.5,213.825,84,0,3.76,14.997,1013.2,340.387,0.01,0.025
0.84,0.488,6.502,46.26,6.538,46.515,0.051,0,0.051,0,0.683,4.862,22.175,120.893,9.788,28.34,0,0,0,2.749e4,1.301e4,21.571,0.098,NaN,200.895,NaN,0.023,1.544e6,1546.637,0.604,0.648,0.744,0.312,0.215,0.12,NaN,NaN,NaN,NaN,NaN,NaN,NaN,NaN,8.838e-4,16.5,213.825,84,0,3.759,14.997,1013.193,340.387,0.01,0.025
0.85,0.555,6.964,46.238,7.002,46.492,0.058,0,0.058,0,0.732,4.86,22.175,120.893,9.788,26.806,0,0,0,2.746e4,1.298e4,21.56,0.098,NaN,200.833,NaN,0.024,1.624e6,1544.509,0.686,0.645,0.763,0.309,0.215,0.12,NaN,NaN,NaN,NaN,NaN,NaN,NaN,NaN,9.466e-4,16.5,213.825,84,0,3.757,14.996,1013.185,340.387,0.01,0.025
0.86,0.627,7.427,46.358,7.468,46.613,0.066,0,0.066,0,0.781,4.872,22.175,120.893,9.788,25.711,0,0,0,2.743e4,1.295e4,21.549,0.098,NaN,200.771,NaN,0.026,1.712e6,1546.294,0.772,0.642,0.774,0.306,0.215,0.12,NaN,NaN,NaN,NaN,NaN,NaN,NaN,NaN,0.001,16.5,213.825,84,0,3.809,14.996,1013.176,340.386,0.01,0.025
0.87,0.704,7.893,46.551,7.936,46.807,0.074,0,0.074,0,0.83,4.893,22.175,120.893,9.788,24.718,0,0,0,2.74e4,1.292e4,21.538,0.098,NaN,200.708,NaN,0.027,1.8e6,1550.1,0.863,0.639,0.782,0.304,0.215,0.12,NaN,NaN,NaN,NaN,NaN,NaN,NaN,NaN,0.001,16.5,213.825,84,0,3.86,14.995,1013.167,340.386,0.01,0.026
0.88,0.785,8.36,46.744,8.406,47.001,0.083,0,0.083,0,0.879,4.913,22.175,120.893,9.788,23.814,0,0,0,2.737e4,1.29e4,21.527,0.098,NaN,200.645,NaN,0.028,1.889e6,1553.871,0.959,0.636,0.789,0.301,0.215,0.12,NaN,NaN,NaN,NaN,NaN,NaN,NaN,NaN,0.001,16.5,213.825,84,0,3.912,14.995,1013.158,340.386,0.01,0.026
0.89,0.871,8.829,46.945,8.878,47.204,0.092,0,0.092,0,0.928,4.934,22.175,120.893,9.788,22.986,0,0,0,2.734e4,1.287e4,21.516,0.098,NaN,200.582,NaN,0.03,1.979e6,1557.877,1.059,0.633,0.794,0.298,0.215,0.12,NaN,NaN,NaN,NaN,NaN,NaN,NaN,NaN,0.001,16.5,213.825,84,0,3.963,14.994,1013.148,340.385,0.01,0.026
0.9,0.962,9.3,47.119,9.351,47.379,0.101,0,0.101,0,0.977,4.952,22.175,120.893,9.788,22.227,0,0,0,2.731e4,1.284e4,21.505,0.098,NaN,200.519,NaN,0.031,2.069e6,1561.121,1.163,0.631,0.797,0.296,0.215,0.12,NaN,NaN,NaN,NaN,NaN,NaN,NaN,NaN,0.001,16.5,213.825,84,0,4.015,14.994,1013.137,340.385,0.01,0.026
0.91,1.057,9.772,47.292,9.826,47.553,0.111,0,0.111,0,1.027,4.971,22.175,120.893,9.788,21.292,0,0,0,2.728e4,1.281e4,21.493,0.098,NaN,200.456,NaN,0.032,2.156e6,1564.323,1.27,0.629,0.802,0.294,0.215,0.12,NaN,NaN,NaN,NaN,NaN,NaN,NaN,NaN,0.001,16.5,213.825,84,0,4.015,14.993,1013.126,340.385,0.01,0.027
0.925,1.209,10.482,47.344,10.541,47.672,0.127,6.531e-9,0.127,2.943e-6,1.111,5.585,22.175,120.893,9.788,20.063,0,-0.019,-3.309e-6,2.724e4,1.277e4,21.476,0.098,197.671,200.36,-0.163,0.034,2.287e6,1565.157,1.436,0.626,0.805,0.29,0.215,0.12,6.359,-1.08,2.639e-4,0,0,0,0,-3.136e-6,0.001,16.5,213.825,84,0,4.016,14.992,1013.108,340.384,0.015,0.027
0.948,1.457,11.55,47.557,11.616,47.883,0.154,4.241e-8,0.154,1.582e-5,1.237,5.582,22.175,120.893,9.788,18.456,0,-0.033,2.825e-6,2.718e4,1.27e4,21.451,0.097,199.012,200.216,-0.073,0.037,2.487e6,1567.44,1.704,0.623,0.808,0.288,0.215,0.12,5.676,-0.414,3.897e-5,0,0,0,0,-7.667e-6,0.002,16.5,213.825,84.001,4.243e-7,4.016,14.991,1013.079,340.383,0.023,0.027
0.981,1.874,13.181,48.445,13.258,48.772,0.198,1.617e-7,0.198,4.669e-5,1.427,5.642,22.175,120.893,9.788,16.329,0,-0.034,-1.744e-5,2.708e4,1.26e4,21.412,0.097,200.981,199.996,0.06,0.042,2.793e6,1586.273,2.152,0.623,0.809,0.288,0.215,0.12,4.803,0.287,1.817e-4,0,0,0,0,-6.492e-6,0.002,16.5,213.825,84.002,2.117e-6,3.986,14.988,1013.03,340.382,0.034,0.027
1.031,2.595,15.665,49.86,15.759,50.186,0.277,5.061e-7,0.277,1.047e-4,1.714,5.715,22.175,120.893,9.788,14.325,0,0.01,-3.44e-5,2.693e4,1.245e4,21.353,0.097,203.065,199.66,0.206,0.049,3.275e6,1616.404,2.915,0.623,0.798,0.288,0.215,0.12,4.029,0.832,2.389e-4,0,0,0,0,3.978e-7,0.002,16.5,213.825,84.003,8.529e-6,4.088,14.983,1012.946,340.379,0.05,0.027
1.081,3.442,18.196,50.78,18.306,51.099,0.37,1.085e-6,0.37,1.681e-4,2.001,5.694,22.175,120.893,9.788,13.322,0,0.102,-1.596e-5,2.678e4,1.23e4,21.292,0.097,204.204,199.318,0.296,0.057,3.779e6,1632.74,3.835,0.623,0.788,0.288,0.215,0.12,3.66,1.084,-1.693e-4,0,0,0,0,3.199e-5,0.002,16.5,213.825,84,1.449e-5,4.379,14.978,1012.846,340.375,0.05,0.027
1.131,4.416,20.786,51.957,20.911,52.271,0.477,1.939e-6,0.477,2.328e-4,2.288,5.719,22.175,120.893,9.788,12.25,0,0.248,2.906e-5,2.662e4,1.215e4,21.23,0.097,205.497,198.966,0.396,0.064,4.29e6,1655.692,4.86,0.624,0.775,0.288,0.215,0.121,3.279,1.297,-6.811e-5,0,0,0,0,1.477e-4,0.003,16.5,213.825,83.992,1.857e-5,4.569,14.971,1012.732,340.372,0.05,0.028
1.181,5.521,23.421,52.86,23.562,53.168,0.599,3.105e-6,0.599,2.97e-4,2.576,5.714,22.175,120.893,9.788,11.409,0,0.466,1.057e-5,2.647e4,1.199e4,21.166,0.096,206.574,198.607,0.483,0.072,4.811e6,1671.028,6.022,0.624,0.763,0.288,0.215,0.121,2.99,1.444,-8.037e-5,0,0,0,0,4.156e-4,0.003,16.5,213.825,83.974,1.789e-5,4.779,14.964,1012.602,340.367,0.05,0.028
1.231,6.759,26.115,54.061,26.272,54.375,0.735,4.618e-6,0.735,3.601e-4,2.866,5.829,22.175,120.893,9.788,10.068,0,0.762,7.897e-5,2.631e4,1.184e4,21.101,0.096,208.401,198.239,0.616,0.08,5.327e6,1694.094,7.188,0.624,0.743,0.288,0.216,0.121,2.549,1.569,-1.429e-4,0,0,0,0,9.046e-4,0.004,16.5,213.825,83.944,8.394e-6,4.684,14.956,1012.457,340.362,0.05,0.028
1.281,8.134,28.865,55.162,29.038,55.485,0.886,6.513e-6,0.886,4.214e-4,3.163,5.976,22.175,120.893,9.788,8.794,0,1.145,8.696e-6,2.616e4,1.168e4,21.035,0.096,210.283,197.862,0.753,0.088,5.852e6,1714.222,8.437,0.624,0.723,0.288,0.216,0.121,2.151,1.617,-2.619e-4,0,0,0,0,0.002,0.004,16.5,213.825,83.896,1.217e-6,4.516,14.947,1012.296,340.357,0.05,0.028
1.331,9.647,31.658,56.027,31.847,56.359,1.051,8.821e-6,1.051,4.808e-4,3.467,6.112,22.175,120.893,9.788,7.812,0,1.611,1.355e-4,2.6e4,1.152e4,20.967,0.096,211.842,197.478,0.871,0.096,6.391e6,1727.906,9.843,0.624,0.707,0.287,0.216,0.121,1.859,1.615,-3.365e-4,0,0,0,0,0.003,0.004,16.5,213.825,83.828,-1.074e-5,4.418,14.937,1012.119,340.351,0.05,0.029
1.381,11.301,34.496,56.942,34.702,57.282,1.232,1.157e-5,1.232,5.381e-4,3.777,6.239,22.175,120.893,9.788,7.224,0,2.16,1.599e-4,2.583e4,1.136e4,20.898,0.095,212.829,197.085,0.954,0.104,6.949e6,1742.723,11.484,0.625,0.698,0.287,0.216,0.121,1.69,1.608,1.74e-4,0,0,0,0,0.004,0.005,16.5,213.825,83.734,-5.876e-5,4.498,14.927,1011.925,340.344,0.05,0.029
1.431,13.098,37.399,58.229,37.622,58.589,1.429,1.479e-5,1.429,5.929e-4,4.097,6.481,22.175,120.893,9.788,6.54,0,2.809,1.801e-4,2.567e4,1.12e4,20.827,0.095,214.021,196.682,1.051,0.113,7.515e6,1767.008,13.231,0.625,0.687,0.287,0.216,0.122,1.499,1.569,2.103e-4,0,0,0,0,0.006,0.005,16.5,213.825,83.61,-1.075e-4,4.49,14.915,1011.714,340.337,0.05,0.029
1.481,15.042,40.357,59.346,40.599,59.73,1.642,1.848e-5,1.642,6.448e-4,4.43,6.768,22.175,120.893,9.788,5.869,0,3.532,1.447e-4,2.551e4,1.103e4,20.755,0.095,215.247,196.269,1.15,0.121,8.092e6,1786.669,15.121,0.625,0.677,0.287,0.216,0.122,1.319,1.508,4.235e-4,0,0,0,0,0.008,0.005,16.5,213.825,83.452,-1.458e-4,4.455,14.902,1011.486,340.33,0.05,0.029
1.531,17.135,43.384,60.714,43.646,61.131,1.873,2.268e-5,1.873,6.938e-4,4.78,7.129,22.175,120.893,9.788,5.323,0,4.341,-3.215e-5,2.534e4,1.086e4,20.68,0.095,216.287,195.845,1.239,0.13,8.686e6,1812.535,17.231,0.626,0.67,0.287,0.216,0.122,1.176,1.446,-1.901e-4,0,0,0,0,0.011,0.006,16.5,213.825,83.255,-1.35e-4,4.495,14.889,1011.24,340.321,0.05,0.029
1.581,19.382,46.49,62.318,46.775,62.781,2.121,2.74e-5,2.121,7.403e-4,5.152,7.607,22.175,120.893,9.788,4.759,0,5.231,7.773e-5,2.517e4,1.069e4,20.603,0.094,217.403,195.407,1.333,0.14,9.296e6,1844.161,19.52,0.626,0.662,0.287,0.217,0.123,1.033,1.364,-1.09e-4,0,0,0,0,0.014,0.006,16.5,213.825,83.016,-1.214e-4,4.512,14.874,1010.977,340.313,0.05,0.03
1.631,21.786,49.691,64.199,50,64.725,2.388,3.27e-5,2.388,7.845e-4,5.552,8.234,22.175,120.893,9.788,4.146,3.642e-7,6.179,3.715e-4,2.499e4,1.052e4,20.524,0.094,218.668,194.954,1.437,0.149,9.922e6,1882.472,21.996,0.627,0.655,0.287,0.217,0.123,0.883,1.251,-8.822e-5,0,0,0,0,0.017,0.007,16.5,213.825,82.731,-1.26e-4,4.48,14.858,1010.695,340.303,0.05,0.03
1.681,24.353,52.964,65.637,53.301,66.231,2.677,3.861e-5,2.677,8.266e-4,5.983,8.854,22.175,120.893,9.788,3.707,1.123e-6,7.166,5.974e-4,2.482e4,1.034e4,20.442,0.094,219.61,194.488,1.523,0.159,1.057e7,1909.35,24.788,0.627,0.65,0.287,0.217,0.123,0.778,1.164,-2.185e-4,0,0,0,0,0.02,0.007,16.5,213.825,82.398,-1.693e-4,4.608,14.842,1010.394,340.293,0.05,0.03
1.731,27.084,56.272,66.35,56.64,67.029,2.987,4.515e-5,2.987,8.66e-4,6.442,9.52,22.175,120.893,9.788,3.177,9.006e-7,8.22,8.496e-4,2.464e4,1.016e4,20.359,0.094,220.784,194.014,1.622,0.169,1.122e7,1918.283,27.728,0.628,0.645,0.287,0.217,0.124,0.656,1.04,-2.728e-4,0,0,0,0,0.024,0.008,16.5,213.825,82.013,-2.338e-4,4.663,14.824,1010.074,340.282,0.05,0.03
1.781,29.981,59.615,67.014,60.017,67.807,3.322,5.231e-5,3.322,9.024e-4,6.94,10.335,22.175,120.893,9.788,2.559,0,9.227,5.922e-4,2.446e4,9987.04,20.275,0.093,222.209,193.53,1.738,0.178,1.188e7,1926.46,30.825,0.628,0.64,0.287,0.218,0.124,0.517,0.872,-1.156e-4,0,0,0,0,0.027,0.008,16.5,213.825,81.577,-2.928e-4,4.628,14.805,1009.734,340.271,0.05,0.03
1.831,33.044,62.929,66.426,63.371,67.353,3.682,6.011e-5,3.682,9.355e-4,7.472,11.135,22.175,120.893,9.788,1.821,1.03e-6,10.145,0.001,2.429e4,9811.118,20.19,0.093,223.99,193.045,1.875,0.188,1.253e7,1904.644,34.02,0.629,0.635,0.287,0.218,0.125,0.359,0.644,2.966e-4,0,0,0,0,0.029,0.009,16.5,213.825,81.092,-2.918e-4,4.451,14.785,1009.374,340.259,0.05,0.031
1.881,36.27,66.116,63.852,66.602,64.906,4.069,6.858e-5,4.069,9.656e-4,8.031,11.653,22.175,120.893,9.788,1.194,-3.323e-6,10.825,0.002,2.412e4,9641.582,20.107,0.093,225.584,192.571,2.001,0.198,1.315e7,1835.474,37.355,0.63,0.632,0.287,0.218,0.125,0.23,0.431,4.764e-5,0,0,0,0,0.03,0.009,16.5,213.825,80.567,-3.124e-4,4.372,14.764,1008.996,340.246,0.05,0.031
1.931,39.655,69.283,63.442,69.818,64.663,4.485,7.774e-5,4.485,9.93e-4,8.633,12.506,22.175,120.893,9.788,0.727,-1.764e-6,11.326,0.004,2.395e4,9473.455,20.024,0.093,226.824,192.094,2.105,0.207,1.378e7,1820.229,40.968,0.63,0.631,0.287,0.218,0.126,0.138,0.261,4.972e-4,0,0,0,0,0.03,0.009,16.5,213.825,80.013,-3.566e-4,4.475,14.742,1008.599,340.233,0.05,0.031
1.981,43.201,72.544,65.324,73.137,66.769,4.933,8.762e-5,4.933,0.001,9.298,13.817,22.175,120.893,9.788,0.311,5.364e-7,11.616,0.01,2.378e4,9301.568,19.938,0.092,227.971,191.6,2.204,0.217,1.443e7,1860.956,44.943,0.631,0.631,0.286,0.219,0.126,0.058,0.099,-1.553e-4,0,0,0,0,0.028,0.01,16.5,213.825,79.438,-3.809e-4,4.634,14.719,1008.183,340.219,0.05,0.031
2.031,46.912,75.894,67.109,76.554,68.814,5.416,9.822e-5,5.416,0.001,10.031,15.224,22.175,120.893,9.788,0.141,-3.961e-6,-11.639,0.021,2.36e4,9126.117,19.849,0.092,228.463,191.087,2.265,0.227,1.51e7,1899.496,49.267,0.632,0.632,0.286,0.219,0.127,0.026,0.086,4.926e-4,0,0,0,0,-0.026,0.01,16.5,213.825,78.856,-4.223e-4,4.724,14.695,1007.748,340.204,0.05,0.032
2.081,50.793,79.342,69.042,80.079,71.05,5.938,1.095e-4,5.938,0.001,10.84,16.772,22.175,120.893,9.788,0.617,-5.102e-6,-11.278,0.005,2.342e4,8946.761,19.757,0.092,227.189,190.556,2.22,0.238,1.579e7,1941.791,53.995,0.633,0.634,0.286,0.219,0.127,0.117,0.282,-6.796e-5,0,0,0,0,-0.022,0.011,16.5,213.825,78.282,-4.142e-4,4.726,14.67,1007.293,340.189,0.05,0.032
2.131,54.846,82.813,69.488,83.637,71.807,6.502,1.216e-4,6.502,0.001,11.713,18.102,22.175,120.893,9.788,1.123,3.533e-6,-10.467,0.002,2.324e4,8766.738,19.663,0.092,225.886,190.014,2.174,0.248,1.648e7,1949.047,59.053,0.634,0.636,0.286,0.22,0.128,0.216,0.488,1.239e-4,0,0,0,0,-0.018,0.011,16.5,213.825,77.737,-3.933e-4,4.593,14.643,1006.817,340.173,0.05,0.032
2.181,59.074,86.271,69.223,87.193,71.852,7.11,1.346e-4,7.11,0.001,12.645,19.257,22.175,120.893,9.788,1.582,-4.848e-6,-9.093,0.002,2.306e4,8587.562,19.568,0.091,224.75,189.467,2.138,0.259,1.716e7,1939.854,64.399,0.635,0.639,0.286,0.22,0.129,0.31,0.675,-4.02e-4,0,0,0,0,-0.012,0.012,16.5,213.825,77.246,-3.645e-4,4.391,14.616,1006.322,340.156,0.05,0.032
2.231,63.474,89.748,69.617,90.778,72.526,7.767,1.484e-4,7.767,0.001,13.638,20.335,22.175,120.893,9.788,1.838,-5.381e-6,-7.203,0.003,2.288e4,8407.87,19.471,0.091,224.147,188.909,2.136,0.269,1.786e7,1945.437,70.019,0.636,0.642,0.286,0.221,0.129,0.364,0.784,-2.582e-4,0,0,0,0,-0.007,0.012,16.5,213.825,76.837,-2.684e-4,4.332,14.587,1005.806,340.139,0.05,0.032
2.281,68.049,93.257,70.289,94.405,73.434,8.475,1.633e-4,8.475,0.001,14.682,21.261,22.175,120.893,9.787,1.975,5.133e-7,-4.963,0.001,2.27e4,8227.163,19.372,0.091,223.844,188.339,2.152,0.28,1.856e7,1956.429,75.893,0.637,0.644,0.286,0.221,0.13,0.393,0.849,3.475e-6,0,0,0,0,-0.003,0.013,16.5,213.825,76.532,-8.048e-5,4.277,14.558,1005.269,340.121,0.05,0.033
2.331,72.799,96.76,70.222,98.034,73.47,9.236,1.797e-4,9.236,0.001,15.754,21.603,22.175,120.893,9.787,1.895,8.867e-7,-2.389,0.001,2.252e4,8047.232,19.272,0.091,224.071,187.762,2.201,0.291,1.927e7,1948.014,81.893,0.638,0.645,0.285,0.222,0.131,0.376,0.829,-1.992e-5,0,0,0,0,-6.723e-4,0.013,16.5,213.825,76.348,1.899e-4,4.382,14.527,1004.712,340.102,0.05,0.033
2.381,77.726,100.295,70.89,101.7,74.181,10.051,1.98e-4,10.051,0.001,16.842,21.851,22.175,120.893,9.787,1.757,4.942e-7,0.172,0.002,2.234e4,7866.644,19.171,0.09,224.444,187.175,2.259,0.301,1.998e7,1955.138,88.108,0.639,0.645,0.285,0.222,0.132,0.347,0.785,-3.859e-4,0,0,0,0,3.258e-6,0.014,16.5,213.825,76.293,6.108e-4,4.385,14.495,1004.134,340.083,0.05,0.033
2.431,82.83,103.88,71.923,105.418,75.182,10.92,2.189e-4,10.92,0.001,17.941,21.895,22.175,120.893,9.787,1.566,5.74e-7,2.832,0.002,2.216e4,7684.795,19.067,0.09,224.955,186.573,2.326,0.312,2.07e7,1968.808,94.564,0.64,0.645,0.285,0.223,0.133,0.308,0.715,-2.862e-5,0,0,0,0,8.179e-4,0.014,16.5,213.825,76.37,0.001,4.261,14.462,1003.535,340.063,0.05,0.033
2.481,88.115,107.527,73.254,109.198,76.312,11.845,2.432e-4,11.845,0.001,19.031,21.386,22.175,120.893,9.787,1.107,2.496e-6,5.256,0.002,2.198e4,7501.381,18.96,0.09,226.159,185.956,2.437,0.324,2.143e7,1985.734,101.314,0.642,0.644,0.285,0.223,0.134,0.214,0.519,3.23e-4,0,0,0,0,0.003,0.015,16.5,213.825,76.574,0.001,4.453,14.427,1002.916,340.042,0.05,0.034
2.531,93.584,111.218,74.122,113.016,76.911,12.823,2.714e-4,12.823,0.001,20.079,20.526,22.175,120.893,9.787,0.648,-7.848e-6,6.838,3.64e-4,2.179e4,7317.476,18.852,0.089,227.404,185.327,2.55,0.335,2.217e7,1991.05,108.432,0.643,0.644,0.285,0.224,0.135,0.123,0.31,-4.969e-4,0,0,0,0,0.004,0.015,16.5,213.825,76.88,0.002,4.529,14.392,1002.274,340.02,0.05,0.034
2.581,99.237,114.936,74.665,116.854,77.2,13.852,3.041e-4,13.852,0.001,21.081,19.618,22.175,120.893,9.787,0.324,0,7.834,6.123e-4,2.161e4,7133.711,18.741,0.089,228.318,184.688,2.644,0.346,2.29e7,1989.537,115.834,0.644,0.644,0.284,0.224,0.136,0.061,0.156,-2.339e-4,0,0,0,0,0.005,0.016,16.5,213.825,77.251,0.002,4.248,14.355,1001.611,339.998,0.05,0.034
2.631,105.077,118.666,74.919,120.694,77.141,14.93,3.412e-4,14.93,0.001,22.031,18.382,22.175,120.893,9.787,0.085,6.347e-6,-8.191,-1.492e-4,2.143e4,6950.733,18.63,0.089,229.02,184.04,2.726,0.357,2.363e7,1981.005,123.646,0.646,0.646,0.284,0.225,0.137,0.016,0.048,-3.844e-4,0,0,0,0,-0.005,0.016,16.5,213.825,77.655,0.002,4.13,14.317,1000.926,339.975,0.05,0.034
2.681,111.104,122.407,75.133,124.533,77.03,16.054,3.832e-4,16.054,0.001,22.912,16.988,22.175,120.893,9.787,0.527,1.561e-6,-7.33,-8.167e-4,2.124e4,6768.605,18.517,0.089,227.855,183.385,2.695,0.369,2.437e7,1971.826,131.954,0.647,0.648,0.284,0.226,0.138,0.1,0.274,3.278e-4,0,0,0,0,-0.004,0.017,16.5,213.825,78.047,0.002,4.191,14.278,1000.219,339.951,0.05,0.034
2.731,117.318,126.149,75.094,128.361,76.744,17.22,4.306e-4,17.22,0.001,23.726,15.828,22.175,120.893,9.787,0.812,-7.769e-6,-5.379,5.815e-4,2.106e4,6587.653,18.403,0.088,227.14,182.722,2.692,0.38,2.51e7,1959.073,140.512,0.649,0.65,0.284,0.226,0.139,0.156,0.422,1.416e-4,0,0,0,0,-0.002,0.017,16.5,213.825,78.368,0.003,4.124,14.237,999.491,339.927,0.05,0.035
2.781,123.719,129.894,75.14,132.184,76.624,18.425,4.841e-4,18.425,0.002,24.494,15.005,22.175,120.893,9.787,0.993,-2.071e-6,-2.709,0.001,2.088e4,6407.538,18.288,0.088,226.715,182.051,2.707,0.391,2.583e7,1950.026,149.364,0.65,0.652,0.283,0.227,0.14,0.192,0.522,3.388e-4,0,0,0,0,-4.774e-4,0.018,16.5,213.825,78.572,0.003,4.124,14.196,998.74,339.902,0.05,0.035
2.831,130.306,133.606,74.383,135.966,75.808,19.668,5.442e-4,19.668,0.002,25.225,14.631,22.175,120.893,9.787,0.992,0,0.613,-0.002,2.071e4,6229.576,18.172,0.088,226.767,181.377,2.751,0.402,2.655e7,1926.697,158.244,0.652,0.654,0.283,0.228,0.141,0.192,0.529,-3.134e-4,0,0,0,0,2.309e-5,0.018,16.5,213.825,78.623,0.003,4.081,14.153,997.967,339.876,0.05,0.035
2.881,137.076,137.2,71.946,139.631,73.431,20.947,6.109e-4,20.947,0.002,25.941,14.692,22.175,120.893,9.787,0.781,6.342e-6,3.752,0.002,2.053e4,6056.698,18.058,0.088,227.368,180.711,2.828,0.413,2.724e7,1871.671,166.852,0.653,0.655,0.283,0.228,0.142,0.15,0.424,-3.51e-5,0,0,0,0,8.217e-4,0.019,16.5,213.825,78.51,0.003,3.897,14.109,997.173,339.849,0.05,0.035
2.931,144.023,140.683,69.681,143.19,71.326,22.263,6.842e-4,22.263,0.002,26.677,15.231,22.175,120.893,9.787,0.494,1.41e-6,6.095,0.002,2.036e4,5888.294,17.945,0.087,228.179,180.051,2.917,0.424,2.791e7,1823.229,175.498,0.655,0.655,0.283,0.229,0.143,0.094,0.272,-4.485e-4,0,0,0,0,0.002,0.019,16.5,213.825,78.258,0.003,3.823,14.064,996.358,339.822,0.05,0.035
2.981,151.142,144.055,67.412,146.646,69.286,23.616,7.633e-4,23.616,0.002,27.447,16.005,22.175,120.893,9.787,0.188,1.089e-5,7.468,0.006,2.02e4,5724.161,17.833,0.087,229.06,179.397,3.01,0.434,2.857e7,1776.994,184.27,0.657,0.657,0.282,0.23,0.144,0.036,0.104,2.874e-4,0,0,0,0,0.003,0.02,16.5,213.825,77.911,0.002,3.889,14.018,995.524,339.794,0.05,0.036
3.031,158.425,147.271,64.269,149.955,66.371,25.008,8.469e-4,25.008,0.002,28.247,16.57,22.175,120.893,9.787,0.077,-1.018e-5,-7.626,0.028,2.004e4,5565.832,17.723,0.087,229.416,178.757,3.07,0.444,2.921e7,1714.157,193.072,0.658,0.658,0.282,0.23,0.146,0.014,0.047,9.571e-5,0,0,0,0,-0.003,0.02,16.5,213.825,77.528,0.002,4.106,13.97,994.669,339.765,0.05,0.036
3.081,165.864,150.302,60.526,153.088,62.924,26.44,9.339e-4,26.44,0.002,29.07,17.207,22.175,120.893,9.787,0.405,-1.888e-5,-6.646,0.009,1.989e4,5414.226,17.616,0.087,228.562,178.134,3.056,0.453,2.979e7,1641.368,201.568,0.66,0.66,0.282,0.231,0.147,0.077,0.238,7.504e-5,0,0,0,0,-0.002,0.021,16.5,213.825,77.166,0.001,4.044,13.922,993.797,339.736,0.05,0.036
3.131,173.45,153.122,56.325,156.018,58.958,27.915,0.001,27.915,0.002,29.918,17.423,22.175,120.893,9.787,0.652,2.187e-6,-3.867,-3.189e-4,1.975e4,5270.198,17.514,0.086,227.941,177.533,3.055,0.462,3.034e7,1559.33,209.689,0.661,0.662,0.282,0.232,0.148,0.126,0.385,4.247e-5,0,0,0,0,-7.001e-4,0.021,16.5,213.825,76.9,0.001,3.86,13.873,992.907,339.706,0.05,0.036
3.181,181.169,155.652,50.597,158.658,53.206,29.431,0.001,29.431,0.002,30.736,16.457,22.175,120.893,9.787,0.7,-1.416e-6,-0.288,0.001,1.961e4,5136.823,17.417,0.086,227.854,176.969,3.084,0.469,3.083e7,1443.981,217.083,0.662,0.663,0.281,0.232,0.149,0.135,0.417,-2.533e-4,0,0,0,0,-3.745e-6,0.021,16.5,213.825,76.797,0.001,3.767,13.822,992.002,339.675,0.05,0.036
3.231,189.006,157.823,43.517,160.928,45.747,30.986,0.001,30.986,0.002,31.464,14.108,22.175,120.893,9.787,0.5,-2.616e-6,3.127,-0.002,1.949e4,5016.93,17.33,0.086,228.424,176.455,3.15,0.476,3.125e7,1298.007,223.465,0.664,0.664,0.281,0.233,0.149,0.096,0.302,2.25e-4,0,0,0,0,4.303e-4,0.022,16.5,213.825,76.874,0.002,3.889,13.771,991.083,339.644,0.05,0.037
3.281,196.942,159.631,36.236,162.818,38.04,32.574,0.001,32.574,0.002,32.058,11.576,22.175,120.893,9.787,0.301,1.18e-5,5.112,0.003,1.939e4,4910.835,17.251,0.086,228.991,175.995,3.212,0.482,3.159e7,1148.651,228.639,0.664,0.665,0.281,0.233,0.15,0.057,0.183,2.642e-5,0,0,0,0,0.001,0.022,16.5,213.825,77.09,0.002,3.668,13.72,990.152,339.613,0.05,0.037
3.331,204.959,161.034,28.213,164.284,29.441,34.189,0.001,34.189,0.002,32.515,8.417,22.175,120.893,9.787,0.02,-2.541e-5,-6.275,0.035,1.93e4,4819.954,17.183,0.086,229.788,175.597,3.284,0.486,3.185e7,983.929,232.741,0.665,0.665,0.281,0.234,0.151,0.004,0.014,2.742e-4,0,0,0,0,-0.002,0.022,16.5,213.825,77.385,0.003,3.594,13.668,989.212,339.582,0.05,0.037
3.381,213.035,162.024,19.877,165.311,20.564,35.822,0.002,35.822,0.002,32.805,5.27,22.175,120.893,9.787,0.332,-3.282e-6,-4.962,5.039e-4,1.922e4,4744.715,17.127,0.086,228.945,175.265,3.253,0.489,3.203e7,814.576,235.755,0.666,0.666,0.281,0.234,0.151,0.063,0.208,-2.108e-4,0,0,0,0,-0.001,0.022,16.5,213.825,77.674,0.004,3.617,13.615,988.265,339.55,0.05,0.037
3.431,221.152,162.656,12.706,165.963,13.036,37.467,0.002,37.467,0.002,32.966,2.913,22.175,120.893,9.787,0.521,2.722e-6,-2.338,-0.002,1.916e4,4682.75,17.08,0.086,228.447,174.989,3.24,0.491,3.213e7,670.862,237.651,0.666,0.667,0.281,0.234,0.151,0.1,0.325,-2.518e-4,0,0,0,0,-2.263e-4,0.022,16.5,213.825,77.861,0.005,3.593,13.563,987.313,339.518,0.05,0.037
3.481,229.293,162.951,5.846,166.265,6.058,39.117,0.002,39.117,0.003,33.035,1.59,22.175,120.893,9.787,0.475,-7.044e-7,0.983,0.001,1.911e4,4633.166,17.042,0.085,228.574,174.767,3.261,0.492,3.216e7,536.827,238.193,0.666,0.667,0.281,0.234,0.151,0.091,0.297,-4.015e-4,0,0,0,0,3.994e-5,0.023,16.5,213.825,77.891,0.004,3.352,13.51,986.358,339.486,0.05,0.037
3.531,237.439,162.913,-0.741,166.233,0.861,40.769,0.002,40.769,0.003,33.055,0.438,22.175,120.893,9.787,0.409,-1.522e-6,3.429,-4.096e-5,1.907e4,4595.435,17.013,0.085,228.752,174.598,3.282,0.492,3.214e7,408.489,237.94,0.666,0.667,0.281,0.234,0.151,0.078,0.256,2.026e-4,0,0,0,0,4.855e-4,0.023,16.5,213.825,77.774,0.004,3.457,13.457,985.402,339.454,0.05,0.038
3.581,245.578,162.628,-5.755,165.949,5.755,42.421,0.002,42.421,0.003,33.035,0.027,22.175,120.893,9.787,0.246,-1.807e-5,5.751,0.003,1.904e4,4566.618,16.991,0.085,229.191,174.468,3.317,0.491,3.207e7,311.985,236.949,0.666,0.666,0.281,0.234,0.151,0.047,0.154,4.347e-4,0,0,0,0,0.001,0.022,16.5,213.825,77.535,0.003,3.649,13.404,984.448,339.422,0.05,0.038
3.631,253.697,162.145,-9.7,165.472,9.7,44.072,0.002,44.072,0.003,33.013,0.053,22.175,120.893,9.787,0.014,1.665e-5,6.47,0.064,1.902e4,4544.733,16.974,0.085,229.824,174.369,3.361,0.49,3.197e7,236.943,235.379,0.666,0.666,0.281,0.234,0.151,0.003,0.008,-2.975e-4,0,0,0,0,0.002,0.022,16.5,213.825,77.221,0.003,3.789,13.351,983.496,339.39,0.05,0.038
3.681,261.788,161.499,-12.927,164.835,12.928,45.722,0.002,45.722,0.003,32.992,0.188,22.175,120.893,9.787,0.156,1.255e-5,-5.936,0.005,1.9e4,4528.591,16.961,0.085,229.422,174.295,3.341,0.488,3.184e7,174.76,233.513,0.666,0.666,0.281,0.234,0.151,0.03,0.1,1.158e-4,0,0,0,0,-0.001,0.022,16.5,213.825,76.904,0.003,4.097,13.298,982.547,339.358,0.05,0.038
3.731,269.844,160.714,-15.726,164.06,15.728,47.371,0.002,47.371,0.003,32.964,0.204,22.175,120.893,9.787,0.342,8.44e-6,-4.555,0.002,1.899e4,4517.445,16.953,0.085,228.904,174.245,3.313,0.486,3.167e7,120.672,231.153,0.665,0.666,0.281,0.234,0.151,0.065,0.217,2.761e-4,0,0,0,0,-8.776e-4,0.022,16.5,213.825,76.638,0.004,4.187,13.246,981.602,339.326,0.05,0.038
3.781,277.857,159.81,-18.043,163.17,18.046,49.018,0.003,49.018,0.003,32.94,0.317,22.175,120.893,9.787,0.473,9.163e-6,-1.947,-3.49e-4,1.899e4,4510.545,16.947,0.085,228.534,174.213,3.292,0.483,3.148e7,74.706,228.354,0.665,0.665,0.281,0.233,0.15,0.091,0.299,-9.148e-5,0,0,0,0,-1.621e-4,0.022,16.5,213.825,76.476,0.004,4.089,13.194,980.662,339.294,0.05,0.038
3.831,285.823,158.839,-19.314,162.211,19.332,50.664,0.003,50.664,0.003,32.906,0.834,22.175,120.893,9.787,0.421,2.495e-6,0.9,0.003,1.898e4,4506.296,16.944,0.085,228.66,174.194,3.301,0.481,3.128e7,46.005,225.359,0.664,0.665,0.281,0.233,0.15,0.081,0.266,-1.907e-4,0,0,0,0,3.504e-5,0.022,16.5,213.825,76.453,0.004,4.124,13.142,979.728,339.263,0.05,0.039
3.881,293.74,157.836,-19.917,161.217,19.969,52.308,0.003,52.308,0.003,32.843,1.449,22.175,120.893,9.787,0.288,-2.092e-6,2.913,0.003,1.898e4,4503.619,16.942,0.085,229.007,174.182,3.323,0.478,3.107e7,28.976,222.185,0.664,0.664,0.281,0.233,0.15,0.055,0.182,-1.683e-4,0,0,0,0,3.716e-4,0.022,16.5,213.825,76.556,0.005,4.06,13.091,978.799,339.232,0.05,0.039
3.931,301.606,156.824,-20.092,160.208,20.195,53.948,0.003,53.948,0.003,32.753,2.038,22.175,120.893,9.787,0.122,6.842e-6,4.159,0.003,1.898e4,4501.783,16.941,0.085,229.447,174.174,3.35,0.475,3.085e7,19.875,218.926,0.663,0.663,0.281,0.233,0.149,0.023,0.076,-1.179e-4,0,0,0,0,7.678e-4,0.022,16.5,213.825,76.74,0.005,3.86,13.04,977.877,339.201,0.05,0.039
3.981,309.422,155.815,-20.026,159.195,20.218,55.583,0.003,55.583,0.003,32.632,2.777,22.175,120.893,9.787,0.115,-1.134e-5,-4.264,0.011,1.898e4,4500.416,16.939,0.085,229.449,174.167,3.35,0.472,3.063e7,14.809,215.823,0.663,0.663,0.281,0.233,0.149,0.022,0.073,1.504e-4,0,0,0,0,-8.172e-4,0.022,16.5,213.825,76.958,0.006,3.806,12.989,976.96,339.17,0.05,0.039
4,312.34,155.438,-20.047,158.815,20.284,56.194,0.003,56.194,0.003,32.576,3.091,22.175,120.893,9.787,0.213,3.064e-7,-3.897,0.003,1.898e4,4500,16.939,0.085,229.174,174.165,3.334,0.471,3.055e7,11.991,214.709,0.663,0.663,0.281,0.232,0.149,0.04,0.136,4.589e-5,0,0,0,0,-6.86e-4,0.022,16.5,213.825,77.035,0.006,3.821,12.97,976.618,339.159,0.019,0.039
4.028,316.704,154.859,-20.473,158.229,20.802,57.109,0.003,57.109,0.003,32.479,3.686,22.175,120.893,9.787,0.369,1.827e-6,-2.955,8.688e-4,1.898e4,4500,16.939,0.085,228.74,174.165,3.308,0.469,3.043e7,0,213.098,0.662,0.663,0.281,0.232,0.149,0.07,0.233,-4.379e-4,0,0,0,0,-3.97e-4,0.021,16.5,213.825,77.132,0.006,3.953,12.941,976.106,339.141,0.028,0.04
4.07,323.219,154.001,-20.255,157.354,20.66,58.476,0.003,58.476,0.003,32.313,4.071,22.175,120.893,9.787,0.508,1.427e-6,-0.792,-0.001,1.898e4,4500,16.939,0.085,228.351,174.165,3.284,0.467,3.026e7,0,210.66,0.662,0.662,0.281,0.232,0.148,0.097,0.32,4.293e-5,0,0,0,0,-2.88e-5,0.021,16.5,213.825,77.213,0.006,4.09,12.899,975.342,339.116,0.042,0.04
4.12,330.893,152.992,-20.1,156.325,20.502,60.086,0.004,60.086,0.003,32.107,4.042,22.175,120.893,9.787,0.515,1.837e-6,2.083,0.001,1.898e4,4500,16.939,0.085,228.318,174.165,3.282,0.464,3.005e7,0,207.672,0.661,0.662,0.282,0.232,0.148,0.099,0.324,-4.266e-4,0,0,0,0,2.021e-4,0.021,16.5,213.825,77.179,0.006,4.169,12.849,974.442,339.086,0.05,0.04
4.17,338.518,151.989,-20.059,155.304,20.356,61.687,0.004,61.687,0.004,31.916,3.46,22.175,120.893,9.787,0.336,5.691e-6,4.595,-0.003,1.898e4,4500,16.939,0.085,228.787,174.165,3.31,0.461,2.983e7,0,204.539,0.661,0.661,0.282,0.232,0.148,0.064,0.211,4.664e-4,0,0,0,0,9.962e-4,0.021,16.5,213.825,77.005,0.006,4.097,12.8,973.548,339.055,0.05,0.04
4.22,346.092,150.985,-20.086,154.291,20.255,63.279,0.004,63.279,0.004,31.766,2.61,22.175,120.893,9.787,0.053,-7.325e-6,5.498,-0.012,1.898e4,4500,16.939,0.085,229.55,174.165,3.357,0.458,2.961e7,0,201.427,0.66,0.66,0.282,0.231,0.147,0.01,0.032,-4.306e-4,0,0,0,0,0.001,0.021,16.5,213.825,76.744,0.007,3.931,12.75,972.659,339.026,0.05,0.041
4.27,353.616,149.981,-20.078,153.284,20.177,64.864,0.004,64.864,0.004,31.653,2.001,22.175,120.893,9.787,0.16,-2.002e-6,-5.167,-0.003,1.898e4,4500,16.939,0.085,229.239,174.165,3.338,0.455,2.94e7,0,198.583,0.66,0.66,0.282,0.231,0.147,0.03,0.102,3.626e-4,0,0,0,0,-0.001,0.021,16.5,213.825,76.47,0.006,3.979,12.701,971.777,338.996,0.05,0.041
4.32,361.09,148.978,-20.036,152.285,20.097,66.444,0.004,66.444,0.004,31.565,1.571,22.175,120.893,9.787,0.313,-1.916e-6,-3.962,-0.002,1.898e4,4500,16.939,0.085,228.806,174.165,3.312,0.452,2.92e7,0,195.829,0.659,0.66,0.282,0.231,0.147,0.059,0.197,7.277e-5,0,0,0,0,-7.701e-4,0.021,16.5,213.825,76.238,0.006,4.052,12.653,970.9,338.967,0.05,0.041
4.37,368.514,147.977,-19.972,151.292,20.009,68.021,0.005,68.021,0.004,31.495,1.226,22.175,120.893,9.787,0.433,7.589e-6,-2.04,-0.005,1.898e4,4500,16.939,0.085,228.464,174.165,3.291,0.449,2.899e7,0,193.029,0.659,0.659,0.282,0.231,0.146,0.083,0.272,2.736e-4,0,0,0,0,-2.069e-4,0.021,16.5,213.825,76.088,0.005,3.964,12.605,970.029,338.937,0.05,0.041
4.42,375.888,146.982,-19.786,150.306,19.834,69.594,0.005,69.594,0.004,31.437,1.381,22.175,120.893,9.787,0.376,2.249e-6,0.361,-0.005,1.898e4,4500,16.939,0.085,228.607,174.165,3.299,0.446,2.879e7,0,190.301,0.659,0.659,0.282,0.231,0.146,0.072,0.236,-3.038e-4,0,0,0,0,6.557e-6,0.02,16.5,213.825,76.048,0.005,4.049,12.557,969.165,338.908,0.05,0.042
4.47,383.213,146,-19.542,149.328,19.623,71.164,0.005,71.164,0.004,31.352,1.774,22.175,120.893,9.787,0.225,5.727e-7,1.464,-0.005,1.898e4,4500,16.939,0.085,229.004,174.165,3.324,0.443,2.859e7,0,187.627,0.658,0.658,0.282,0.23,0.146,0.043,0.142,2.226e-4,0,0,0,0,1.092e-4,0.02,16.5,213.825,76.1,0.004,4.19,12.509,968.306,338.879,0.05,0.042
4.52,390.488,145.027,-19.318,148.358,19.429,72.729,0.005,72.729,0.004,31.26,2.072,22.175,120.893,9.787,0.1,1.368e-6,2.661,-0.007,1.898e4,4500,16.939,0.085,229.337,174.165,3.344,0.441,2.839e7,0,184.865,0.658,0.658,0.282,0.23,0.145,0.019,0.062,2.844e-4,0,0,0,0,3.658e-4,0.02,16.5,213.825,76.208,0.005,4.071,12.462,967.452,338.851,0.05,0.042
4.57,397.716,144.069,-19.04,147.396,19.224,74.289,0.005,74.289,0.004,31.14,2.656,22.175,120.893,9.786,0.137,0,-2.394,-0.009,1.898e4,4500,16.939,0.085,229.222,174.165,3.337,0.438,2.82e7,0,182.363,0.657,0.657,0.282,0.23,0.145,0.026,0.086,1.395e-4,0,0,0,0,-2.997e-4,0.02,16.5,213.825,76.338,0.005,4.258,12.415,966.605,338.822,0.05,0.042
4.62,404.895,143.123,-18.798,146.441,19.054,75.843,0.006,75.843,0.004,30.996,3.112,22.175,120.893,9.786,0.326,4.491e-6,-1.358,-0.007,1.898e4,4500,16.939,0.085,228.688,174.165,3.304,0.435,2.801e7,0,179.922,0.657,0.657,0.282,0.23,0.145,0.062,0.204,-2.509e-4,0,0,0,0,-9.763e-5,0.02,16.5,213.825,76.436,0.007,4.407,12.368,965.763,338.794,0.05,0.043
4.67,412.028,142.188,-18.638,145.493,18.913,77.389,0.006,77.389,0.004,30.832,3.212,22.175,120.893,9.786,0.381,2.096e-6,0.615,-0.002,1.898e4,4500,16.939,0.085,228.526,174.165,3.295,0.432,2.781e7,0,177.415,0.656,0.657,0.282,0.23,0.144,0.072,0.238,2.285e-4,0,0,0,0,2.032e-5,0.02,16.5,213.825,76.456,0.008,4.436,12.322,964.926,338.766,0.05,0.043
4.72,419.114,141.258,-18.57,144.551,18.794,78.926,0.006,78.926,0.004,30.681,2.892,22.175,120.893,9.786,0.273,5.24e-6,1.977,-0.006,1.898e4,4500,16.939,0.085,228.806,174.165,3.312,0.43,2.761e7,0,174.749,0.656,0.656,0.282,0.229,0.144,0.052,0.172,9.397e-5,0,0,0,0,2.126e-4,0.02,16.5,213.825,76.388,0.009,4.231,12.276,964.095,338.738,0.05,0.043
4.77,426.154,140.331,-18.515,143.617,18.689,80.457,0.006,80.457,0.004,30.544,2.548,22.175,120.893,9.786,0.147,-2.847e-6,3.063,-0.015,1.898e4,4500,16.939,0.085,229.14,174.165,3.332,0.427,2.741e7,0,172.212,0.655,0.656,0.283,0.229,0.144,0.028,0.091,-2.228e-4,0,0,0,0,5.167e-4,0.019,16.5,213.825,76.257,0.01,4.155,12.23,963.269,338.71,0.05,0.043
4.82,433.147,139.406,-18.476,142.688,18.601,81.981,0.006,81.981,0.004,30.428,2.152,22.175,120.893,9.786,0.006,-4.681e-6,-3.295,-0.269,1.898e4,4500,16.939,0.085,229.519,174.165,3.355,0.424,2.722e7,0,169.721,0.655,0.655,0.283,0.229,0.143,0.001,0.005,1.324e-4,0,0,0,0,-6.059e-4,0.019,16.5,213.825,76.094,0.01,4.061,12.185,962.449,338.683,0.05,0.044
4.87,440.095,138.484,-18.408,141.765,18.507,83.5,0.007,83.5,0.005,30.327,1.915,22.175,120.893,9.786,0.101,1.228e-6,-3.035,-0.017,1.898e4,4500,16.939,0.085,229.245,174.165,3.338,0.421,2.703e7,0,167.368,0.655,0.655,0.283,0.229,0.143,0.019,0.064,-9.363e-5,0,0,0,0,-5.205e-4,0.019,16.5,213.825,75.933,0.009,4.109,12.139,961.634,338.655,0.05,0.044
4.92,446.996,137.566,-18.308,140.849,18.399,85.014,0.007,85.014,0.005,30.235,1.825,22.175,120.893,9.786,0.135,8.106e-7,-2.489,-0.007,1.898e4,4500,16.939,0.085,229.137,174.165,3.332,0.419,2.685e7,0,165.101,0.654,0.654,0.283,0.229,0.143,0.025,0.086,3.955e-4,0,0,0,0,-3.544e-4,0.019,16.5,213.825,75.794,0.008,4.242,12.095,960.825,338.628,0.05,0.044
4.97,453.851,136.653,-18.195,139.938,18.283,86.523,0.007,86.523,0.005,30.144,1.791,22.175,120.893,9.786,0.146,2.944e-6,-1.906,-0.003,1.898e4,4500,16.939,0.085,229.096,174.165,3.329,0.416,2.667e7,0,162.855,0.654,0.654,0.283,0.229,0.143,0.027,0.091,-2.379e-4,0,0,0,0,-2.105e-4,0.019,16.5,213.825,75.684,0.007,4.358,12.05,960.021,338.601,0.05,0.044
5.02,460.661,135.746,-18.105,139.034,18.18,88.028,0.007,88.028,0.005,30.056,1.653,22.175,120.893,9.786,0.198,3.956e-6,-1.241,-0.003,1.898e4,4500,16.939,0.085,228.94,174.165,3.32,0.414,2.648e7,0,160.538,0.653,0.654,0.283,0.228,0.142,0.037,0.124,-2.678e-4,0,0,0,0,-9.04e-5,0.019,16.5,213.825,75.607,0.006,4.281,12.006,959.222,338.574,0.05,0.045
5.07,467.426,134.843,-17.995,138.135,18.065,89.529,0.008,89.529,0.005,29.978,1.593,22.175,120.893,9.786,0.215,2.119e-6,-0.184,0.002,1.898e4,4500,16.939,0.085,228.88,174.165,3.316,0.411,2.629e7,0,158.231,0.653,0.653,0.283,0.228,0.142,0.041,0.134,-3.515e-4,0,0,0,0,-2.007e-6,0.019,16.5,213.825,75.571,0.006,4.17,11.962,958.429,338.548,0.05,0.045
5.12,474.146,133.947,-17.834,137.242,17.92,91.026,0.008,91.026,0.005,29.894,1.752,22.175,120.893,9.786,0.137,2.357e-6,0.481,-0.003,1.898e4,4500,16.939,0.085,229.085,174.165,3.328,0.408,2.611e7,0,156.03,0.653,0.653,0.283,0.228,0.142,0.026,0.086,1.003e-4,0,0,0,0,1.395e-5,0.019,16.5,213.825,75.58,0.006,4.21,11.918,957.641,338.521,0.05,0.045
5.17,480.821,133.059,-17.668,136.356,17.774,92.519,0.008,92.519,0.005,29.802,1.936,22.175,120.893,9.786,0.043,1.92e-6,0.912,-0.011,1.898e4,4500,16.939,0.085,229.336,174.165,3.344,0.406,2.593e7,0,153.846,0.652,0.652,0.283,0.228,0.141,0.008,0.027,-3.973e-4,0,0,0,0,5.081e-5,0.018,16.5,213.825,75.618,0.006,4.215,11.875,956.858,338.495,0.05,0.045
