Time (s),Altitude (m),Vertical velocity (m/s),Vertical acceleration (m/s²),Total velocity (m/s),Total acceleration (m/s²),Position East of launch (m),Position North of launch (m),Lateral distance (m),Lateral direction (°),Lateral velocity (m/s),Lateral acceleration (m/s²),Latitude (°),Longitude (°),Gravitational acceleration (m/s²),Angle of attack (°),Roll rate (°/s),Pitch rate (°/s),Yaw rate (°/s),Mass (g),Motor mass (g),Longitudinal moment of inertia (kg·m²),Rotational moment of inertia (kg·m²),CP location (cm),CG location (cm),Stability margin calibers (​),Mach number (​),Reynolds number (​),Thrust (N),Drag force (N),Drag coefficient (​),Axial drag coefficient (​),Friction drag coefficient (​),Pressure drag coefficient (​),Base drag coefficient (​),Normal force coefficient (​),Pitch moment coefficient (​),Yaw moment coefficient (​),Side force coefficient (​),Roll moment coefficient (​),Roll forcing coefficient (​),Roll damping coefficient (​),Pitch damping coefficient (​),Coriolis acceleration (m/s²),Reference length (cm),Reference area (cm²),Vertical orientation (zenith) (°),Lateral orientation (azimuth) (°),Wind velocity (m/s),Air temperature (°C),Air pressure (mbar),Speed of sound (m/s),Simulation time step (s),Computation time (s)
0.01,-4.772e-4,-0.095,-9.54,0.096,9.593,-5.015e-5,0,5.015e-5,180,0.01,1.003,22.175,120.893,9.788,98.608,0,0,0,2.798e4,1.35e4,21.757,0.099,NaN,201.939,NaN,0.006,4.11e5,3.946,-3.329e-4,0.744,-0.006,0.409,0.215,0.12,NaN,NaN,NaN,NaN,NaN,NaN,NaN,NaN,1.297e-5,16.5,213.825,84,0,2.084,15,1013.25,340.389,0.01,0.004
0.02,-4.78e-4,-0.096,-9.56,0.096,9.613,-5.024e-5,0,5.024e-5,180,0.01,1.005,22.175,120.893,9.788,98.607,0,0,0,2.798e4,1.35e4,21.757,0.099,NaN,201.939,NaN,0.006,4.12e5,3.399,-3.343e-4,0.744,-0.006,0.409,0.215,0.12,NaN,NaN,NaN,NaN,NaN,NaN,NaN,NaN,1.299e-5,16.5,213.825,84,0,2.089,15,1013.25,340.389,0.01,0.004
0.03,-4.766e-4,-0.095,-9.532,0.096,9.584,-5.009e-5,0,5.009e-5,180,0.01,1.002,22.175,120.893,9.788,98.593,0,0,0,2.798e4,1.35e4,21.757,0.099,NaN,201.939,NaN,0.006,4.13e5,4.196,-3.342e-4,0.744,-0.006,0.408,0.215,0.12,NaN,NaN,NaN,NaN,NaN,NaN,NaN,NaN,1.296e-5,16.5,213.825,84,0,2.094,15,1013.25,340.389,0.01,0.005
0.04,-4.78e-4,-0.096,-9.56,0.096,9.612,-5.024e-5,0,5.024e-5,180,0.01,1.005,22.175,120.893,9.788,98.595,0,0,0,2.798e4,1.35e4,21.757,0.099,NaN,201.939,NaN,0.006,4.14e5,3.408,-3.359e-4,0.743,-0.006,0.408,0.215,0.12,NaN,NaN,NaN,NaN,NaN,NaN,NaN,NaN,1.299e-5,16.5,213.825,84,0,2.099,15,1013.25,340.389,0.01,0.005
0.05,-4.776e-4,-0.096,-9.551,0.096,9.604,-5.019e-5,0,5.019e-5,180,0.01,1.004,22.175,120.893,9.788,98.586,0,0,0,2.798e4,1.35e4,21.757,0.099,NaN,201.939,NaN,0.006,4.15e5,3.638,-3.364e-4,0.743,-0.006,0.408,0.215,0.12,NaN,NaN,NaN,NaN,NaN,NaN,NaN,NaN,1.298e-5,16.5,213.825,84,0,2.105,15,1013.25,340.389,0.01,0.005
0.06,-4.772e-4,-0.095,-9.544,0.096,9.597,-5.016e-5,0,5.016e-5,180,0.01,1.003,22.175,120.893,9.788,98.6,0,0,0,2.798e4,1.35e4,21.757,0.099,NaN,201.939,NaN,0.006,4.125e5,3.848,-3.342e-4,0.744,-0.006,0.409,0.215,0.12,NaN,NaN,NaN,NaN,NaN,NaN,NaN,NaN,1.297e-5,16.5,213.825,84,0,2.092,15,1013.25,340.389,0.01,0.005
0.07,-4.775e-4,-0.096,-9.551,0.096,9.603,-5.019e-5,0,5.019e-5,180,0.01,1.004,22.175,120.893,9.788,98.617,0,0,0,2.798e4,1.35e4,21.757,0.099,NaN,201.939,NaN,0.006,4.101e5,3.653,-3.324e-4,0.744,-0.006,0.409,0.215,0.12,NaN,NaN,NaN,NaN,NaN,NaN,NaN,NaN,1.298e-5,16.5,213.825,84,0,2.079,15,1013.25,340.389,0.01,0.006
0.08,-4.766e-4,-0.095,-9.533,0.096,9.585,-5.01e-5,0,5.01e-5,180,0.01,1.002,22.175,120.893,9.788,98.628,0,0,0,2.798e4,1.35e4,21.757,0.099,NaN,201.938,NaN,0.006,4.076e5,4.165,-3.299e-4,0.745,-0.006,0.41,0.215,0.12,NaN,NaN,NaN,NaN,NaN,NaN,NaN,NaN,1.296e-5,16.5,213.825,84,0,2.067,15,1013.25,340.389,0.01,0.006
0.09,-4.769e-4,-0.095,-9.537,0.096,9.59,-5.012e-5,0,5.012e-5,180,0.01,1.002,22.175,120.893,9.788,98.645,0,0,0,2.798e4,1.35e4,21.757,0.099,NaN,201.938,NaN,0.006,4.051e5,4.039,-3.28e-4,0.745,-0.006,0.41,0.215,0.12,NaN,NaN,NaN,NaN,NaN,NaN,NaN,NaN,1.296e-5,16.5,213.825,84,0,2.054,15,1013.25,340.389,0.01,0.006
0.1,-4.775e-4,-0.095,-9.55,0.096,9.602,-5.019e-5,0,5.019e-5,180,0.01,1.004,22.175,120.893,9.788,98.665,0,0,0,2.798e4,1.35e4,21.757,0.099,NaN,201.938,NaN,0.006,4.027e5,3.684,-3.264e-4,0.746,-0.006,0.411,0.215,0.12,NaN,NaN,NaN,NaN,NaN,NaN,NaN,NaN,1.298e-5,16.5,213.825,84,0,2.042,15,1013.25,340.389,0.01,0.006
0.11,-4.763e-4,-0.095,-9.525,0.096,9.578,-5.006e-5,0,5.006e-5,180,0.01,1.001,22.175,120.893,9.788,98.662,0,0,0,2.798e4,1.35e4,21.757,0.099,NaN,201.938,NaN,0.006,4.021e5,4.369,-3.253e-4,0.746,-0.006,0.411,0.215,0.12,NaN,NaN,NaN,NaN,NaN,NaN,NaN,NaN,1.295e-5,16.5,213.825,84,0,2.039,15,1013.25,340.389,0.01,0.006
0.12,-4.772e-4,-0.095,-9.544,0.096,9.597,-5.016e-5,0,5.016e-5,180,0.01,1.003,22.175,120.893,9.788,98.671,0,0,0,2.798e4,1.35e4,21.757,0.099,NaN,201.938,NaN,0.006,4.016e5,3.832,-3.254e-4,0.746,-0.006,0.411,0.215,0.12,NaN,NaN,NaN,NaN,NaN,NaN,NaN,NaN,1.297e-5,16.5,213.825,84,0,2.036,15,1013.25,340.389,0.01,0.007
0.13,-4.76e-4,-0.095,-9.521,0.096,9.573,-5.003e-5,0,5.003e-5,180,0.01,1.001,22.175,120.893,9.788,98.668,0,0,0,2.798e4,1.35e4,21.757,0.099,NaN,201.938,NaN,0.006,4.01e5,4.497,-3.242e-4,0.746,-0.006,0.411,0.215,0.12,NaN,NaN,NaN,NaN,NaN,NaN,NaN,NaN,1.294e-5,16.5,213.825,84,0,2.033,15,1013.25,340.389,0.01,0.007
0.14,-4.765e-4,-0.095,-9.53,0.096,9.583,-5.008e-5,0,5.008e-5,180,0.01,1.002,22.175,120.893,9.788,98.674,0,0,0,2.798e4,1.35e4,21.757,0.099,NaN,201.937,NaN,0.006,4.005e5,4.238,-3.241e-4,0.746,-0.006,0.411,0.215,0.12,NaN,NaN,NaN,NaN,NaN,NaN,NaN,NaN,1.295e-5,16.5,213.825,84,0,2.031,15,1013.25,340.389,0.01,0.007
0.15,-4.766e-4,-0.095,-9.533,0.096,9.585,-5.01e-5,0,5.01e-5,180,0.01,1.002,22.175,120.893,9.788,98.678,0,0,0,2.798e4,1.35e4,21.757,0.099,NaN,201.937,NaN,0.006,3.999e5,4.165,-3.237e-4,0.746,-0.006,0.411,0.215,0.12,NaN,NaN,NaN,NaN,NaN,NaN,NaN,NaN,1.296e-5,16.5,213.825,84,0,2.028,15,1013.25,340.389,0.01,0.007
0.16,-4.754e-4,-0.095,-9.509,0.096,9.561,-4.997e-5,0,4.997e-5,180,0.01,0.999,22.175,120.893,9.788,98.666,0,0,0,2.797e4,1.35e4,21.757,0.099,NaN,201.937,NaN,0.006,4.008e5,4.835,-3.237e-4,0.746,-0.006,0.411,0.215,0.12,NaN,NaN,NaN,NaN,NaN,NaN,NaN,NaN,1.292e-5,16.5,213.825,84,0,2.032,15,1013.25,340.389,0.01,0.008
0.17,-4.764e-4,-0.095,-9.528,0.096,9.58,-5.007e-5,0,5.007e-5,180,0.01,1.001,22.175,120.893,9.788,98.666,0,0,0,2.797e4,1.35e4,21.757,0.099,NaN,201.937,NaN,0.006,4.016e5,4.308,-3.249e-4,0.746,-0.006,0.411,0.215,0.12,NaN,NaN,NaN,NaN,NaN,NaN,NaN,NaN,1.295e-5,16.5,213.825,84,0,2.036,15,1013.25,340.389,0.01,0.008
0.18,-4.748e-4,-0.095,-9.495,0.095,9.548,-4.99e-5,0,4.99e-5,180,0.01,0.998,22.175,120.893,9.788,98.651,0,0,0,2.797e4,1.35e4,21.757,0.099,NaN,201.937,NaN,0.006,4.024e5,5.219,-3.246e-4,0.746,-0.006,0.411,0.215,0.12,NaN,NaN,NaN,NaN,NaN,NaN,NaN,NaN,1.291e-5,16.5,213.825,84,0,2.04,15,1013.25,340.389,0.01,0.008
0.19,-4.759e-4,-0.095,-9.517,0.096,9.57,-5.002e-5,0,5.002e-5,180,0.01,1,22.175,120.893,9.788,98.652,0,0,0,2.797e4,1.35e4,21.757,0.099,NaN,201.937,NaN,0.006,4.033e5,4.595,-3.259e-4,0.746,-0.006,0.411,0.215,0.12,NaN,NaN,NaN,NaN,NaN,NaN,NaN,NaN,1.294e-5,16.5,213.825,84,0,2.045,15,1013.25,340.389,0.01,0.008
0.2,-4.751e-4,-0.095,-9.502,0.096,9.554,-4.993e-5,0,4.993e-5,180,0.01,0.999,22.175,120.893,9.788,98.642,0,0,0,2.797e4,1.35e4,21.757,0.099,NaN,201.936,NaN,0.006,4.041e5,5.035,-3.261e-4,0.745,-0.006,0.41,0.215,0.12,NaN,NaN,NaN,NaN,NaN,NaN,NaN,NaN,1.292e-5,16.5,213.825,84,0,2.049,15,1013.25,340.389,0.01,0.008
0.21,-4.738e-4,-0.095,-9.475,0.095,9.527,-4.979e-5,0,4.979e-5,180,0.01,0.996,22.175,120.893,9.788,98.655,0,0,0,2.797e4,1.35e4,21.757,0.099,NaN,201.936,NaN,0.006,4.01e5,5.782,-3.228e-4,0.746,-0.006,0.411,0.215,0.12,NaN,NaN,NaN,NaN,NaN,NaN,NaN,NaN,1.288e-5,16.5,213.825,84,0,2.033,15,1013.25,340.389,0.01,0.008
0.22,-4.746e-4,-0.095,-9.492,0.095,9.544,-4.988e-5,0,4.988e-5,180,0.01,0.998,22.175,120.893,9.788,98.68,0,0,0,2.797e4,1.35e4,21.756,0.099,NaN,201.936,NaN,0.006,3.98e5,5.316,-3.209e-4,0.747,-0.006,0.412,0.215,0.12,NaN,NaN,NaN,NaN,NaN,NaN,NaN,NaN,1.29e-5,16.5,213.825,84,0,2.018,15,1013.25,340.389,0.01,0.009
0.23,-4.728e-4,-0.095,-9.456,0.095,9.508,-4.969e-5,0,4.969e-5,180,0.01,0.994,22.175,120.893,9.788,98.69,0,0,0,2.797e4,1.35e4,21.756,0.099,NaN,201.936,NaN,0.006,3.95e5,6.314,-3.175e-4,0.748,-0.006,0.412,0.215,0.12,NaN,NaN,NaN,NaN,NaN,NaN,NaN,NaN,1.285e-5,16.5,213.825,84,0,2.002,15,1013.25,340.389,0.01,0.009
0.24,-4.742e-4,-0.095,-9.484,0.095,9.536,-4.984e-5,0,4.984e-5,180,0.01,0.997,22.175,120.893,9.788,98.719,0,0,0,2.797e4,1.35e4,21.756,0.099,NaN,201.935,NaN,0.006,3.919e5,5.531,-3.159e-4,0.748,-0.006,0.413,0.215,0.12,NaN,NaN,NaN,NaN,NaN,NaN,NaN,NaN,1.289e-5,16.5,213.825,84,0,1.987,15,1013.25,340.389,0.01,0.009
0.25,-4.731e-4,-0.095,-9.462,0.095,9.515,-4.973e-5,0,4.973e-5,180,0.01,0.995,22.175,120.893,9.788,98.734,0,0,0,2.797e4,1.35e4,21.756,0.099,NaN,201.935,NaN,0.006,3.889e5,6.14,-3.129e-4,0.749,-0.006,0.414,0.215,0.12,NaN,NaN,NaN,NaN,NaN,NaN,NaN,NaN,1.286e-5,16.5,213.825,84,0,1.971,15,1013.25,340.389,0.01,0.009
0.26,-4.722e-4,-0.094,-9.444,0.095,9.496,-4.963e-5,0,4.963e-5,180,0.01,0.993,22.175,120.893,9.788,98.718,0,0,0,2.797e4,1.35e4,21.756,0.099,NaN,201.935,NaN,0.006,3.904e5,6.656,-3.136e-4,0.749,-0.006,0.414,0.215,0.12,NaN,NaN,NaN,NaN,NaN,NaN,NaN,NaN,1.284e-5,16.5,213.825,84,0,1.979,15,1013.25,340.389,0.01,0.009
0.27,-4.729e-4,-0.095,-9.457,0.095,9.509,-4.97e-5,0,4.97e-5,180,0.01,0.994,22.175,120.893,9.788,98.711,0,0,0,2.797e4,1.35e4,21.756,0.099,NaN,201.935,NaN,0.006,3.92e5,6.293,-3.152e-4,0.748,-0.006,0.413,0.215,0.12,NaN,NaN,NaN,NaN,NaN,NaN,NaN,NaN,1.285e-5,16.5,213.825,84,0,1.987,15,1013.25,340.389,0.01,0.01
0.28,-4.709e-4,-0.094,-9.418,0.095,9.47,-4.949e-5,0,4.949e-5,180,0.01,0.99,22.175,120.893,9.788,98.689,0,0,0,2.797e4,1.35e4,21.756,0.099,NaN,201.934,NaN,0.006,3.936e5,7.383,-3.152e-4,0.748,-0.006,0.413,0.215,0.12,NaN,NaN,NaN,NaN,NaN,NaN,NaN,NaN,1.28e-5,16.5,213.825,84,0,1.995,15,1013.25,340.389,0.01,0.01
0.29,-4.715e-4,-0.094,-9.43,0.095,9.482,-4.956e-5,0,4.956e-5,180,0.01,0.991,22.175,120.893,9.788,98.682,0,0,0,2.797e4,1.35e4,21.756,0.099,NaN,201.934,NaN,0.006,3.951e5,7.04,-3.168e-4,0.747,-0.006,0.412,0.215,0.12,NaN,NaN,NaN,NaN,NaN,NaN,NaN,NaN,1.282e-5,16.5,213.825,84,0,2.003,15,1013.25,340.389,0.01,0.01
0.3,-4.705e-4,-0.094,-9.411,0.095,9.463,-4.946e-5,0,4.946e-5,180,0.01,0.989,22.175,120.893,9.788,98.666,0,0,0,2.797e4,1.35e4,21.756,0.099,NaN,201.934,NaN,0.006,3.967e5,7.588,-3.175e-4,0.747,-0.006,0.412,0.215,0.12,NaN,NaN,NaN,NaN,NaN,NaN,NaN,NaN,1.279e-5,16.5,213.825,84,0,2.011,15,1013.25,340.389,0.01,0.01
0.31,-4.688e-4,-0.094,-9.376,0.094,9.428,-4.927e-5,0,4.927e-5,180,0.01,0.985,22.175,120.893,9.788,98.603,0,0,0,2.797e4,1.35e4,21.756,0.099,NaN,201.934,NaN,0.006,4.048e5,8.575,-3.228e-4,0.745,-0.006,0.41,0.215,0.12,NaN,NaN,NaN,NaN,NaN,NaN,NaN,NaN,1.274e-5,16.5,213.825,84,0,2.053,15,1013.25,340.389,0.01,0.01
0.32,-4.69e-4,-0.094,-9.38,0.094,9.432,-4.929e-5,0,4.929e-5,180,0.01,0.986,22.175,120.893,9.788,98.553,0,0,0,2.797e4,1.35e4,21.756,0.099,NaN,201.933,NaN,0.006,4.129e5,8.457,-3.294e-4,0.744,-0.006,0.409,0.215,0.12,NaN,NaN,NaN,NaN,NaN,NaN,NaN,NaN,1.275e-5,16.5,213.825,84,0,2.094,15,1013.25,340.389,0.01,0.011
0.33,-4.666e-4,-0.093,-9.331,0.094,9.383,-4.904e-5,0,4.904e-5,180,0.01,0.981,22.175,120.893,9.788,98.491,0,0,0,2.797e4,1.35e4,21.756,0.099,NaN,201.933,NaN,0.006,4.209e5,9.828,-3.345e-4,0.742,-0.006,0.407,0.215,0.12,NaN,NaN,NaN,NaN,NaN,NaN,NaN,NaN,1.268e-5,16.5,213.825,84,0,2.135,15,1013.25,340.389,0.01,0.011
0.34,-4.662e-4,-0.093,-9.324,0.094,9.376,-4.9e-5,0,4.9e-5,180,0.01,0.98,22.175,120.893,9.788,98.442,0,0,0,2.797e4,1.35e4,21.756,0.099,NaN,201.932,NaN,0.006,4.29e5,10.028,-3.41e-4,0.74,-0.005,0.405,0.215,0.12,NaN,NaN,NaN,NaN,NaN,NaN,NaN,NaN,1.267e-5,16.5,213.825,84,0,2.177,15,1013.25,340.389,0.01,0.011
0.35,-4.653e-4,-0.093,-9.307,0.094,9.358,-4.891e-5,0,4.891e-5,180,0.01,0.978,22.175,120.893,9.788,98.392,0,0,0,2.797e4,1.35e4,21.756,0.099,NaN,201.932,NaN,0.007,4.371e5,10.514,-3.471e-4,0.739,-0.005,0.403,0.215,0.12,NaN,NaN,NaN,NaN,NaN,NaN,NaN,NaN,1.265e-5,16.5,213.825,84,0,2.218,15,1013.25,340.389,0.01,0.011
0.36,-4.62e-4,-0.092,-9.241,0.093,9.292,-4.856e-5,0,4.856e-5,180,0.01,0.971,22.175,120.893,9.788,98.375,0,0,0,2.797e4,1.35e4,21.756,0.099,NaN,201.932,NaN,0.007,4.372e5,12.371,-3.451e-4,0.739,-0.005,0.403,0.215,0.12,NaN,NaN,NaN,NaN,NaN,NaN,NaN,NaN,1.256e-5,16.5,213.825,84,0,2.218,15,1013.25,340.389,0.01,0.011
0.37,-4.612e-4,-0.092,-9.223,0.093,9.274,-4.847e-5,0,4.847e-5,180,0.01,0.969,22.175,120.893,9.788,98.37,0,0,0,2.797e4,1.35e4,21.756,0.099,NaN,201.931,NaN,0.007,4.372e5,12.862,-3.447e-4,0.739,-0.005,0.403,0.215,0.12,NaN,NaN,NaN,NaN,NaN,NaN,NaN,NaN,1.254e-5,16.5,213.825,84,0,2.219,15,1013.25,340.389,0.01,0.012
0.38,-4.582e-4,-0.092,-9.164,0.092,9.215,-4.816e-5,0,4.816e-5,180,0.01,0.963,22.175,120.893,9.788,98.355,0,0,0,2.797e4,1.35e4,21.756,0.099,NaN,201.931,NaN,0.007,4.373e5,14.525,-3.429e-4,0.739,-0.005,0.403,0.215,0.12,NaN,NaN,NaN,NaN,NaN,NaN,NaN,NaN,1.246e-5,16.5,213.825,84,0,2.219,15,1013.25,340.389,0.01,0.012
0.39,-4.561e-4,-0.091,-9.122,0.092,9.172,-4.794e-5,0,4.794e-5,180,0.01,0.959,22.175,120.893,9.788,98.344,0,0,0,2.797e4,1.35e4,21.755,0.099,NaN,201.93,NaN,0.007,4.373e5,15.717,-3.416e-4,0.738,-0.005,0.403,0.215,0.12,NaN,NaN,NaN,NaN,NaN,NaN,NaN,NaN,1.24e-5,16.5,213.825,84,0,2.219,15,1013.25,340.389,0.01,0.012
0.4,-4.543e-4,-0.091,-9.085,0.091,9.135,-4.774e-5,0,4.774e-5,180,0.01,0.955,22.175,120.893,9.788,98.334,0,0,0,2.797e4,1.35e4,21.755,0.099,NaN,201.929,NaN,0.007,4.374e5,16.751,-3.406e-4,0.738,-0.005,0.403,0.215,0.12,NaN,NaN,NaN,NaN,NaN,NaN,NaN,NaN,1.235e-5,16.5,213.825,84,0,2.22,15,1013.25,340.389,0.01,0.012
0.41,-4.507e-4,-0.09,-9.015,0.091,9.064,-4.737e-5,0,4.737e-5,180,0.009,0.947,22.175,120.893,9.788,98.308,0,0,0,2.797e4,1.349e4,21.755,0.099,NaN,201.929,NaN,0.007,4.389e5,18.736,-3.396e-4,0.738,-0.005,0.403,0.215,0.12,NaN,NaN,NaN,NaN,NaN,NaN,NaN,NaN,1.225e-5,16.5,213.825,84,0,2.227,15,1013.25,340.389,0.01,0.012
0.42,-4.481e-4,-0.09,-8.963,0.09,9.012,-4.71e-5,0,4.71e-5,180,0.009,0.942,22.175,120.893,9.788,98.287,0,0,0,2.797e4,1.349e4,21.755,0.099,NaN,201.928,NaN,0.007,4.404e5,20.199,-3.393e-4,0.738,-0.005,0.403,0.215,0.12,NaN,NaN,NaN,NaN,NaN,NaN,NaN,NaN,1.218e-5,16.5,213.825,84,0,2.235,15,1013.25,340.389,0.01,0.012
0.43,-4.428e-4,-0.089,-8.857,0.089,8.906,-4.654e-5,0,4.654e-5,180,0.009,0.931,22.175,120.893,9.788,98.252,0,0,0,2.797e4,1.349e4,21.755,0.099,NaN,201.927,NaN,0.007,4.419e5,23.171,-3.373e-4,0.738,-0.005,0.403,0.215,0.12,NaN,NaN,NaN,NaN,NaN,NaN,NaN,NaN,1.204e-5,16.5,213.825,84,0,2.243,15,1013.25,340.389,0.01,0.013
0.44,-4.388e-4,-0.088,-8.777,0.088,8.825,-4.612e-5,0,4.612e-5,180,0.009,0.922,22.175,120.893,9.788,98.224,0,0,0,2.797e4,1.349e4,21.755,0.099,NaN,201.926,NaN,0.007,4.433e5,25.427,-3.362e-4,0.737,-0.005,0.402,0.215,0.12,NaN,NaN,NaN,NaN,NaN,NaN,NaN,NaN,1.193e-5,16.5,213.825,84,0,2.25,15,1013.25,340.389,0.01,0.013
0.45,-4.324e-4,-0.086,-8.648,0.087,8.695,-4.545e-5,0,4.545e-5,180,0.009,0.909,22.175,120.893,9.788,98.184,0,0,0,2.797e4,1.349e4,21.754,0.099,NaN,201.925,NaN,0.007,4.448e5,29.05,-3.335e-4,0.737,-0.005,0.402,0.215,0.12,NaN,NaN,NaN,NaN,NaN,NaN,NaN,NaN,1.175e-5,16.5,213.825,84,0,2.258,15,1013.25,340.389,0.01,0.013
0.46,-4.243e-4,-0.085,-8.487,0.085,8.534,-4.46e-5,0,4.46e-5,180,0.009,0.892,22.175,120.893,9.788,98.156,0,0,0,2.797e4,1.349e4,21.754,0.099,NaN,201.923,NaN,0.007,4.423e5,33.572,-3.266e-4,0.738,-0.005,0.402,0.215,0.12,NaN,NaN,NaN,NaN,NaN,NaN,NaN,NaN,1.154e-5,16.5,213.825,84,0,2.245,15,1013.25,340.389,0.01,0.013
0.47,-4.172e-4,-0.083,-8.344,0.084,8.39,-4.385e-5,0,4.385e-5,180,0.009,0.877,22.175,120.893,9.788,98.132,0,0,0,2.797e4,1.349e4,21.754,0.099,NaN,201.922,NaN,0.007,4.397e5,37.604,-3.203e-4,0.738,-0.005,0.403,0.215,0.12,NaN,NaN,NaN,NaN,NaN,NaN,NaN,NaN,1.134e-5,16.5,213.825,84,0,2.233,15,1013.25,340.389,0.01,0.013
0.48,-4.021e-4,-0.08,-8.042,0.081,8.087,-4.226e-5,0,4.226e-5,180,0.008,0.845,22.175,120.893,9.788,98.067,0,0,0,2.797e4,1.349e4,21.754,0.099,NaN,201.92,NaN,0.007,4.372e5,46.076,-3.095e-4,0.739,-0.005,0.403,0.215,0.12,NaN,NaN,NaN,NaN,NaN,NaN,NaN,NaN,1.093e-5,16.5,213.825,84,0,2.22,15,1013.25,340.389,0.01,0.013
0.49,-3.871e-4,-0.077,-7.742,0.078,7.785,-4.069e-5,0,4.069e-5,180,0.008,0.814,22.175,120.893,9.788,98.002,0,0,0,2.797e4,1.349e4,21.753,0.099,NaN,201.918,NaN,0.007,4.346e5,54.513,-2.989e-4,0.739,-0.005,0.404,0.215,0.12,NaN,NaN,NaN,NaN,NaN,NaN,NaN,NaN,1.052e-5,16.5,213.825,84,0,2.207,15,1013.25,340.389,0.01,0.014
0.5,-3.674e-4,-0.073,-7.348,0.074,7.388,-3.862e-5,0,3.862e-5,180,0.008,0.772,22.175,120.893,9.788,97.911,0,0,0,2.796e4,1.349e4,21.753,0.099,NaN,201.916,NaN,0.006,4.32e5,65.594,-2.859e-4,0.74,-0.004,0.405,0.215,0.12,NaN,NaN,NaN,NaN,NaN,NaN,NaN,NaN,9.988e-6,16.5,213.825,84,0,2.194,15,1013.25,340.389,0.01,0.014
0.51,-3.456e-4,-0.069,-6.913,0.07,6.951,-3.633e-5,0,3.633e-5,180,0.007,0.727,22.175,120.893,9.788,97.792,0,0,0,2.796e4,1.349e4,21.752,0.099,NaN,201.913,NaN,0.006,4.333e5,77.832,-2.752e-4,0.739,-0.004,0.404,0.215,0.12,NaN,NaN,NaN,NaN,NaN,NaN,NaN,NaN,9.396e-6,16.5,213.825,84,0,2.202,15,1013.25,340.389,0.01,0.014
0.52,-3.255e-4,-0.065,-6.51,0.065,6.546,-3.421e-5,0,3.421e-5,180,0.007,0.684,22.175,120.893,9.788,97.682,0,0,0,2.796e4,1.349e4,21.752,0.099,NaN,201.909,NaN,0.007,4.347e5,89.154,-2.656e-4,0.739,-0.004,0.404,0.215,0.12,NaN,NaN,NaN,NaN,NaN,NaN,NaN,NaN,8.848e-6,16.5,213.825,84,0,2.21,15,1013.25,340.389,0.01,0.014
0.53,-3.016e-4,-0.06,-6.031,0.061,6.064,-3.169e-5,0,3.169e-5,180,0.006,0.634,22.175,120.893,9.788,97.554,0,0,0,2.796e4,1.348e4,21.751,0.099,NaN,201.905,NaN,0.007,4.361e5,102.609,-2.544e-4,0.739,-0.004,0.404,0.215,0.12,NaN,NaN,NaN,NaN,NaN,NaN,NaN,NaN,8.198e-6,16.5,213.825,84,0,2.217,15,1013.25,340.389,0.01,0.014
0.54,-2.786e-4,-0.056,-5.571,0.056,5.602,-2.928e-5,0,2.928e-5,180,0.006,0.586,22.175,120.893,9.788,97.431,0,0,0,2.796e4,1.348e4,21.75,0.099,NaN,201.901,NaN,0.007,4.374e5,115.517,-2.439e-4,0.738,-0.004,0.403,0.215,0.12,NaN,NaN,NaN,NaN,NaN,NaN,NaN,NaN,7.573e-6,16.5,213.825,84,0,2.225,15,1013.25,340.389,0.01,0.015
0.55,-2.552e-4,-0.051,-5.104,0.051,5.132,-2.682e-5,0,2.682e-5,180,0.005,0.536,22.175,120.893,9.788,97.307,0,0,0,2.796e4,1.348e4,21.749,0.099,NaN,201.896,NaN,0.007,4.388e5,128.661,-2.336e-4,0.738,-0.004,0.403,0.215,0.12,NaN,NaN,NaN,NaN,NaN,NaN,NaN,NaN,6.937e-6,16.5,213.825,84,0,2.232,15,1013.25,340.389,0.01,0.015
0.56,-2.294e-4,-0.046,-4.589,0.046,4.614,-2.412e-5,0,2.412e-5,180,0.005,0.482,22.175,120.893,9.788,97.181,0,0,0,2.795e4,1.348e4,21.748,0.099,NaN,201.89,NaN,0.007,4.363e5,143.124,-2.197e-4,0.739,-0.003,0.404,0.215,0.12,NaN,NaN,NaN,NaN,NaN,NaN,NaN,NaN,6.237e-6,16.5,213.825,84,0,2.22,15,1013.25,340.389,0.01,0.015
0.57,-2.041e-4,-0.041,-4.081,0.041,4.103,-2.145e-5,0,2.145e-5,180,0.004,0.429,22.175,120.893,9.788,97.057,0,0,0,2.795e4,1.347e4,21.747,0.099,NaN,201.884,NaN,0.007,4.339e5,157.378,-2.065e-4,0.739,-0.003,0.404,0.215,0.12,NaN,NaN,NaN,NaN,NaN,NaN,NaN,NaN,5.547e-6,16.5,213.825,84,0,2.208,15,1013.25,340.389,0.01,0.015
0.58,-1.763e-4,-0.035,-3.526,0.035,3.545,-1.853e-5,0,1.853e-5,180,0.004,0.371,22.175,120.893,9.788,96.918,0,0,0,2.795e4,1.347e4,21.746,0.099,NaN,201.877,NaN,0.006,4.314e5,172.956,-1.928e-4,0.74,-0.003,0.405,0.215,0.12,NaN,NaN,NaN,NaN,NaN,NaN,NaN,NaN,4.793e-6,16.5,213.825,84,0,2.196,15,1013.25,340.389,0.01,0.015
0.59,-1.471e-4,-0.029,-2.941,0.03,2.957,-1.546e-5,0,1.546e-5,180,0.003,0.309,22.175,120.893,9.788,96.77,0,0,0,2.794e4,1.347e4,21.745,0.099,NaN,201.87,NaN,0.006,4.289e5,189.374,-1.791e-4,0.74,-0.003,0.405,0.215,0.12,NaN,NaN,NaN,NaN,NaN,NaN,NaN,NaN,3.998e-6,16.5,213.825,84,0,2.184,15,1013.25,340.389,0.01,0.015
0.6,-1.112e-4,-0.022,-2.224,0.022,2.236,-1.169e-5,0,1.169e-5,180,0.002,0.234,22.175,120.893,9.788,96.586,0,0,0,2.794e4,1.346e4,21.743,0.099,NaN,201.862,NaN,0.006,4.264e5,209.49,-1.634e-4,0.741,-0.003,0.406,0.215,0.12,NaN,NaN,NaN,NaN,NaN,NaN,NaN,NaN,3.023e-6,16.5,213.825,84,0,2.172,15,1013.25,340.389,0.01,0.016
0.61,-7.014e-5,-0.014,-1.402,0.014,1.41,-7.372e-6,0,7.372e-6,180,0.001,0.147,22.175,120.893,9.788,96.374,0,0,0,2.793e4,1.346e4,21.742,0.099,NaN,201.853,NaN,0.006,4.217e5,232.539,-1.453e-4,0.742,-0.002,0.407,0.215,0.12,NaN,NaN,NaN,NaN,NaN,NaN,NaN,NaN,1.907e-6,16.5,213.825,84,0,2.149,15,1013.25,340.389,0.01,0.016
0.62,-2.035e-5,-0.004,-0.406,0.004,0.408,-2.139e-6,0,2.139e-6,180,4.275e-4,0.043,22.175,120.893,9.788,96.11,0,0,0,2.793e4,1.345e4,21.74,0.099,NaN,201.843,NaN,0.006,4.169e5,260.473,-1.257e-4,0.743,-0.002,0.408,0.215,0.12,NaN,NaN,NaN,NaN,NaN,NaN,NaN,NaN,5.528e-7,16.5,213.825,84,0,2.126,15,1013.25,340.389,0.01,0.016
0.63,4.068e-5,0.008,0.815,0.008,0.82,4.276e-6,0,4.276e-6,0,8.556e-4,0.086,22.175,120.893,9.788,95.778,0,0,0,2.792e4,1.345e4,21.738,0.099,NaN,201.831,NaN,0.006,4.122e5,294.705,-1.044e-4,0.744,-0.002,0.409,0.215,0.12,NaN,NaN,NaN,NaN,NaN,NaN,NaN,NaN,1.106e-6,16.5,213.825,84,0,2.103,15,1013.25,340.389,0.01,0.016
0.64,2.334e-4,0.03,2.228,0.031,2.24,2.453e-5,0,2.453e-5,0,0.003,0.234,22.175,120.893,9.788,95.161,0,0,0,2.792e4,1.344e4,21.736,0.099,NaN,201.818,NaN,0.006,4.072e5,334.309,-7.323e-5,0.745,-0.001,0.41,0.215,0.12,NaN,NaN,NaN,NaN,NaN,NaN,NaN,NaN,4.133e-6,16.5,213.825,84,0,2.08,15,1013.25,340.389,0.01,0.016
0.65,7.362e-4,0.07,3.977,0.071,3.998,7.738e-5,0,7.738e-5,0,0.007,0.418,22.175,120.893,9.788,94.04,0,0,0,2.791e4,1.344e4,21.733,0.099,NaN,201.803,NaN,0.006,4.02e5,383.29,-3.47e-5,0.746,-6.299e-4,0.411,0.215,0.12,NaN,NaN,NaN,NaN,NaN,NaN,NaN,NaN,9.536e-6,16.5,213.825,84,0,2.057,15,1013.25,340.389,0.01,0.016
0.66,0.002,0.131,6.099,0.132,6.133,1.832e-4,0,1.832e-4,0,0.014,0.641,22.175,120.893,9.788,92.348,0,0,0,2.79e4,1.343e4,21.73,0.099,NaN,201.786,NaN,0.006,4.036e5,442.735,-6.99e-6,0.746,-1.259e-4,0.411,0.215,0.12,NaN,NaN,NaN,NaN,NaN,NaN,NaN,NaN,1.782e-5,16.5,213.825,84,0,2.068,15,1013.25,340.389,0.01,0.016
0.67,0.003,0.219,8.745,0.22,8.793,3.669e-4,0,3.669e-4,0,0.023,0.919,22.175,120.893,9.788,89.935,0,0,0,2.789e4,1.342e4,21.726,0.098,NaN,201.766,NaN,0.006,4.055e5,516.791,0,0.745,0,0.41,0.215,0.12,NaN,NaN,NaN,NaN,NaN,NaN,NaN,NaN,2.97e-5,16.5,213.825,84,0,2.08,15,1013.25,340.389,0.01,0.017
0.68,0.006,0.339,12.037,0.341,12.103,6.598e-4,0,6.598e-4,0,0.036,1.265,22.175,120.893,9.788,86.639,0,0,0,2.788e4,1.341e4,21.722,0.098,NaN,201.742,NaN,0.006,4.084e5,608.866,2.074e-5,0.745,3.65e-4,0.409,0.215,0.12,NaN,NaN,NaN,NaN,NaN,NaN,NaN,NaN,4.606e-5,16.5,213.825,84,0,2.091,15,1013.249,340.389,0.01,0.017
0.69,0.01,0.5,16.098,0.503,16.187,0.001,0,0.001,0,0.053,1.692,22.175,120.893,9.788,82.299,0,0,0,2.787e4,1.339e4,21.717,0.098,NaN,201.714,NaN,0.006,4.137e5,722.382,2.437e-4,0.743,0.004,0.408,0.215,0.12,NaN,NaN,NaN,NaN,NaN,NaN,NaN,NaN,6.793e-5,16.5,213.825,84,0,2.103,15,1013.249,340.389,0.01,0.017
0.7,0.017,0.707,20.716,0.711,20.83,0.002,0,0.002,0,0.074,2.177,22.175,120.893,9.788,76.886,0,0,0,2.785e4,1.338e4,21.711,0.098,NaN,201.681,NaN,0.006,4.232e5,851.314,0.001,0.741,0.019,0.406,0.215,0.12,NaN,NaN,NaN,NaN,NaN,NaN,NaN,NaN,9.608e-5,16.5,213.825,84,0,2.114,15,1013.248,340.389,0.01,0.017
0.71,0.025,0.962,25.486,0.967,25.626,0.003,0,0.003,0,0.101,2.679,22.175,120.893,9.788,70.438,0,0,0,2.783e4,1.336e4,21.704,0.098,NaN,201.643,NaN,0.007,4.369e5,984.251,0.004,0.739,0.059,0.404,0.215,0.12,NaN,NaN,NaN,NaN,NaN,NaN,NaN,NaN,1.307e-4,16.5,213.825,84,0,2.111,15,1013.247,340.389,0.01,0.017
0.72,0.036,1.262,30.016,1.269,30.181,0.004,0,0.004,0,0.133,3.155,22.175,120.893,9.788,63.449,0,0,0,2.781e4,1.334e4,21.697,0.098,NaN,201.599,NaN,0.007,4.597e5,1110.231,0.01,0.734,0.134,0.399,0.215,0.12,NaN,NaN,NaN,NaN,NaN,NaN,NaN,NaN,1.715e-4,16.5,213.825,84,0,2.109,15,1013.246,340.389,0.01,0.017
0.73,0.05,1.602,34.1,1.611,34.288,0.005,0,0.005,0,0.168,3.584,22.175,120.893,9.788,56.417,0,0,0,2.779e4,1.332e4,21.688,0.098,NaN,201.551,NaN,0.007,4.93e5,1223.466,0.02,0.728,0.241,0.393,0.215,0.12,NaN,NaN,NaN,NaN,NaN,NaN,NaN,NaN,2.178e-4,16.5,213.825,84,0,2.107,15,1013.244,340.389,0.01,0.018
0.74,0.068,1.978,37.596,1.989,37.803,0.007,0,0.007,0,0.208,3.951,22.175,120.893,9.788,49.788,0,0,0,2.777e4,1.329e4,21.679,0.098,NaN,201.5,NaN,0.008,5.372e5,1320.018,0.036,0.721,0.368,0.386,0.215,0.12,NaN,NaN,NaN,NaN,NaN,NaN,NaN,NaN,2.689e-4,16.5,213.825,84,0,2.104,15,1013.242,340.389,0.01,0.022
0.75,0.09,2.384,40.57,2.397,40.793,0.009,0,0.009,0,0.251,4.264,22.175,120.893,9.788,43.834,0,0,0,2.774e4,1.327e4,21.669,0.098,NaN,201.445,NaN,0.009,5.917e5,1401.763,0.059,0.713,0.493,0.378,0.215,0.12,NaN,NaN,NaN,NaN,NaN,NaN,NaN,NaN,3.24e-4,16.5,213.825,84,0,2.102,14.999,1013.239,340.389,0.01,0.023
0.76,0.116,2.813,42.93,2.828,43.167,0.012,0,0.012,0,0.296,4.512,22.175,120.893,9.788,38.781,0,0,0,2.771e4,1.324e4,21.659,0.098,NaN,201.387,NaN,0.01,6.559e5,1466.216,0.088,0.705,0.6,0.37,0.215,0.12,NaN,NaN,NaN,NaN,NaN,NaN,NaN,NaN,3.823e-4,16.5,213.825,84,0,2.107,14.999,1013.236,340.388,0.01,0.023
0.77,0.146,3.26,44.72,3.278,44.966,0.015,0,0.015,0,0.343,4.7,22.175,120.893,9.788,34.497,0,0,0,2.769e4,1.321e4,21.648,0.098,NaN,201.327,NaN,0.011,7.271e5,1514.584,0.123,0.698,0.685,0.363,0.215,0.12,NaN,NaN,NaN,NaN,NaN,NaN,NaN,NaN,4.431e-4,16.5,213.825,84,0,2.112,14.999,1013.233,340.388,0.01,0.023
0.78,0.181,3.717,45.793,3.738,46.045,0.019,0,0.019,0,0.391,4.813,22.175,120.893,9.788,30.915,0,0,0,2.766e4,1.318e4,21.637,0.098,NaN,201.266,NaN,0.012,8.035e5,1542.902,0.165,0.69,0.748,0.355,0.215,0.12,NaN,NaN,NaN,NaN,NaN,NaN,NaN,NaN,5.053e-4,16.5,213.825,84,0,2.117,14.999,1013.229,340.388,0.01,0.023
0.79,0.221,4.181,46.378,4.204,46.634,0.023,0,0.023,0,0.439,4.875,22.175,120.893,9.788,27.93,0,0,0,2.763e4,1.315e4,21.626,0.098,NaN,201.204,NaN,0.013,8.836e5,1557.611,0.211,0.684,0.792,0.348,0.215,0.12,NaN,NaN,NaN,NaN,NaN,NaN,NaN,NaN,5.683e-4,16.5,213.825,84,0,2.123,14.999,1013.224,340.388,0.01,0.023
0.8,0.265,4.647,46.604,4.672,46.861,0.028,0,0.028,0,0.488,4.898,22.175,120.893,9.788,25.435,0,0,0,2.76e4,1.312e4,21.615,0.098,NaN,201.142,NaN,0.014,9.66e5,1562.308,0.261,0.677,0.82,0.342,0.215,0.12,NaN,NaN,NaN,NaN,NaN,NaN,NaN,NaN,6.316e-4,16.5,213.825,84,0,2.128,14.998,1013.219,340.388,0.01,0.023
0.81,0.314,5.112,46.579,5.14,46.836,0.033,0,0.033,0,0.537,4.896,22.175,120.893,9.788,23.184,0,0,0,2.757e4,1.31e4,21.604,0.098,NaN,201.08,NaN,0.016,1.049e6,1560.041,0.315,0.672,0.84,0.337,0.215,0.12,NaN,NaN,NaN,NaN,NaN,NaN,NaN,NaN,6.948e-4,16.5,213.825,84,0,2.118,14.998,1013.213,340.388,0.01,0.024
0.82,0.367,5.577,46.508,5.608,46.764,0.039,0,0.039,0,0.586,4.888,22.175,120.893,9.788,21.268,0,0,0,2.754e4,1.307e4,21.593,0.098,NaN,201.018,NaN,0.017,1.133e6,1556.501,0.372,0.667,0.85,0.332,0.215,0.12,NaN,NaN,NaN,NaN,NaN,NaN,NaN,NaN,7.58e-4,16.5,213.825,84,0,2.108,14.998,1013.207,340.387,0.01,0.024
0.83,0.425,6.04,46.328,6.073,46.583,0.045,0,0.045,0,0.635,4.869,22.175,120.893,9.788,19.624,0,0,0,2.751e4,1.304e4,21.582,0.098,NaN,200.956,NaN,0.018,1.218e6,1549.967,0.432,0.662,0.854,0.327,0.215,0.12,NaN,NaN,NaN,NaN,NaN,NaN,NaN,NaN,8.209e-4,16.5,213.825,84,0,2.099,14.997,1013.2,340.387,0.01,0.024
0.84,0.488,6.502,46.264,6.538,46.518,0.051,0,0.051,0,0.683,4.863,22.175,120.893,9.788,18.198,0,0,0,2.749e4,1.301e4,21.571,0.098,NaN,200.895,NaN,0.02,1.304e6,1546.637,0.495,0.658,0.854,0.323,0.215,0.12,NaN,NaN,NaN,NaN,NaN,NaN,NaN,NaN,8.838e-4,16.5,213.825,84,0,2.089,14.997,1013.193,340.387,0.01,0.024
0.85,0.555,6.964,46.242,7.003,46.497,0.058,0,0.058,0,0.732,4.86,22.175,120.893,9.788,16.949,0,0,0,2.746e4,1.298e4,21.56,0.098,NaN,200.833,NaN,0.021,1.391e6,1544.509,0.56,0.654,0.85,0.319,0.215,0.12,NaN,NaN,NaN,NaN,NaN,NaN,NaN,NaN,9.466e-4,16.5,213.825,84,0,2.079,14.996,1013.185,340.387,0.01,0.025
0.86,0.627,7.428,46.363,7.469,46.618,0.066,0,0.066,0,0.781,4.873,22.175,120.893,9.788,15.964,0,0,0,2.743e4,1.295e4,21.549,0.098,NaN,200.771,NaN,0.022,1.478e6,1546.294,0.628,0.65,0.843,0.315,0.215,0.12,NaN,NaN,NaN,NaN,NaN,NaN,NaN,NaN,0.001,16.5,213.825,84,0,2.086,14.996,1013.176,340.386,0.01,0.025
0.87,0.704,7.893,46.557,7.936,46.813,0.074,0,0.074,0,0.83,4.893,22.175,120.893,9.788,15.086,0,0,0,2.74e4,1.292e4,21.538,0.098,NaN,200.708,NaN,0.023,1.567e6,1550.1,0.698,0.647,0.834,0.312,0.215,0.12,NaN,NaN,NaN,NaN,NaN,NaN,NaN,NaN,0.001,16.5,213.825,84,0,2.092,14.995,1013.167,340.386,0.01,0.025
0.88,0.785,8.36,46.75,8.406,47.008,0.083,0,0.083,0,0.879,4.914,22.175,120.893,9.788,14.299,0,0,0,2.737e4,1.29e4,21.527,0.098,NaN,200.645,NaN,0.025,1.656e6,1553.871,0.77,0.643,0.823,0.308,0.215,0.12,NaN,NaN,NaN,NaN,NaN,NaN,NaN,NaN,0.001,16.5,213.825,84,0,2.098,14.995,1013.158,340.386,0.01,0.025
0.89,0.871,8.829,46.953,8.878,47.211,0.092,0,0.092,0,0.928,4.935,22.175,120.893,9.788,13.589,0,0,0,2.734e4,1.287e4,21.516,0.098,NaN,200.582,NaN,0.026,1.746e6,1557.877,0.844,0.64,0.812,0.305,0.215,0.12,NaN,NaN,NaN,NaN,NaN,NaN,NaN,NaN,0.001,16.5,213.825,84,0,2.104,14.994,1013.148,340.385,0.01,0.026
0.9,0.962,9.3,47.128,9.352,47.387,0.101,0,0.101,0,0.978,4.953,22.175,120.893,9.788,12.947,0,0,0,2.731e4,1.284e4,21.505,0.098,NaN,200.519,NaN,0.028,1.837e6,1561.121,0.921,0.638,0.801,0.302,0.215,0.12,NaN,NaN,NaN,NaN,NaN,NaN,NaN,NaN,0.001,16.5,213.825,84,0,2.111,14.994,1013.137,340.385,0.01,0.026
0.91,1.057,9.773,47.302,9.827,47.562,0.111,0,0.111,0,1.027,4.972,22.175,120.893,9.788,12.517,0,0,0,2.728e4,1.281e4,21.493,0.098,NaN,200.456,NaN,0.029,1.928e6,1564.323,1.004,0.635,0.793,0.3,0.215,0.12,NaN,NaN,NaN,NaN,NaN,NaN,NaN,NaN,0.001,16.5,213.825,84,0,2.144,14.993,1013.126,340.385,0.01,0.026
0.925,1.209,10.482,47.294,10.542,47.694,0.127,6.549e-9,0.127,2.95e-6,1.12,6.167,22.175,120.893,9.788,11.848,0,0.009,-2.131e-6,2.724e4,1.277e4,21.476,0.098,205.985,200.36,0.341,0.031,2.066e6,1565.157,1.132,0.631,0.779,0.296,0.215,0.12,3.139,1.07,-1.802e-4,0,0,0,0,8.649e-7,0.001,16.5,213.825,84,-9.065e-8,2.193,14.992,1013.108,340.384,0.015,0.026
0.948,1.457,11.549,47.505,11.618,47.909,0.154,4.269e-8,0.154,1.589e-5,1.259,6.205,22.175,120.893,9.788,10.991,0,0.027,1.117e-6,2.718e4,1.27e4,21.451,0.097,207.104,200.216,0.417,0.034,2.273e6,1567.44,1.338,0.626,0.76,0.291,0.215,0.12,2.849,1.189,-1.473e-4,0,0,0,0,6.327e-6,0.002,16.5,213.825,84,4.112e-8,2.268,14.991,1013.079,340.383,0.023,0.027
0.981,1.874,13.178,48.394,13.26,48.803,0.2,1.637e-7,0.2,4.691e-5,1.471,6.3,22.175,120.893,9.788,9.039,0,0.066,-8.529e-6,2.708e4,1.26e4,21.412,0.097,209.879,199.996,0.599,0.039,2.587e6,1586.273,1.654,0.623,0.725,0.288,0.215,0.12,2.224,1.333,2.362e-4,0,0,0,0,2.84e-5,0.002,16.5,213.825,84.002,5.521e-7,2.171,14.988,1013.03,340.382,0.034,0.027
1.031,2.595,15.66,49.807,15.762,50.224,0.282,5.157e-7,0.282,1.049e-4,1.793,6.457,22.175,120.893,9.788,7.227,0,0.147,-2.187e-5,2.693e4,1.245e4,21.353,0.097,212.776,199.66,0.795,0.046,3.07e6,1616.404,2.236,0.623,0.696,0.288,0.215,0.12,1.689,1.343,3.132e-4,0,0,0,0,1.012e-4,0.002,16.5,213.825,84.007,-4.955e-6,2.13,14.983,1012.946,340.379,0.05,0.027
1.081,3.441,18.188,50.721,18.311,51.145,0.379,1.11e-6,0.379,1.677e-4,2.12,6.572,22.175,120.893,9.788,6.293,0,0.257,8.416e-6,2.678e4,1.23e4,21.292,0.097,214.409,199.318,0.915,0.053,3.565e6,1632.74,2.95,0.623,0.681,0.288,0.215,0.12,1.431,1.308,2.123e-4,0,0,0,0,2.297e-4,0.002,16.5,213.825,84.017,-1.295e-5,2.218,14.978,1012.846,340.375,0.05,0.027
1.131,4.415,20.775,51.895,20.919,52.326,0.494,1.989e-6,0.494,2.308e-4,2.454,6.7,22.175,120.893,9.788,5.431,0,0.399,-1.059e-5,2.662e4,1.215e4,21.23,0.097,216.009,198.966,1.033,0.061,4.072e6,1655.692,3.778,0.623,0.669,0.288,0.215,0.12,1.203,1.242,-3.583e-4,0,0,0,0,4.244e-4,0.003,16.5,213.825,84.033,-1.443e-5,2.26,14.971,1012.732,340.372,0.05,0.028
1.181,5.519,23.406,52.798,23.572,53.231,0.625,3.194e-6,0.625,2.929e-4,2.792,6.773,22.175,120.893,9.788,4.476,0,0.568,-6.412e-5,2.647e4,1.199e4,21.166,0.096,217.895,198.607,1.169,0.069,4.588e6,1671.028,4.705,0.624,0.656,0.288,0.215,0.121,0.962,1.123,1.893e-5,0,0,0,0,6.782e-4,0.003,16.5,213.825,84.057,-2.202e-5,2.193,14.964,1012.603,340.367,0.05,0.028
1.231,6.757,26.098,54.005,26.286,54.44,0.773,4.767e-6,0.773,3.533e-4,3.136,6.871,22.175,120.893,9.788,3.785,0,0.758,3.935e-5,2.631e4,1.184e4,21.101,0.096,219.339,198.239,1.279,0.077,5.117e6,1694.094,5.781,0.624,0.648,0.288,0.216,0.121,0.795,1.016,-1.045e-4,0,0,0,0,9.696e-4,0.004,16.5,213.825,84.091,-3.576e-5,2.167,14.956,1012.458,340.362,0.05,0.028
1.281,8.13,28.845,55.115,29.054,55.55,0.939,6.746e-6,0.939,4.118e-4,3.483,6.94,22.175,120.893,9.788,3.185,0,0.973,-1.054e-4,2.616e4,1.168e4,21.035,0.096,220.652,197.862,1.381,0.085,5.658e6,1714.222,6.999,0.624,0.641,0.288,0.216,0.121,0.656,0.904,-1.185e-4,0,0,0,0,0.001,0.004,16.5,213.825,84.134,-4.748e-5,2.133,14.947,1012.296,340.357,0.05,0.028
1.331,9.642,31.636,55.993,31.867,56.424,1.121,9.172e-6,1.121,4.686e-4,3.832,6.957,22.175,120.893,9.788,2.594,0,1.2,-5.556e-5,2.6e4,1.152e4,20.967,0.096,222.003,197.478,1.486,0.093,6.207e6,1727.906,8.356,0.624,0.636,0.288,0.216,0.121,0.524,0.777,-4.721e-4,0,0,0,0,0.002,0.004,16.5,213.825,84.188,-5.318e-5,2.053,14.937,1012.119,340.351,0.05,0.028
1.381,11.295,34.473,56.923,34.725,57.349,1.322,1.208e-5,1.322,5.238e-4,4.182,6.97,22.175,120.893,9.788,2.165,0,1.432,1.119e-5,2.583e4,1.136e4,20.898,0.095,223.023,197.085,1.572,0.101,6.766e6,1742.723,9.88,0.625,0.633,0.287,0.216,0.121,0.431,0.675,-1.253e-4,0,0,0,0,0.002,0.005,16.5,213.825,84.254,-4.737e-5,2.024,14.927,1011.925,340.344,0.05,0.028
1.431,13.091,37.375,58.235,37.649,58.653,1.54,1.552e-5,1.54,5.777e-4,4.533,6.985,22.175,120.893,9.788,1.69,0,1.672,3.103e-5,2.567e4,1.12e4,20.827,0.095,224.189,196.682,1.667,0.11,7.338e6,1767.008,11.57,0.625,0.63,0.287,0.216,0.122,0.331,0.549,-3.8e-4,0,0,0,0,0.002,0.005,16.5,213.825,84.331,-1.609e-5,1.934,14.915,1011.715,340.337,0.05,0.029
1.481,15.034,40.334,59.38,40.629,59.79,1.775,1.954e-5,1.775,6.308e-4,4.884,6.993,22.175,120.893,9.788,1.477,0,1.892,5.364e-5,2.551e4,1.103e4,20.755,0.095,224.732,196.269,1.725,0.119,7.919e6,1786.669,13.459,0.625,0.629,0.287,0.216,0.122,0.287,0.492,1.182e-4,0,0,0,0,0.003,0.005,16.5,213.825,84.42,6.627e-5,1.991,14.902,1011.487,340.33,0.05,0.029
1.531,17.126,43.364,60.782,43.679,61.186,2.028,2.421e-5,2.028,6.838e-4,5.237,7.016,22.175,120.893,9.788,1.338,0,2.15,6.984e-6,2.534e4,1.086e4,20.68,0.095,225.095,195.845,1.773,0.128,8.513e6,1812.535,15.547,0.626,0.629,0.287,0.216,0.122,0.259,0.455,-3.353e-4,0,0,0,0,0.003,0.006,16.5,213.825,84.522,1.381e-4,2.098,14.889,1011.241,340.321,0.05,0.029
1.581,19.372,46.475,62.436,46.81,62.828,2.299,2.957e-5,2.299,7.371e-4,5.591,7.004,22.175,120.893,9.788,1.05,0,2.404,7.295e-5,2.517e4,1.069e4,20.603,0.094,225.848,195.407,1.845,0.137,9.124e6,1844.161,17.84,0.626,0.628,0.287,0.217,0.122,0.201,0.367,-2.274e-4,0,0,0,0,0.003,0.006,16.5,213.825,84.635,2.306e-4,2.085,14.874,1010.978,340.313,0.05,0.029
1.631,21.776,49.683,64.384,50.038,64.761,2.587,3.572e-5,2.587,7.91e-4,5.944,6.975,22.175,120.893,9.788,0.732,0,2.622,-3.603e-4,2.499e4,1.052e4,20.524,0.094,226.699,194.954,1.924,0.146,9.755e6,1882.472,20.376,0.627,0.628,0.287,0.217,0.123,0.138,0.263,4.006e-4,0,0,0,0,0.003,0.007,16.5,213.825,84.761,3.383e-4,2.027,14.858,1010.696,340.303,0.05,0.03
1.681,24.342,52.967,65.899,53.34,66.257,2.893,4.27e-5,2.893,8.456e-4,6.293,6.878,22.175,120.893,9.788,0.448,5.473e-7,2.791,-3.339e-4,2.482e4,1.034e4,20.442,0.094,227.479,194.488,1.999,0.156,1.04e7,1909.35,23.158,0.627,0.628,0.287,0.217,0.123,0.084,0.164,3.366e-4,0,0,0,0,0.003,0.007,16.5,213.825,84.897,3.979e-4,1.979,14.842,1010.395,340.293,0.05,0.03
1.731,27.073,56.291,66.703,56.681,67.041,3.216,5.058e-5,3.216,9.01e-4,6.633,6.723,22.175,120.893,9.788,0.288,4.977e-7,2.904,-7.697e-4,2.464e4,1.016e4,20.359,0.094,227.932,194.014,2.056,0.166,1.105e7,1918.283,26.165,0.628,0.628,0.287,0.217,0.124,0.054,0.107,1.968e-4,0,0,0,0,0.003,0.008,16.5,213.825,85.039,5.163e-4,2.032,14.824,1010.075,340.282,0.05,0.03
1.781,29.972,59.654,67.481,60.06,67.799,3.556,5.942e-5,3.556,9.572e-4,6.966,6.556,22.175,120.893,9.788,0.162,0,2.996,-0.002,2.446e4,9987.04,20.275,0.093,228.298,193.53,2.107,0.176,1.171e7,1926.46,29.398,0.628,0.628,0.287,0.217,0.124,0.03,0.061,-2.553e-4,0,0,0,0,0.003,0.008,16.5,213.825,85.187,7.011e-4,2.113,14.805,1009.735,340.271,0.05,0.03
1.831,33.038,62.995,67.027,63.415,67.319,3.913,6.931e-5,3.913,0.001,7.285,6.255,22.175,120.893,9.788,0.003,-1.23e-6,-3.03,-0.09,2.429e4,9811.118,20.19,0.093,228.76,193.045,2.165,0.186,1.236e7,1904.644,32.805,0.629,0.629,0.287,0.218,0.124,5.977e-4,0.003,4.89e-4,0,0,0,0,-0.003,0.009,16.5,213.825,85.338,0.001,2.144,14.785,1009.375,340.259,0.05,0.03
1.881,36.268,66.214,64.586,66.647,64.846,4.284,8.038e-5,4.284,0.001,7.58,5.792,22.175,120.893,9.788,0.153,-7.48e-7,-2.983,-0.002,2.412e4,9641.582,20.107,0.093,228.361,192.571,2.169,0.195,1.299e7,1835.474,36.273,0.63,0.63,0.287,0.218,0.125,0.028,0.063,-2.339e-4,0,0,0,0,-0.002,0.009,16.5,213.825,85.488,0.001,2.177,14.764,1008.996,340.246,0.05,0.03
1.931,39.659,69.422,64.344,69.865,64.577,4.671,9.279e-5,4.671,0.001,7.861,5.481,22.175,120.893,9.788,0.342,-7.775e-7,-2.848,-6.084e-4,2.395e4,9473.455,20.024,0.093,227.859,192.094,2.168,0.205,1.362e7,1820.229,39.919,0.63,0.631,0.287,0.218,0.125,0.064,0.14,-2.346e-4,0,0,0,0,-0.002,0.009,16.5,213.825,85.634,0.002,2.145,14.742,1008.599,340.233,0.05,0.031
1.981,43.213,72.734,66.444,73.187,66.658,5.071,1.067e-4,5.071,0.001,8.135,5.338,22.175,120.893,9.788,0.528,-8.88e-7,-2.559,-2.065e-5,2.378e4,9301.568,19.938,0.092,227.374,191.6,2.168,0.215,1.426e7,1860.956,43.883,0.631,0.632,0.286,0.219,0.126,0.099,0.217,2.035e-4,0,0,0,0,-0.001,0.01,16.5,213.825,85.77,0.002,2.08,14.719,1008.182,340.219,0.05,0.031
2.031,46.935,76.147,68.479,76.609,68.674,5.484,1.221e-4,5.484,0.001,8.401,5.178,22.175,120.893,9.788,0.718,-5.15e-7,-2.122,-5.059e-4,2.36e4,9126.117,19.849,0.092,226.889,191.087,2.17,0.225,1.493e7,1899.496,48.187,0.632,0.633,0.286,0.219,0.127,0.136,0.296,-3.956e-4,0,0,0,0,-8.877e-4,0.01,16.5,213.825,85.888,0.003,1.966,14.695,1007.745,340.204,0.05,0.031
2.081,50.83,79.671,70.697,80.141,70.881,5.91,1.392e-4,5.91,0.001,8.66,5.114,22.175,120.893,9.788,0.789,0,-1.497,-3.098e-4,2.342e4,8946.761,19.757,0.092,226.725,190.556,2.192,0.235,1.561e7,1941.791,52.816,0.633,0.634,0.286,0.219,0.127,0.15,0.329,3.938e-4,0,0,0,0,-4.035e-4,0.011,16.5,213.825,85.979,0.003,1.954,14.67,1007.288,340.189,0.05,0.031
2.131,54.903,83.232,71.433,83.708,71.606,6.35,1.581e-4,6.35,0.001,8.913,4.986,22.175,120.893,9.788,0.844,0,-0.805,-0.001,2.324e4,8766.738,19.663,0.092,226.606,190.014,2.218,0.246,1.631e7,1949.047,57.719,0.634,0.635,0.286,0.22,0.128,0.161,0.358,2.627e-4,0,0,0,0,-1.07e-4,0.011,16.5,213.825,86.037,0.003,1.913,14.643,1006.811,340.173,0.05,0.031
2.181,59.153,86.795,71.451,87.276,71.618,6.802,1.79e-4,6.802,0.002,9.159,4.891,22.175,120.893,9.788,0.854,0,0.046,-0.001,2.306e4,8587.562,19.568,0.091,226.608,189.467,2.251,0.256,1.7e7,1939.854,62.835,0.635,0.636,0.286,0.22,0.129,0.163,0.367,-4.91e-4,0,0,0,0,3.165e-7,0.012,16.5,213.825,86.056,0.004,1.872,14.616,1006.312,340.156,0.05,0.031
2.231,63.583,90.389,72.097,90.877,72.267,7.266,2.021e-4,7.266,0.002,9.405,4.954,22.175,120.893,9.788,0.8,0,0.936,-8.369e-4,2.288e4,8407.87,19.471,0.091,226.78,188.909,2.295,0.267,1.77e7,1945.437,68.202,0.636,0.637,0.286,0.221,0.129,0.153,0.349,3.135e-4,0,0,0,0,1.226e-4,0.012,16.5,213.825,86.031,0.005,1.864,14.587,1005.793,340.138,0.05,0.032
2.281,68.193,94.028,72.976,94.523,73.155,7.742,2.277e-4,7.742,0.002,9.657,5.113,22.175,120.893,9.787,0.738,0,1.849,-0.002,2.27e4,8227.163,19.372,0.091,226.976,188.339,2.342,0.277,1.84e7,1956.429,73.874,0.637,0.638,0.286,0.221,0.13,0.14,0.328,1.573e-4,0,0,0,0,4.422e-4,0.013,16.5,213.825,85.961,0.005,1.801,14.557,1005.252,340.12,0.05,0.032
2.331,72.985,97.668,72.986,98.17,73.184,8.232,2.56e-4,8.232,0.002,9.918,5.372,22.175,120.893,9.787,0.595,-7.073e-7,2.76,-0.003,2.252e4,8047.232,19.272,0.091,227.388,187.762,2.402,0.288,1.911e7,1948.014,79.753,0.638,0.638,0.285,0.222,0.131,0.113,0.27,-1.629e-4,0,0,0,0,9.127e-4,0.013,16.5,213.825,85.846,0.006,1.803,14.526,1004.69,340.101,0.05,0.032
2.381,77.961,101.342,73.669,101.854,73.9,8.734,2.876e-4,8.734,0.002,10.198,5.838,22.175,120.893,9.787,0.386,-3.203e-7,3.472,-0.004,2.234e4,7866.644,19.171,0.09,227.987,187.175,2.473,0.299,1.982e7,1955.138,85.914,0.639,0.639,0.285,0.222,0.132,0.073,0.179,-2.135e-4,0,0,0,0,0.001,0.014,16.5,213.825,85.689,0.007,1.872,14.493,1004.107,340.082,0.05,0.032
2.431,83.121,105.065,74.642,105.589,74.911,9.252,3.231e-4,9.252,0.002,10.504,6.344,22.175,120.893,9.787,0.23,1.563e-6,3.929,-0.007,2.216e4,7684.795,19.067,0.09,228.452,186.573,2.538,0.31,2.054e7,1968.808,92.452,0.64,0.64,0.285,0.223,0.132,0.043,0.107,-3.398e-4,0,0,0,0,0.002,0.014,16.5,213.825,85.503,0.008,1.819,14.46,1003.501,340.061,0.05,0.032
2.481,88.468,108.845,75.761,109.383,76.078,9.785,3.632e-4,9.785,0.002,10.837,6.932,22.175,120.893,9.787,0.068,4.556e-6,4.216,-0.019,2.198e4,7501.381,18.96,0.09,228.939,185.956,2.605,0.321,2.127e7,1985.734,99.366,0.641,0.641,0.285,0.223,0.133,0.013,0.031,3.866e-4,0,0,0,0,0.002,0.015,16.5,213.825,85.298,0.009,1.756,14.425,1002.874,340.04,0.05,0.032
2.531,94.006,112.653,76.347,113.209,76.719,10.336,4.082e-4,10.336,0.002,11.2,7.55,22.175,120.893,9.787,0.115,-4.31e-6,-4.155,-0.007,2.179e4,7317.476,18.852,0.089,228.846,185.327,2.638,0.332,2.201e7,1991.05,106.618,0.643,0.643,0.285,0.224,0.134,0.021,0.058,1.479e-4,0,0,0,0,-0.002,0.015,16.5,213.825,85.087,0.009,1.747,14.389,1002.225,340.019,0.05,0.033
2.581,99.734,116.476,76.612,117.051,77.041,10.906,4.587e-4,10.906,0.002,11.592,8.119,22.175,120.893,9.787,0.264,-8.424e-7,-3.727,-0.002,2.161e4,7133.711,18.741,0.089,228.473,184.688,2.654,0.344,2.274e7,1989.537,114.194,0.644,0.644,0.284,0.224,0.135,0.05,0.133,-6.07e-6,0,0,0,0,-0.001,0.016,16.5,213.825,84.889,0.009,1.719,14.352,1001.553,339.996,0.05,0.033
2.631,105.653,120.295,76.541,120.893,77.025,11.496,5.15e-4,11.496,0.003,12.01,8.615,22.175,120.893,9.787,0.392,-1.527e-6,-2.968,-1.701e-4,2.143e4,6950.733,18.63,0.089,228.166,184.04,2.674,0.355,2.348e7,1981.005,122.052,0.645,0.646,0.284,0.225,0.136,0.074,0.199,4.543e-5,0,0,0,0,-6.954e-4,0.016,16.5,213.825,84.72,0.01,1.727,14.313,1000.859,339.973,0.05,0.033
2.681,111.763,124.108,76.431,124.731,76.961,12.107,5.774e-4,12.107,0.003,12.45,9.016,22.175,120.893,9.787,0.49,-4.168e-7,-1.837,5.629e-4,2.124e4,6768.605,18.517,0.089,227.945,183.385,2.701,0.366,2.421e7,1971.826,130.176,0.647,0.647,0.284,0.226,0.137,0.093,0.252,4.965e-4,0,0,0,0,-2.503e-4,0.017,16.5,213.825,84.6,0.01,1.792,14.274,1000.142,339.949,0.05,0.033
2.731,118.064,127.908,76.161,128.557,76.706,12.741,6.466e-4,12.741,0.003,12.904,9.123,22.175,120.893,9.787,0.481,0,-0.449,8.228e-4,2.106e4,6587.653,18.403,0.088,228.014,182.722,2.745,0.378,2.495e7,1959.073,138.533,0.648,0.649,0.284,0.226,0.139,0.091,0.251,-1.295e-4,0,0,0,0,-1.405e-5,0.017,16.5,213.825,84.543,0.01,1.771,14.233,999.403,339.924,0.05,0.034
2.781,124.554,131.703,76.073,132.379,76.603,13.397,7.229e-4,13.397,0.003,13.357,8.994,22.175,120.893,9.787,0.4,0,0.853,0.002,2.088e4,6407.538,18.288,0.088,228.28,182.051,2.802,0.389,2.568e7,1950.026,147.138,0.65,0.65,0.283,0.227,0.14,0.076,0.213,2.389e-4,0,0,0,0,4.794e-5,0.018,16.5,213.825,84.554,0.011,1.727,14.19,998.642,339.898,0.05,0.034
2.831,131.233,135.46,75.288,136.16,75.792,14.076,8.065e-4,14.076,0.003,13.797,8.729,22.175,120.893,9.787,0.339,-6.889e-7,1.998,0.002,2.071e4,6229.576,18.172,0.088,228.493,181.377,2.856,0.4,2.639e7,1926.697,155.904,0.652,0.652,0.283,0.228,0.141,0.064,0.183,3.574e-4,0,0,0,0,2.484e-4,0.018,16.5,213.825,84.627,0.011,1.863,14.147,997.859,339.872,0.05,0.034
2.881,138.097,139.1,72.963,139.824,73.397,14.777,8.974e-4,14.777,0.003,14.211,7.97,22.175,120.893,9.787,0.168,-3.499e-6,3.017,0.005,2.053e4,6056.698,18.058,0.088,229.009,180.711,2.927,0.411,2.709e7,1871.671,164.664,0.653,0.653,0.283,0.228,0.142,0.032,0.092,-7.071e-5,0,0,0,0,5.371e-4,0.019,16.5,213.825,84.755,0.011,1.853,14.102,997.054,339.845,0.05,0.034
2.931,145.14,142.638,70.909,143.381,71.265,15.497,9.954e-4,15.497,0.004,14.581,7.106,22.175,120.893,9.787,0.026,-1.671e-6,-3.187,0.03,2.036e4,5888.294,17.945,0.087,229.453,180.051,2.994,0.421,2.777e7,1823.229,173.456,0.655,0.655,0.283,0.229,0.143,0.005,0.015,4.508e-4,0,0,0,0,-5.699e-4,0.019,16.5,213.825,84.913,0.011,1.81,14.057,996.228,339.817,0.05,0.035
2.981,152.358,146.077,68.907,146.836,69.192,16.234,0.001,16.234,0.004,14.91,6.278,22.175,120.893,9.787,0.193,3.779e-6,-2.755,4.146e-4,2.02e4,5724.161,17.833,0.087,229.037,179.397,3.008,0.432,2.842e7,1776.994,182.261,0.656,0.656,0.282,0.23,0.144,0.036,0.11,3.463e-4,0,0,0,0,-4.061e-4,0.02,16.5,213.825,85.065,0.012,1.793,14.01,995.381,339.789,0.05,0.035
3.031,159.744,149.373,66.016,150.144,66.246,16.987,0.001,16.987,0.004,15.197,5.509,22.175,120.893,9.787,0.317,1.258e-6,-1.62,8.967e-4,2.004e4,5565.832,17.723,0.087,228.744,178.757,3.03,0.441,2.905e7,1714.157,190.936,0.658,0.658,0.282,0.23,0.145,0.06,0.182,3.511e-4,0,0,0,0,-1.344e-4,0.02,16.5,213.825,85.176,0.012,1.751,13.962,994.515,339.76,0.05,0.035
3.081,167.291,152.496,62.539,153.277,62.744,17.753,0.001,17.753,0.004,15.451,5.076,22.175,120.893,9.787,0.33,0,-0.053,0.002,1.989e4,5414.226,17.616,0.087,228.752,178.134,3.068,0.451,2.964e7,1641.368,199.299,0.659,0.659,0.282,0.231,0.146,0.063,0.193,3.471e-4,0,0,0,0,-1.401e-7,0.021,16.5,213.825,85.218,0.012,1.801,13.913,993.63,339.73,0.05,0.035
3.131,174.989,155.42,58.509,156.21,58.715,18.531,0.001,18.531,0.004,15.691,4.908,22.175,120.893,9.787,0.273,-3.197e-6,1.389,-0.002,1.975e4,5270.198,17.514,0.086,228.951,177.533,3.116,0.459,3.018e7,1559.33,207.272,0.661,0.661,0.282,0.232,0.147,0.052,0.162,1.103e-4,0,0,0,0,9.116e-5,0.021,16.5,213.825,85.182,0.012,1.845,13.863,992.727,339.7,0.05,0.035
3.181,182.825,158.055,52.703,158.855,52.93,19.322,0.002,19.322,0.005,15.922,4.889,22.175,120.893,9.787,0.149,4.07e-6,2.533,9.567e-4,1.961e4,5136.823,17.417,0.086,229.332,176.969,3.174,0.467,3.068e7,1443.981,214.573,0.662,0.662,0.281,0.232,0.148,0.028,0.089,-3.241e-4,0,0,0,0,2.932e-4,0.021,16.5,213.825,85.08,0.012,1.906,13.812,991.808,339.669,0.05,0.036
3.231,190.785,160.319,45.245,161.13,45.509,20.123,0.002,20.123,0.005,16.151,4.895,22.175,120.893,9.787,0.015,0,-2.884,0.004,1.949e4,5016.93,17.33,0.086,229.739,176.455,3.229,0.474,3.11e7,1298.007,220.943,0.663,0.663,0.281,0.233,0.149,0.003,0.009,2.784e-4,0,0,0,0,-3.696e-4,0.022,16.5,213.825,84.94,0.011,2.007,13.76,990.874,339.637,0.05,0.036
3.281,198.848,162.198,37.55,163.023,37.846,20.936,0.002,20.936,0.005,16.377,4.723,22.175,120.893,9.787,0.133,5.188e-6,-2.389,-0.002,1.939e4,4910.835,17.251,0.086,229.441,175.995,3.239,0.479,3.144e7,1148.651,226.331,0.664,0.664,0.281,0.233,0.15,0.025,0.082,7.384e-5,0,0,0,0,-2.478e-4,0.022,16.5,213.825,84.805,0.011,2.02,13.707,989.928,339.606,0.05,0.036
3.331,206.994,163.651,29.025,164.489,29.337,21.76,0.002,21.76,0.005,16.584,4.267,22.175,120.893,9.787,0.203,7.166e-7,-1.426,-0.003,1.93e4,4819.954,17.183,0.086,229.271,175.597,3.253,0.484,3.17e7,983.929,230.524,0.665,0.665,0.281,0.233,0.15,0.039,0.126,1.011e-4,0,0,0,0,-8.674e-5,0.022,16.5,213.825,84.708,0.01,2.016,13.655,988.973,339.574,0.05,0.036
3.381,215.202,164.664,20.247,165.515,20.551,22.594,0.002,22.594,0.005,16.76,3.522,22.175,120.893,9.787,0.213,3.915e-7,-0.137,-3.253e-5,1.922e4,4744.715,17.127,0.086,229.259,175.265,3.272,0.487,3.188e7,814.576,233.416,0.665,0.665,0.281,0.234,0.151,0.041,0.133,1.892e-4,0,0,0,0,-7.853e-7,0.022,16.5,213.825,84.67,0.009,2.02,13.601,988.01,339.541,0.05,0.036
3.431,223.451,165.304,12.795,166.165,13.081,23.435,0.002,23.435,0.006,16.899,2.72,22.175,120.893,9.787,0.183,7.794e-7,1.051,0.005,1.916e4,4682.75,17.08,0.086,229.351,174.989,3.295,0.489,3.198e7,670.862,235.165,0.666,0.666,0.281,0.234,0.151,0.035,0.115,-2.322e-4,0,0,0,0,4.614e-5,0.022,16.5,213.825,84.695,0.01,2.084,13.548,987.043,339.509,0.05,0.036
3.481,231.724,165.596,5.867,166.466,6.113,24.283,0.002,24.283,0.006,16.995,1.717,22.175,120.893,9.787,0.087,6.038e-6,1.972,0.005,1.911e4,4633.166,17.042,0.085,229.621,174.767,3.324,0.49,3.202e7,536.827,235.861,0.666,0.666,0.281,0.234,0.151,0.017,0.055,-2.118e-4,0,0,0,0,1.619e-4,0.023,16.5,213.825,84.775,0.012,2.103,13.494,986.073,339.476,0.05,0.037
3.531,240.002,165.557,-0.75,166.432,1.022,25.134,0.003,25.134,0.006,17.039,0.695,22.175,120.893,9.787,0.027,-7.953e-7,-2.108,0.009,1.907e4,4595.435,17.013,0.085,229.79,174.598,3.345,0.49,3.199e7,408.489,235.56,0.666,0.666,0.281,0.234,0.151,0.005,0.017,2.108e-4,0,0,0,0,-1.852e-4,0.022,16.5,213.825,84.881,0.014,2.12,13.44,985.102,339.444,0.05,0.037
3.581,248.273,165.27,-5.698,166.146,5.699,25.986,0.003,25.986,0.006,17.042,0.11,22.175,120.893,9.787,0.127,-2.639e-6,-1.644,0.003,1.904e4,4566.618,16.991,0.085,229.507,174.468,3.336,0.489,3.192e7,311.985,234.521,0.666,0.666,0.281,0.234,0.151,0.024,0.08,-2.327e-4,0,0,0,0,-1.129e-4,0.022,16.5,213.825,84.978,0.015,2.139,13.386,984.132,339.411,0.05,0.037
3.631,256.525,164.792,-9.512,165.667,9.545,26.837,0.003,26.837,0.006,17.011,0.785,22.175,120.893,9.787,0.224,5.344e-7,-0.587,0.002,1.902e4,4544.733,16.974,0.085,229.233,174.369,3.325,0.488,3.181e7,236.943,232.95,0.666,0.666,0.281,0.234,0.151,0.043,0.141,-4.543e-5,0,0,0,0,-1.448e-5,0.022,16.5,213.825,85.035,0.015,2.036,13.333,983.164,339.378,0.05,0.037
3.681,264.748,164.156,-12.657,165.029,12.708,27.686,0.003,27.686,0.006,16.953,1.142,22.175,120.893,9.787,0.249,2.336e-6,0.964,0.003,1.9e4,4528.591,16.961,0.085,229.154,174.295,3.325,0.486,3.167e7,174.76,230.898,0.665,0.665,0.281,0.234,0.151,0.047,0.158,4.656e-4,0,0,0,0,3.939e-5,0.022,16.5,213.825,85.024,0.014,1.932,13.279,982.199,339.346,0.05,0.037
3.731,272.937,163.384,-15.39,164.255,15.427,28.532,0.003,28.532,0.007,16.889,1.064,22.175,120.893,9.787,0.159,-2.405e-6,2.294,0.003,1.899e4,4517.445,16.953,0.085,229.391,174.245,3.342,0.484,3.15e7,120.672,228.383,0.665,0.665,0.281,0.233,0.15,0.03,0.101,-4.83e-4,0,0,0,0,2.25e-4,0.022,16.5,213.825,84.939,0.013,1.966,13.226,981.239,339.314,0.05,0.038
3.781,281.084,162.497,-17.696,163.367,17.714,29.375,0.003,29.375,0.007,16.838,0.796,22.175,120.893,9.787,0.016,-3.721e-6,2.786,0.033,1.899e4,4510.545,16.947,0.085,229.771,174.213,3.367,0.481,3.13e7,74.706,225.55,0.664,0.664,0.281,0.233,0.15,0.003,0.01,-2.218e-4,0,0,0,0,3.355e-4,0.022,16.5,213.825,84.807,0.012,2.033,13.173,980.284,339.282,0.05,0.038
3.831,289.185,161.54,-19.088,162.411,19.094,30.216,0.004,30.216,0.007,16.803,0.489,22.175,120.893,9.787,0.119,2.347e-6,-2.471,0.002,1.898e4,4506.296,16.944,0.085,229.472,174.194,3.35,0.478,3.11e7,46.005,222.573,0.664,0.664,0.281,0.233,0.15,0.023,0.075,-1.398e-4,0,0,0,0,-2.671e-4,0.022,16.5,213.825,84.671,0.01,2.085,13.12,979.333,339.25,0.05,0.038
3.881,297.237,160.543,-19.862,161.419,19.862,31.056,0.004,31.056,0.007,16.786,0.139,22.175,120.893,9.787,0.252,4.377e-6,-1.421,-1.956e-4,1.898e4,4503.619,16.942,0.085,229.09,174.182,3.328,0.475,3.089e7,28.976,219.508,0.663,0.663,0.281,0.233,0.149,0.048,0.16,-4.293e-4,0,0,0,0,-8.942e-5,0.022,16.5,213.825,84.572,0.011,2.252,13.068,978.389,339.218,0.05,0.039
3.931,305.238,159.53,-20.184,160.41,20.185,31.895,0.004,31.895,0.007,16.782,0.112,22.175,120.893,9.787,0.274,-1.518e-6,0.272,0.007,1.898e4,4501.783,16.941,0.085,229.014,174.174,3.324,0.472,3.067e7,19.875,216.424,0.663,0.663,0.281,0.233,0.149,0.052,0.173,3.927e-4,0,0,0,0,3.331e-6,0.022,16.5,213.825,84.543,0.012,2.323,13.016,977.451,339.187,0.05,0.039
3.981,313.19,158.512,-20.257,159.397,20.263,32.734,0.004,32.734,0.007,16.769,0.454,22.175,120.893,9.787,0.173,5.322e-7,1.576,0.004,1.898e4,4500.416,16.939,0.085,229.278,174.167,3.34,0.469,3.046e7,14.809,213.354,0.662,0.662,0.281,0.232,0.149,0.033,0.11,-1.061e-4,0,0,0,0,1.128e-4,0.022,16.5,213.825,84.593,0.014,2.245,12.964,976.518,339.155,0.05,0.039
4,316.158,158.13,-20.328,159.016,20.338,33.048,0.004,33.048,0.007,16.758,0.643,22.175,120.893,9.787,0.115,-3.511e-7,1.911,0.005,1.898e4,4500,16.939,0.085,229.43,174.165,3.349,0.468,3.038e7,11.991,212.212,0.662,0.662,0.281,0.232,0.149,0.022,0.073,2.265e-5,0,0,0,0,1.667e-4,0.021,16.5,213.825,84.626,0.015,2.204,12.945,976.17,339.144,0.019,0.04
4.028,320.597,157.543,-20.836,158.429,20.861,33.519,0.004,33.519,0.007,16.734,1.015,22.175,120.893,9.787,0.011,-1.08e-6,2.11,0.04,1.898e4,4500,16.939,0.085,229.712,174.165,3.366,0.467,3.026e7,0,210.48,0.662,0.662,0.281,0.232,0.148,0.002,0.007,4.998e-4,0,0,0,0,2.047e-4,0.021,16.5,213.825,84.683,0.016,2.101,12.916,975.649,339.126,0.028,0.04
4.07,327.225,156.667,-20.666,157.553,20.713,34.224,0.004,34.224,0.007,16.682,1.391,22.175,120.893,9.787,0.119,-8.768e-7,-1.787,0.005,1.898e4,4500,16.939,0.085,229.4,174.165,3.348,0.464,3.008e7,0,207.92,0.661,0.662,0.282,0.232,0.148,0.022,0.076,-2.391e-4,0,0,0,0,-1.484e-4,0.021,16.5,213.825,84.768,0.016,2.002,12.873,974.872,339.1,0.042,0.04
4.12,335.033,155.639,-20.487,156.522,20.551,35.056,0.005,35.056,0.007,16.605,1.614,22.175,120.893,9.787,0.201,1.814e-6,-0.872,0.002,1.898e4,4500,16.939,0.085,229.156,174.165,3.333,0.461,2.986e7,0,204.914,0.661,0.661,0.282,0.232,0.148,0.038,0.127,1.58e-4,0,0,0,0,-3.584e-5,0.021,16.5,213.825,84.837,0.015,1.982,12.822,973.956,339.069,0.05,0.04
4.17,342.789,154.618,-20.328,155.499,20.394,35.885,0.005,35.885,0.008,16.523,1.642,22.175,120.893,9.787,0.219,0,0.276,0.002,1.898e4,4500,16.939,0.085,229.093,174.165,3.329,0.458,2.965e7,0,201.937,0.66,0.661,0.282,0.231,0.147,0.042,0.139,3.761e-4,0,0,0,0,3.646e-6,0.021,16.5,213.825,84.852,0.013,1.992,12.772,973.047,339.039,0.05,0.04
4.22,350.495,153.606,-20.184,154.483,20.24,36.709,0.005,36.709,0.008,16.443,1.498,22.175,120.893,9.787,0.176,1.356e-6,1.377,0.005,1.898e4,4500,16.939,0.085,229.196,174.165,3.335,0.455,2.944e7,0,198.993,0.66,0.66,0.282,0.231,0.147,0.033,0.112,2.732e-4,0,0,0,0,9.163e-5,0.021,16.5,213.825,84.808,0.011,2.008,12.722,972.143,339.008,0.05,0.041
4.27,358.15,152.6,-20.055,153.476,20.092,37.529,0.005,37.529,0.008,16.375,1.226,22.175,120.893,9.787,0.086,-8.669e-7,2.06,0.007,1.898e4,4500,16.939,0.085,229.43,174.165,3.349,0.452,2.923e7,0,196.088,0.66,0.66,0.282,0.231,0.147,0.016,0.054,-4.006e-4,0,0,0,0,2.079e-4,0.021,16.5,213.825,84.719,0.011,2.042,12.672,971.245,338.978,0.05,0.041
4.32,365.755,151.6,-19.934,152.476,19.954,38.347,0.005,38.347,0.008,16.322,0.908,22.175,120.893,9.787,0.024,2.62e-6,-2.249,0.025,1.898e4,4500,16.939,0.085,229.589,174.165,3.359,0.449,2.902e7,0,193.24,0.659,0.659,0.282,0.231,0.146,0.004,0.015,3.031e-4,0,0,0,0,-2.512e-4,0.021,16.5,213.825,84.608,0.011,2.081,12.623,970.353,338.948,0.05,0.041
4.37,373.31,150.606,-19.813,151.484,19.823,39.162,0.005,39.162,0.008,16.285,0.621,22.175,120.893,9.787,0.126,-4.563e-7,-1.823,0.008,1.898e4,4500,16.939,0.085,229.292,174.165,3.341,0.446,2.881e7,0,190.448,0.659,0.659,0.282,0.231,0.146,0.024,0.079,3.808e-4,0,0,0,0,-1.672e-4,0.02,16.5,213.825,84.503,0.012,2.133,12.573,969.467,338.918,0.05,0.041
4.42,380.815,149.619,-19.677,150.499,19.685,39.975,0.006,39.975,0.008,16.257,0.544,22.175,120.893,9.787,0.154,2.268e-6,-1.044,0.002,1.898e4,4500,16.939,0.085,229.2,174.165,3.335,0.443,2.86e7,0,187.722,0.658,0.658,0.282,0.23,0.146,0.029,0.097,4.776e-4,0,0,0,0,-5.552e-5,0.02,16.5,213.825,84.431,0.014,2.08,12.525,968.587,338.889,0.05,0.041
4.47,388.272,148.639,-19.53,149.522,19.539,40.787,0.006,40.787,0.008,16.228,0.597,22.175,120.893,9.787,0.135,1.459e-6,-0.393,8.857e-4,1.898e4,4500,16.939,0.085,229.239,174.165,3.338,0.441,2.84e7,0,185.039,0.658,0.658,0.282,0.23,0.145,0.025,0.085,-3.042e-4,0,0,0,0,-7.971e-6,0.02,16.5,213.825,84.396,0.015,1.995,12.476,967.712,338.859,0.05,0.041
4.52,395.679,147.666,-19.387,148.552,19.397,41.598,0.006,41.598,0.008,16.198,0.619,22.175,120.893,9.786,0.124,8.678e-7,0.253,-8.82e-4,1.898e4,4500,16.939,0.085,229.256,174.165,3.339,0.438,2.82e7,0,182.373,0.657,0.657,0.282,0.23,0.145,0.023,0.078,3.182e-4,0,0,0,0,3.342e-6,0.02,16.5,213.825,84.394,0.016,2.026,12.428,966.843,338.83,0.05,0.042
4.57,403.039,146.7,-19.243,147.588,19.254,42.407,0.006,42.407,0.008,16.166,0.663,22.175,120.893,9.786,0.103,1.409e-6,0.808,7.928e-4,1.898e4,4500,16.939,0.085,229.302,174.165,3.342,0.435,2.8e7,0,179.736,0.657,0.657,0.282,0.23,0.145,0.019,0.065,4.031e-4,0,0,0,0,3.461e-5,0.02,16.5,213.825,84.422,0.016,2.103,12.38,965.98,338.801,0.05,0.042
4.62,410.35,145.742,-19.092,146.632,19.109,43.215,0.006,43.215,0.008,16.13,0.797,22.175,120.893,9.786,0.046,3.586e-6,1.225,-5.043e-4,1.898e4,4500,16.939,0.085,229.447,174.165,3.35,0.432,2.78e7,0,177.147,0.656,0.656,0.282,0.23,0.144,0.009,0.028,4.586e-4,0,0,0,0,8.062e-5,0.02,16.5,213.825,84.474,0.015,2.148,12.333,965.123,338.773,0.05,0.042
4.67,417.613,144.791,-18.931,145.682,18.963,44.02,0.007,44.02,0.009,16.084,1.097,22.175,120.893,9.786,0.076,1.135e-6,-1.198,-0.002,1.898e4,4500,16.939,0.085,229.349,174.165,3.344,0.429,2.761e7,0,174.643,0.656,0.656,0.282,0.229,0.144,0.014,0.048,-3.474e-4,0,0,0,0,-7.809e-5,0.02,16.5,213.825,84.537,0.016,2.037,12.286,964.271,338.744,0.05,0.042
4.72,424.829,143.848,-18.775,144.738,18.826,44.823,0.007,44.823,0.009,16.02,1.384,22.175,120.893,9.786,0.195,1.11e-6,-0.488,1.303e-4,1.898e4,4500,16.939,0.085,229.009,174.165,3.324,0.427,2.741e7,0,172.206,0.655,0.656,0.283,0.229,0.144,0.037,0.123,2.659e-4,0,0,0,0,-1.312e-5,0.02,16.5,213.825,84.581,0.016,1.873,12.239,963.425,338.715,0.05,0.043
4.77,431.998,142.913,-18.643,143.8,18.696,45.622,0.007,45.622,0.009,15.948,1.408,22.175,120.893,9.786,0.212,8.257e-7,0.508,0.003,1.898e4,4500,16.939,0.085,228.95,174.165,3.32,0.424,2.722e7,0,169.757,0.655,0.655,0.283,0.229,0.143,0.04,0.133,3.451e-4,0,0,0,0,1.443e-5,0.019,16.5,213.825,84.581,0.016,1.855,12.192,962.584,338.687,0.05,0.043
4.82,439.12,141.984,-18.527,142.869,18.57,46.418,0.007,46.418,0.009,15.882,1.263,22.175,120.893,9.786,0.16,-3.824e-7,1.295,-3.413e-4,1.898e4,4500,16.939,0.085,229.079,174.165,3.328,0.421,2.703e7,0,167.318,0.655,0.655,0.283,0.229,0.143,0.03,0.1,-2.373e-4,0,0,0,0,9.49e-5,0.019,16.5,213.825,84.534,0.015,1.898,12.146,961.749,338.659,0.05,0.043
4.87,446.196,141.06,-18.419,141.945,18.45,47.21,0.007,47.21,0.009,15.823,1.065,22.175,120.893,9.786,0.083,3.687e-7,1.889,0.005,1.898e4,4500,16.939,0.085,229.281,174.165,3.34,0.419,2.684e7,0,164.923,0.654,0.654,0.283,0.229,0.143,0.016,0.051,1.416e-4,0,0,0,0,2.045e-4,0.019,16.5,213.825,84.452,0.014,1.918,12.1,960.919,338.631,0.05,0.043
4.92,453.226,140.142,-18.314,141.027,18.335,48,0.008,48,0.009,15.776,0.858,22.175,120.893,9.786,0.002,4.922e-6,-1.994,0.195,1.898e4,4500,16.939,0.085,229.495,174.165,3.353,0.416,2.665e7,0,162.572,0.654,0.654,0.283,0.229,0.142,3.018e-4,0.001,3.499e-4,0,0,0,0,-2.308e-4,0.019,16.5,213.825,84.353,0.014,1.928,12.054,960.094,338.604,0.05,0.044
4.97,460.211,139.229,-18.204,140.115,18.22,48.788,0.008,48.788,0.009,15.736,0.75,22.175,120.893,9.786,0.048,3.978e-6,-1.904,0.007,1.898e4,4500,16.939,0.085,229.355,174.165,3.345,0.413,2.646e7,0,160.284,0.653,0.653,0.283,0.228,0.142,0.009,0.03,-4.753e-4,0,0,0,0,-2.132e-4,0.019,16.5,213.825,84.254,0.014,1.845,12.009,959.275,338.576,0.05,0.044
5.02,467.149,138.322,-18.093,139.21,18.105,49.574,0.008,49.574,0.009,15.701,0.673,22.175,120.893,9.786,0.081,-2.245e-6,-1.636,0.008,1.898e4,4500,16.939,0.085,229.251,174.165,3.339,0.411,2.628e7,0,158.032,0.653,0.653,0.283,0.228,0.142,0.015,0.051,-1.698e-4,0,0,0,0,-1.594e-4,0.019,16.5,213.825,84.165,0.015,1.763,11.964,958.461,338.549,0.05,0.044
5.07,474.043,137.42,-17.985,138.31,17.994,50.358,0.008,50.358,0.009,15.669,0.573,22.175,120.893,9.786,0.124,-9.119e-7,-1.239,0.005,1.898e4,4500,16.939,0.085,229.121,174.165,3.331,0.408,2.609e7,0,155.799,0.653,0.653,0.283,0.228,0.142,0.023,0.078,4.093e-4,0,0,0,0,-9.256e-5,0.019,16.5,213.825,84.093,0.017,1.751,11.919,957.653,338.522,0.05,0.044
5.12,480.891,136.523,-17.879,137.416,17.885,51.141,0.008,51.141,0.009,15.644,0.469,22.175,120.893,9.786,0.168,1.311e-6,-0.607,6.235e-4,1.898e4,4500,16.939,0.085,228.988,174.165,3.323,0.405,2.591e7,0,153.583,0.652,0.652,0.283,0.228,0.141,0.032,0.105,2.326e-4,0,0,0,0,-2.248e-5,0.019,16.5,213.825,84.046,0.018,1.813,11.874,956.85,338.495,0.05,0.044
5.17,487.695,135.632,-17.757,136.528,17.765,51.922,0.009,51.922,0.009,15.62,0.538,22.175,120.893,9.786,0.135,1.138e-6,0.102,0.002,1.898e4,4500,16.939,0.085,229.066,174.165,3.327,0.403,2.573e7,0,151.414,0.652,0.652,0.283,0.228,0.141,0.025,0.085,-1.945e-4,0,0,0,0,6.497e-7,0.018,16.5,213.825,84.034,0.019,1.772,11.83,956.052,338.468,0.05,0.045
