# Time (s),Altitude (m),Vertical velocity (m/s),Vertical acceleration (m/s²),Total velocity (m/s),Total acceleration (m/s²),Position East of launch (m),Position North of launch (m),Lateral distance (m),Lateral direction (°),Lateral velocity (m/s),Lateral acceleration (m/s²),Latitude (°),Longitude (°),Gravitational acceleration (m/s²),Angle of attack (°),Roll rate (°/s),Pitch rate (°/s),Yaw rate (°/s),Mass (g),Motor mass (g),Longitudinal moment of inertia (kg·m²),Rotational moment of inertia (kg·m²),CP location (cm),CG location (cm),Stability margin calibers (​),Mach number (​),Reynolds number (​),Thrust (N),Drag force (N),Drag coefficient (​),Axial drag coefficient (​),Friction drag coefficient (​),Pressure drag coefficient (​),Base drag coefficient (​),Normal force coefficient (​),Pitch moment coefficient (​),Yaw moment coefficient (​),Side force coefficient (​),Roll moment coefficient (​),Roll forcing coefficient (​),Roll damping coefficient (​),Pitch damping coefficient (​),Coriolis acceleration (m/s²),Reference length (cm),Reference area (cm²),Vertical orientation (zenith) (°),Lateral orientation (azimuth) (°),Wind velocity (m/s),Air temperature (°C),Air pressure (mbar),Speed of sound (m/s),Simulation time step (s),Computation time (s)
# Event IGNITION occurred at t=0 seconds
# Event LAUNCH occurred at t=0 seconds
0.01,-4.772e-4,-0.095,-9.541,0.096,9.593,-5.015e-5,0,5.015e-5,180,0.01,1.003,28.61,-80.6,9.792,86.745,0,0,0,2.721e4,1.35e4,19.76,0.099,NaN,183.307,NaN,0.006,3.614e5,3.946,1.717e-5,0.733,3.264e-4,0.399,0.213,0.12,NaN,NaN,NaN,NaN,NaN,NaN,NaN,NaN,1.23e-5,16.6,216.424,84,0,2,15,1013.25,340.389,0.01,8.067e-4
0.02,-4.78e-4,-0.096,-9.561,0.096,9.614,-5.024e-5,0,5.024e-5,180,0.01,1.005,28.61,-80.6,9.792,86.751,0,0,0,2.721e4,1.35e4,19.76,0.099,NaN,183.306,NaN,0.006,3.614e5,3.399,1.708e-5,0.733,3.247e-4,0.399,0.213,0.12,NaN,NaN,NaN,NaN,NaN,NaN,NaN,NaN,1.233e-5,16.6,216.424,84,0,2,15,1013.25,340.389,0.01,9.728e-4
0.03,-4.766e-4,-0.095,-9.532,0.096,9.584,-5.009e-5,0,5.009e-5,180,0.01,1.002,28.61,-80.6,9.792,86.742,0,0,0,2.721e4,1.35e4,19.76,0.099,NaN,183.306,NaN,0.006,3.614e5,4.196,1.722e-5,0.733,3.272e-4,0.399,0.213,0.12,NaN,NaN,NaN,NaN,NaN,NaN,NaN,NaN,1.229e-5,16.6,216.424,84,0,2,15,1013.25,340.389,0.01,0.001
0.04,-4.78e-4,-0.096,-9.561,0.096,9.613,-5.024e-5,0,5.024e-5,180,0.01,1.005,28.61,-80.6,9.792,86.751,0,0,0,2.721e4,1.35e4,19.76,0.099,NaN,183.306,NaN,0.006,3.614e5,3.408,1.709e-5,0.733,3.247e-4,0.399,0.213,0.12,NaN,NaN,NaN,NaN,NaN,NaN,NaN,NaN,1.233e-5,16.6,216.424,84,0,2,15,1013.25,340.389,0.01,0.001
0.05,-4.776e-4,-0.096,-9.552,0.096,9.605,-5.02e-5,0,5.02e-5,180,0.01,1.004,28.61,-80.6,9.792,86.748,0,0,0,2.721e4,1.35e4,19.76,0.099,NaN,183.306,NaN,0.006,3.614e5,3.638,1.712e-5,0.733,3.254e-4,0.399,0.213,0.12,NaN,NaN,NaN,NaN,NaN,NaN,NaN,NaN,1.232e-5,16.6,216.424,84,0,2,15,1013.25,340.389,0.01,0.001
0.06,-4.772e-4,-0.095,-9.545,0.096,9.597,-5.016e-5,0,5.016e-5,180,0.01,1.003,28.61,-80.6,9.792,86.746,0,0,0,2.721e4,1.35e4,19.76,0.099,NaN,183.306,NaN,0.006,3.614e5,3.848,1.716e-5,0.733,3.261e-4,0.399,0.213,0.12,NaN,NaN,NaN,NaN,NaN,NaN,NaN,NaN,1.231e-5,16.6,216.424,84,0,2,15,1013.25,340.389,0.01,0.001
0.07,-4.776e-4,-0.096,-9.552,0.096,9.604,-5.02e-5,0,5.02e-5,180,0.01,1.004,28.61,-80.6,9.792,86.748,0,0,0,2.721e4,1.35e4,19.76,0.099,NaN,183.306,NaN,0.006,3.614e5,3.653,1.713e-5,0.733,3.255e-4,0.399,0.213,0.12,NaN,NaN,NaN,NaN,NaN,NaN,NaN,NaN,1.232e-5,16.6,216.424,84,0,2,15,1013.25,340.389,0.01,0.001
0.08,-4.766e-4,-0.095,-9.533,0.096,9.585,-5.01e-5,0,5.01e-5,180,0.01,1.002,28.61,-80.6,9.792,86.743,0,0,0,2.721e4,1.35e4,19.76,0.099,NaN,183.306,NaN,0.006,3.614e5,4.165,1.721e-5,0.733,3.271e-4,0.399,0.213,0.12,NaN,NaN,NaN,NaN,NaN,NaN,NaN,NaN,1.229e-5,16.6,216.424,84,0,2,15,1013.25,340.389,0.01,0.002
0.09,-4.769e-4,-0.095,-9.538,0.096,9.59,-5.012e-5,0,5.012e-5,180,0.01,1.002,28.61,-80.6,9.792,86.744,0,0,0,2.721e4,1.35e4,19.76,0.099,NaN,183.305,NaN,0.006,3.614e5,4.039,1.719e-5,0.733,3.267e-4,0.399,0.213,0.12,NaN,NaN,NaN,NaN,NaN,NaN,NaN,NaN,1.23e-5,16.6,216.424,84,0,2,15,1013.25,340.389,0.01,0.002
0.1,-4.775e-4,-0.096,-9.551,0.096,9.603,-5.019e-5,0,5.019e-5,180,0.01,1.004,28.61,-80.6,9.792,86.748,0,0,0,2.721e4,1.35e4,19.76,0.099,NaN,183.305,NaN,0.006,3.614e5,3.684,1.713e-5,0.733,3.256e-4,0.399,0.213,0.12,NaN,NaN,NaN,NaN,NaN,NaN,NaN,NaN,1.232e-5,16.6,216.424,84,0,2,15,1013.25,340.389,0.01,0.002
0.11,-4.763e-4,-0.095,-9.525,0.096,9.578,-5.006e-5,0,5.006e-5,180,0.01,1.001,28.61,-80.6,9.792,86.74,0,0,0,2.721e4,1.35e4,19.76,0.099,NaN,183.305,NaN,0.006,3.614e5,4.369,1.724e-5,0.733,3.277e-4,0.399,0.213,0.12,NaN,NaN,NaN,NaN,NaN,NaN,NaN,NaN,1.228e-5,16.6,216.424,84,0,2,15,1013.25,340.389,0.01,0.002
0.12,-4.773e-4,-0.095,-9.545,0.096,9.598,-5.016e-5,0,5.016e-5,180,0.01,1.003,28.61,-80.6,9.792,86.746,0,0,0,2.72e4,1.35e4,19.76,0.099,NaN,183.305,NaN,0.006,3.614e5,3.832,1.716e-5,0.733,3.261e-4,0.399,0.213,0.12,NaN,NaN,NaN,NaN,NaN,NaN,NaN,NaN,1.231e-5,16.6,216.424,84,0,2,15,1013.25,340.389,0.01,0.002
0.13,-4.76e-4,-0.095,-9.521,0.096,9.573,-5.003e-5,0,5.003e-5,180,0.01,1.001,28.61,-80.6,9.792,86.739,0,0,0,2.72e4,1.35e4,19.76,0.099,NaN,183.305,NaN,0.006,3.614e5,4.497,1.727e-5,0.733,3.281e-4,0.399,0.213,0.12,NaN,NaN,NaN,NaN,NaN,NaN,NaN,NaN,1.228e-5,16.6,216.424,84,0,2,15,1013.25,340.389,0.01,0.002
0.14,-4.765e-4,-0.095,-9.53,0.096,9.583,-5.008e-5,0,5.008e-5,180,0.01,1.002,28.61,-80.6,9.792,86.742,0,0,0,2.72e4,1.35e4,19.76,0.099,NaN,183.305,NaN,0.006,3.614e5,4.238,1.722e-5,0.733,3.273e-4,0.399,0.213,0.12,NaN,NaN,NaN,NaN,NaN,NaN,NaN,NaN,1.229e-5,16.6,216.424,84,0,2,15,1013.25,340.389,0.01,0.002
0.15,-4.766e-4,-0.095,-9.533,0.096,9.585,-5.01e-5,0,5.01e-5,180,0.01,1.002,28.61,-80.6,9.792,86.743,0,0,0,2.72e4,1.35e4,19.76,0.099,NaN,183.304,NaN,0.006,3.614e5,4.165,1.721e-5,0.733,3.271e-4,0.399,0.213,0.12,NaN,NaN,NaN,NaN,NaN,NaN,NaN,NaN,1.229e-5,16.6,216.424,84,0,2,15,1013.25,340.389,0.01,0.002
0.16,-4.754e-4,-0.095,-9.508,0.096,9.561,-4.997e-5,0,4.997e-5,180,0.01,0.999,28.61,-80.6,9.792,86.736,0,0,0,2.72e4,1.35e4,19.76,0.099,NaN,183.304,NaN,0.006,3.614e5,4.835,1.732e-5,0.733,3.292e-4,0.399,0.213,0.12,NaN,NaN,NaN,NaN,NaN,NaN,NaN,NaN,1.226e-5,16.6,216.424,84,0,2,15,1013.25,340.389,0.01,0.002
0.17,-4.764e-4,-0.095,-9.528,0.096,9.58,-5.007e-5,0,5.007e-5,180,0.01,1.001,28.61,-80.6,9.792,86.741,0,0,0,2.72e4,1.35e4,19.76,0.099,NaN,183.304,NaN,0.006,3.614e5,4.308,1.723e-5,0.733,3.276e-4,0.399,0.213,0.12,NaN,NaN,NaN,NaN,NaN,NaN,NaN,NaN,1.229e-5,16.6,216.424,84,0,2,15,1013.25,340.389,0.01,0.002
0.18,-4.747e-4,-0.095,-9.494,0.095,9.547,-4.99e-5,0,4.99e-5,180,0.01,0.998,28.61,-80.6,9.792,86.732,0,0,0,2.72e4,1.35e4,19.76,0.099,NaN,183.304,NaN,0.006,3.614e5,5.219,1.739e-5,0.733,3.304e-4,0.399,0.213,0.12,NaN,NaN,NaN,NaN,NaN,NaN,NaN,NaN,1.224e-5,16.6,216.424,84,0,2,15,1013.25,340.389,0.01,0.003
0.19,-4.759e-4,-0.095,-9.517,0.096,9.57,-5.002e-5,0,5.002e-5,180,0.01,1,28.61,-80.6,9.792,86.738,0,0,0,2.72e4,1.35e4,19.759,0.099,NaN,183.304,NaN,0.006,3.614e5,4.595,1.728e-5,0.733,3.285e-4,0.399,0.213,0.12,NaN,NaN,NaN,NaN,NaN,NaN,NaN,NaN,1.227e-5,16.6,216.424,84,0,2,15,1013.25,340.389,0.01,0.003
0.2,-4.751e-4,-0.095,-9.501,0.096,9.553,-4.993e-5,0,4.993e-5,180,0.01,0.999,28.61,-80.6,9.792,86.733,0,0,0,2.72e4,1.35e4,19.759,0.099,NaN,183.304,NaN,0.006,3.614e5,5.035,1.735e-5,0.733,3.298e-4,0.399,0.213,0.12,NaN,NaN,NaN,NaN,NaN,NaN,NaN,NaN,1.225e-5,16.6,216.424,84,0,2,15,1013.25,340.389,0.01,0.003
0.21,-4.737e-4,-0.095,-9.474,0.095,9.526,-4.979e-5,0,4.979e-5,180,0.01,0.996,28.61,-80.6,9.792,86.726,0,0,0,2.72e4,1.35e4,19.759,0.099,NaN,183.303,NaN,0.006,3.614e5,5.782,1.748e-5,0.733,3.322e-4,0.399,0.213,0.12,NaN,NaN,NaN,NaN,NaN,NaN,NaN,NaN,1.222e-5,16.6,216.424,84,0,2,15,1013.25,340.389,0.01,0.003
0.22,-4.745e-4,-0.095,-9.491,0.095,9.543,-4.988e-5,0,4.988e-5,180,0.01,0.998,28.61,-80.6,9.792,86.73,0,0,0,2.72e4,1.35e4,19.759,0.099,NaN,183.303,NaN,0.006,3.614e5,5.316,1.74e-5,0.733,3.307e-4,0.399,0.213,0.12,NaN,NaN,NaN,NaN,NaN,NaN,NaN,NaN,1.224e-5,16.6,216.424,84,0,2,15,1013.25,340.389,0.01,0.003
0.23,-4.727e-4,-0.095,-9.454,0.095,9.506,-4.968e-5,0,4.968e-5,180,0.01,0.994,28.61,-80.6,9.792,86.72,0,0,0,2.72e4,1.35e4,19.759,0.099,NaN,183.303,NaN,0.006,3.614e5,6.314,1.757e-5,0.733,3.339e-4,0.399,0.213,0.12,NaN,NaN,NaN,NaN,NaN,NaN,NaN,NaN,1.219e-5,16.6,216.424,84,0,2,15,1013.25,340.389,0.01,0.003
0.24,-4.741e-4,-0.095,-9.483,0.095,9.535,-4.984e-5,0,4.984e-5,180,0.01,0.997,28.61,-80.6,9.792,86.728,0,0,0,2.72e4,1.35e4,19.759,0.099,NaN,183.303,NaN,0.006,3.614e5,5.531,1.744e-5,0.733,3.314e-4,0.399,0.213,0.12,NaN,NaN,NaN,NaN,NaN,NaN,NaN,NaN,1.223e-5,16.6,216.424,84,0,2,15,1013.25,340.389,0.01,0.003
0.25,-4.73e-4,-0.095,-9.461,0.095,9.513,-4.972e-5,0,4.972e-5,180,0.01,0.994,28.61,-80.6,9.792,86.722,0,0,0,2.72e4,1.35e4,19.759,0.099,NaN,183.302,NaN,0.006,3.614e5,6.14,1.754e-5,0.733,3.333e-4,0.399,0.213,0.12,NaN,NaN,NaN,NaN,NaN,NaN,NaN,NaN,1.22e-5,16.6,216.424,84,0,2,15,1013.25,340.389,0.01,0.003
0.26,-4.721e-4,-0.094,-9.442,0.095,9.494,-4.962e-5,0,4.962e-5,180,0.01,0.992,28.61,-80.6,9.792,86.716,0,0,0,2.72e4,1.35e4,19.759,0.099,NaN,183.302,NaN,0.006,3.614e5,6.656,1.763e-5,0.733,3.35e-4,0.399,0.213,0.12,NaN,NaN,NaN,NaN,NaN,NaN,NaN,NaN,1.218e-5,16.6,216.424,84,0,2,15,1013.25,340.389,0.01,0.003
0.27,-4.728e-4,-0.095,-9.455,0.095,9.507,-4.969e-5,0,4.969e-5,180,0.01,0.994,28.61,-80.6,9.792,86.72,0,0,0,2.72e4,1.35e4,19.759,0.099,NaN,183.302,NaN,0.006,3.614e5,6.293,1.757e-5,0.733,3.338e-4,0.399,0.213,0.12,NaN,NaN,NaN,NaN,NaN,NaN,NaN,NaN,1.219e-5,16.6,216.424,84,0,2,15,1013.25,340.389,0.01,0.003
0.28,-4.708e-4,-0.094,-9.415,0.095,9.467,-4.948e-5,0,4.948e-5,180,0.01,0.99,28.61,-80.6,9.792,86.709,0,0,0,2.72e4,1.35e4,19.759,0.099,NaN,183.302,NaN,0.006,3.614e5,7.383,1.775e-5,0.733,3.373e-4,0.399,0.213,0.12,NaN,NaN,NaN,NaN,NaN,NaN,NaN,NaN,1.214e-5,16.6,216.424,84,0,2,15,1013.25,340.389,0.01,0.004
0.29,-4.714e-4,-0.094,-9.428,0.095,9.48,-4.955e-5,0,4.955e-5,180,0.01,0.991,28.61,-80.6,9.792,86.712,0,0,0,2.72e4,1.35e4,19.759,0.099,NaN,183.301,NaN,0.006,3.614e5,7.04,1.769e-5,0.733,3.362e-4,0.399,0.213,0.12,NaN,NaN,NaN,NaN,NaN,NaN,NaN,NaN,1.216e-5,16.6,216.424,84,0,2,15,1013.25,340.389,0.01,0.004
0.3,-4.704e-4,-0.094,-9.408,0.095,9.46,-4.944e-5,0,4.944e-5,180,0.01,0.989,28.61,-80.6,9.792,86.707,0,0,0,2.72e4,1.35e4,19.759,0.099,NaN,183.301,NaN,0.006,3.614e5,7.588,1.778e-5,0.733,3.38e-4,0.399,0.213,0.12,NaN,NaN,NaN,NaN,NaN,NaN,NaN,NaN,1.213e-5,16.6,216.424,84,0,2,15,1013.25,340.389,0.01,0.004
0.31,-4.686e-4,-0.094,-9.372,0.094,9.423,-4.925e-5,0,4.925e-5,180,0.01,0.985,28.61,-80.6,9.792,86.696,0,0,0,2.72e4,1.35e4,19.759,0.099,NaN,183.301,NaN,0.006,3.614e5,8.575,1.795e-5,0.733,3.412e-4,0.399,0.213,0.12,NaN,NaN,NaN,NaN,NaN,NaN,NaN,NaN,1.208e-5,16.6,216.424,84,0,2,15,1013.25,340.389,0.01,0.004
0.32,-4.688e-4,-0.094,-9.376,0.094,9.428,-4.927e-5,0,4.927e-5,180,0.01,0.985,28.61,-80.6,9.792,86.697,0,0,0,2.72e4,1.35e4,19.759,0.099,NaN,183.3,NaN,0.006,3.614e5,8.457,1.793e-5,0.733,3.408e-4,0.399,0.213,0.12,NaN,NaN,NaN,NaN,NaN,NaN,NaN,NaN,1.209e-5,16.6,216.424,84,0,2,15,1013.25,340.389,0.01,0.004
0.33,-4.663e-4,-0.093,-9.326,0.094,9.377,-4.901e-5,0,4.901e-5,180,0.01,0.98,28.61,-80.6,9.792,86.683,0,0,0,2.72e4,1.35e4,19.759,0.099,NaN,183.3,NaN,0.006,3.614e5,9.828,1.817e-5,0.733,3.452e-4,0.399,0.213,0.12,NaN,NaN,NaN,NaN,NaN,NaN,NaN,NaN,1.203e-5,16.6,216.424,84,0,2,15,1013.25,340.389,0.01,0.004
0.34,-4.659e-4,-0.093,-9.319,0.094,9.37,-4.897e-5,0,4.897e-5,180,0.01,0.979,28.61,-80.6,9.792,86.681,0,0,0,2.72e4,1.35e4,19.759,0.099,NaN,183.3,NaN,0.006,3.614e5,10.028,1.82e-5,0.733,3.459e-4,0.399,0.213,0.12,NaN,NaN,NaN,NaN,NaN,NaN,NaN,NaN,1.202e-5,16.6,216.424,84,0,2,15,1013.25,340.389,0.01,0.004
0.35,-4.65e-4,-0.093,-9.301,0.094,9.352,-4.888e-5,0,4.888e-5,180,0.01,0.978,28.61,-80.6,9.792,86.676,0,0,0,2.72e4,1.35e4,19.759,0.099,NaN,183.299,NaN,0.006,3.614e5,10.514,1.828e-5,0.733,3.475e-4,0.399,0.213,0.12,NaN,NaN,NaN,NaN,NaN,NaN,NaN,NaN,1.199e-5,16.6,216.424,84,0,2,15,1013.25,340.389,0.01,0.004
0.36,-4.616e-4,-0.092,-9.233,0.093,9.284,-4.852e-5,0,4.852e-5,180,0.01,0.97,28.61,-80.6,9.792,86.656,0,0,0,2.72e4,1.35e4,19.759,0.099,NaN,183.299,NaN,0.006,3.614e5,12.371,1.861e-5,0.733,3.536e-4,0.399,0.213,0.12,NaN,NaN,NaN,NaN,NaN,NaN,NaN,NaN,1.191e-5,16.6,216.424,84,0,2,15,1013.25,340.389,0.01,0.004
0.37,-4.607e-4,-0.092,-9.215,0.093,9.266,-4.843e-5,0,4.843e-5,180,0.01,0.969,28.61,-80.6,9.792,86.651,0,0,0,2.72e4,1.35e4,19.759,0.099,NaN,183.298,NaN,0.006,3.614e5,12.862,1.869e-5,0.733,3.552e-4,0.399,0.213,0.12,NaN,NaN,NaN,NaN,NaN,NaN,NaN,NaN,1.188e-5,16.6,216.424,84,0,2,15,1013.25,340.389,0.01,0.004
0.38,-4.577e-4,-0.092,-9.154,0.092,9.205,-4.811e-5,0,4.811e-5,180,0.01,0.962,28.61,-80.6,9.792,86.633,0,0,0,2.72e4,1.35e4,19.758,0.099,NaN,183.298,NaN,0.006,3.614e5,14.525,1.898e-5,0.733,3.607e-4,0.399,0.213,0.12,NaN,NaN,NaN,NaN,NaN,NaN,NaN,NaN,1.18e-5,16.6,216.424,84,0,2,15,1013.25,340.389,0.01,0.005
0.39,-4.555e-4,-0.091,-9.111,0.092,9.161,-4.788e-5,0,4.788e-5,180,0.01,0.958,28.61,-80.6,9.792,86.621,0,0,0,2.72e4,1.35e4,19.758,0.099,NaN,183.297,NaN,0.006,3.614e5,15.717,1.92e-5,0.733,3.647e-4,0.399,0.213,0.12,NaN,NaN,NaN,NaN,NaN,NaN,NaN,NaN,1.175e-5,16.6,216.424,84,0,2,15,1013.25,340.389,0.01,0.005
0.4,-4.536e-4,-0.091,-9.073,0.091,9.123,-4.768e-5,0,4.768e-5,180,0.01,0.954,28.61,-80.6,9.792,86.61,0,0,0,2.72e4,1.35e4,19.758,0.099,NaN,183.297,NaN,0.006,3.614e5,16.751,1.938e-5,0.733,3.682e-4,0.399,0.213,0.12,NaN,NaN,NaN,NaN,NaN,NaN,NaN,NaN,1.17e-5,16.6,216.424,84,0,2,15,1013.25,340.389,0.01,0.005
0.41,-4.5e-4,-0.09,-9,0.09,9.05,-4.73e-5,0,4.73e-5,180,0.009,0.946,28.61,-80.6,9.792,86.589,0,0,0,2.72e4,1.349e4,19.758,0.099,NaN,183.296,NaN,0.006,3.614e5,18.736,1.974e-5,0.733,3.75e-4,0.399,0.213,0.12,NaN,NaN,NaN,NaN,NaN,NaN,NaN,NaN,1.161e-5,16.6,216.424,84,0,2,15,1013.25,340.389,0.01,0.005
0.42,-4.473e-4,-0.089,-8.947,0.09,8.996,-4.702e-5,0,4.702e-5,180,0.009,0.94,28.61,-80.6,9.792,86.573,0,0,0,2.72e4,1.349e4,19.758,0.099,NaN,183.295,NaN,0.006,3.614e5,20.199,2e-5,0.733,3.801e-4,0.399,0.213,0.12,NaN,NaN,NaN,NaN,NaN,NaN,NaN,NaN,1.154e-5,16.6,216.424,84,0,2,15,1013.25,340.389,0.01,0.005
0.43,-4.419e-4,-0.088,-8.838,0.089,8.887,-4.645e-5,0,4.645e-5,180,0.009,0.929,28.61,-80.6,9.792,86.542,0,0,0,2.72e4,1.349e4,19.758,0.099,NaN,183.294,NaN,0.006,3.614e5,23.171,2.055e-5,0.733,3.905e-4,0.399,0.213,0.12,NaN,NaN,NaN,NaN,NaN,NaN,NaN,NaN,1.14e-5,16.6,216.424,84,0,2,15,1013.25,340.389,0.01,0.005
0.44,-4.378e-4,-0.088,-8.755,0.088,8.804,-4.601e-5,0,4.601e-5,180,0.009,0.92,28.61,-80.6,9.792,86.518,0,0,0,2.72e4,1.349e4,19.758,0.099,NaN,183.293,NaN,0.006,3.614e5,25.427,2.098e-5,0.733,3.985e-4,0.399,0.213,0.12,NaN,NaN,NaN,NaN,NaN,NaN,NaN,NaN,1.129e-5,16.6,216.424,84,0,2,15,1013.25,340.389,0.01,0.005
0.45,-4.311e-4,-0.086,-8.623,0.087,8.67,-4.532e-5,0,4.532e-5,180,0.009,0.906,28.61,-80.6,9.792,86.48,0,0,0,2.72e4,1.349e4,19.758,0.099,NaN,183.292,NaN,0.006,3.615e5,29.05,2.167e-5,0.733,4.116e-4,0.399,0.213,0.12,NaN,NaN,NaN,NaN,NaN,NaN,NaN,NaN,1.112e-5,16.6,216.424,84,0,2,15,1013.25,340.389,0.01,0.005
0.46,-4.229e-4,-0.085,-8.458,0.085,8.504,-4.445e-5,0,4.445e-5,180,0.009,0.889,28.61,-80.6,9.792,86.432,0,0,0,2.72e4,1.349e4,19.757,0.099,NaN,183.291,NaN,0.006,3.615e5,33.572,2.255e-5,0.733,4.284e-4,0.399,0.213,0.12,NaN,NaN,NaN,NaN,NaN,NaN,NaN,NaN,1.091e-5,16.6,216.424,84,0,2,15,1013.25,340.389,0.01,0.005
0.47,-4.155e-4,-0.083,-8.31,0.084,8.356,-4.367e-5,0,4.367e-5,180,0.009,0.873,28.61,-80.6,9.792,86.39,0,0,0,2.72e4,1.349e4,19.757,0.099,NaN,183.29,NaN,0.006,3.615e5,37.604,2.336e-5,0.733,4.437e-4,0.399,0.213,0.12,NaN,NaN,NaN,NaN,NaN,NaN,NaN,NaN,1.072e-5,16.6,216.424,84,0,2,15,1013.25,340.389,0.01,0.005
0.48,-4e-4,-0.08,-8,0.08,8.044,-4.204e-5,0,4.204e-5,180,0.008,0.841,28.61,-80.6,9.792,86.3,0,0,0,2.72e4,1.349e4,19.757,0.099,NaN,183.288,NaN,0.006,3.615e5,46.076,2.512e-5,0.733,4.77e-4,0.399,0.213,0.12,NaN,NaN,NaN,NaN,NaN,NaN,NaN,NaN,1.032e-5,16.6,216.424,84,0,2,15,1013.25,340.389,0.01,0.006
0.49,-3.846e-4,-0.077,-7.692,0.077,7.734,-4.042e-5,0,4.042e-5,180,0.008,0.808,28.61,-80.6,9.792,86.211,0,0,0,2.72e4,1.349e4,19.756,0.099,NaN,183.286,NaN,0.006,3.616e5,54.513,2.696e-5,0.732,5.117e-4,0.399,0.213,0.12,NaN,NaN,NaN,NaN,NaN,NaN,NaN,NaN,9.918e-6,16.6,216.424,84,0,2,15,1013.25,340.389,0.01,0.006
0.5,-3.643e-4,-0.073,-7.286,0.073,7.326,-3.829e-5,0,3.829e-5,180,0.008,0.766,28.61,-80.6,9.792,86.094,0,0,0,2.719e4,1.349e4,19.756,0.099,NaN,183.283,NaN,0.006,3.616e5,65.594,2.95e-5,0.732,5.599e-4,0.399,0.213,0.12,NaN,NaN,NaN,NaN,NaN,NaN,NaN,NaN,9.396e-6,16.6,216.424,84,0,2,15,1013.25,340.389,0.01,0.006
0.51,-3.419e-4,-0.068,-6.839,0.069,6.876,-3.594e-5,0,3.594e-5,180,0.007,0.719,28.61,-80.6,9.792,85.965,0,0,0,2.719e4,1.349e4,19.756,0.099,NaN,183.28,NaN,0.006,3.617e5,77.832,3.248e-5,0.732,6.163e-4,0.399,0.213,0.12,NaN,NaN,NaN,NaN,NaN,NaN,NaN,NaN,8.818e-6,16.6,216.424,84,0,2,15,1013.25,340.389,0.01,0.006
0.52,-3.212e-4,-0.064,-6.424,0.065,6.46,-3.376e-5,0,3.376e-5,180,0.007,0.675,28.61,-80.6,9.792,85.846,0,0,0,2.719e4,1.349e4,19.755,0.099,NaN,183.277,NaN,0.006,3.617e5,89.154,3.542e-5,0.732,6.718e-4,0.399,0.213,0.12,NaN,NaN,NaN,NaN,NaN,NaN,NaN,NaN,8.284e-6,16.6,216.424,84,0,2,15,1013.25,340.389,0.01,0.006
0.53,-2.966e-4,-0.059,-5.932,0.06,5.965,-3.117e-5,0,3.117e-5,180,0.006,0.623,28.61,-80.6,9.792,85.704,0,0,0,2.719e4,1.348e4,19.754,0.099,NaN,183.273,NaN,0.006,3.618e5,102.609,3.913e-5,0.732,7.419e-4,0.399,0.213,0.12,NaN,NaN,NaN,NaN,NaN,NaN,NaN,NaN,7.649e-6,16.6,216.424,84,0,2,15,1013.25,340.389,0.01,0.006
0.54,-2.73e-4,-0.055,-5.46,0.055,5.49,-2.869e-5,0,2.869e-5,180,0.006,0.574,28.61,-80.6,9.792,85.568,0,0,0,2.719e4,1.348e4,19.754,0.099,NaN,183.269,NaN,0.006,3.619e5,115.517,4.291e-5,0.732,8.134e-4,0.399,0.213,0.12,NaN,NaN,NaN,NaN,NaN,NaN,NaN,NaN,7.04e-6,16.6,216.424,84,0,2,15,1013.25,340.389,0.01,0.006
0.55,-2.489e-4,-0.05,-4.978,0.05,5.006,-2.616e-5,0,2.616e-5,180,0.005,0.523,28.61,-80.6,9.792,85.43,0,0,0,2.718e4,1.348e4,19.753,0.099,NaN,183.264,NaN,0.006,3.619e5,128.661,4.701e-5,0.732,8.907e-4,0.399,0.213,0.12,NaN,NaN,NaN,NaN,NaN,NaN,NaN,NaN,6.42e-6,16.6,216.424,84,0,2,15,1013.25,340.389,0.01,0.006
0.56,-2.225e-4,-0.044,-4.449,0.045,4.473,-2.338e-5,0,2.338e-5,180,0.005,0.468,28.61,-80.6,9.792,85.277,0,0,0,2.718e4,1.348e4,19.752,0.099,NaN,183.258,NaN,0.006,3.62e5,143.124,5.181e-5,0.732,9.812e-4,0.399,0.213,0.12,NaN,NaN,NaN,NaN,NaN,NaN,NaN,NaN,5.737e-6,16.6,216.424,84,0,2,15,1013.25,340.389,0.01,0.006
0.57,-1.963e-4,-0.039,-3.927,0.039,3.948,-2.064e-5,0,2.064e-5,180,0.004,0.413,28.61,-80.6,9.792,85.127,0,0,0,2.718e4,1.347e4,19.751,0.099,NaN,183.253,NaN,0.006,3.621e5,157.378,5.684e-5,0.732,0.001,0.399,0.213,0.12,NaN,NaN,NaN,NaN,NaN,NaN,NaN,NaN,5.064e-6,16.6,216.424,84,0,2,15,1013.25,340.389,0.01,0.006
0.58,-1.678e-4,-0.034,-3.356,0.034,3.374,-1.764e-5,0,1.764e-5,180,0.004,0.353,28.61,-80.6,9.792,84.963,0,0,0,2.718e4,1.347e4,19.75,0.099,NaN,183.246,NaN,0.006,3.622e5,172.956,6.269e-5,0.732,0.001,0.399,0.213,0.12,NaN,NaN,NaN,NaN,NaN,NaN,NaN,NaN,4.328e-6,16.6,216.424,84,0,2,15,1013.25,340.389,0.01,0.007
0.59,-1.377e-4,-0.028,-2.754,0.028,2.769,-1.448e-5,0,1.448e-5,180,0.003,0.289,28.61,-80.6,9.792,84.79,0,0,0,2.717e4,1.347e4,19.749,0.099,NaN,183.239,NaN,0.006,3.623e5,189.374,6.928e-5,0.732,0.001,0.399,0.213,0.12,NaN,NaN,NaN,NaN,NaN,NaN,NaN,NaN,3.552e-6,16.6,216.424,84,0,2,15,1013.25,340.389,0.01,0.007
0.6,-1.009e-4,-0.02,-2.017,0.02,2.028,-1.06e-5,0,1.06e-5,180,0.002,0.212,28.61,-80.6,9.792,84.578,0,0,0,2.717e4,1.346e4,19.747,0.099,NaN,183.231,NaN,0.006,3.624e5,209.49,7.794e-5,0.732,0.001,0.399,0.213,0.12,NaN,NaN,NaN,NaN,NaN,NaN,NaN,NaN,2.601e-6,16.6,216.424,84,0,2,15,1013.25,340.389,0.01,0.007
0.61,-5.863e-5,-0.012,-1.172,0.012,1.178,-6.162e-6,0,6.162e-6,180,0.001,0.123,28.61,-80.6,9.792,84.336,0,0,0,2.716e4,1.346e4,19.746,0.099,NaN,183.222,NaN,0.006,3.625e5,232.539,8.871e-5,0.732,0.002,0.399,0.213,0.12,NaN,NaN,NaN,NaN,NaN,NaN,NaN,NaN,1.512e-6,16.6,216.424,84,0,2,15,1013.25,340.389,0.01,0.007
0.62,-7.421e-6,-0.001,-0.147,0.001,0.148,-7.8e-7,0,7.8e-7,180,1.557e-4,0.015,28.61,-80.6,9.792,84.042,0,0,0,2.716e4,1.345e4,19.744,0.099,NaN,183.212,NaN,0.006,3.627e5,260.473,1.03e-4,0.732,0.002,0.399,0.213,0.12,NaN,NaN,NaN,NaN,NaN,NaN,NaN,NaN,1.91e-7,16.6,216.424,84,0,2,15,1013.25,340.389,0.01,0.007
0.63,5.535e-5,0.011,1.108,0.011,1.114,5.817e-6,0,5.817e-6,0,0.001,0.116,28.61,-80.6,9.792,83.683,0,0,0,2.715e4,1.345e4,19.742,0.099,NaN,183.201,NaN,0.006,3.63e5,294.705,1.225e-4,0.732,0.002,0.399,0.213,0.12,NaN,NaN,NaN,NaN,NaN,NaN,NaN,NaN,1.428e-6,16.6,216.424,84,0,2,15,1013.25,340.389,0.01,0.007
0.64,2.941e-4,0.037,2.562,0.037,2.576,3.091e-5,0,3.091e-5,0,0.004,0.269,28.61,-80.6,9.792,82.951,0,0,0,2.715e4,1.344e4,19.74,0.099,NaN,183.189,NaN,0.006,3.635e5,334.309,1.692e-4,0.732,0.003,0.399,0.213,0.12,NaN,NaN,NaN,NaN,NaN,NaN,NaN,NaN,4.729e-6,16.6,216.424,84,0,2,15,1013.25,340.389,0.01,0.007
0.65,8.787e-4,0.08,4.36,0.081,4.384,9.235e-5,0,9.235e-5,0,0.008,0.458,28.61,-80.6,9.792,81.712,0,0,0,2.714e4,1.344e4,19.738,0.099,NaN,183.174,NaN,0.006,3.646e5,383.29,2.729e-4,0.732,0.005,0.399,0.213,0.12,NaN,NaN,NaN,NaN,NaN,NaN,NaN,NaN,1.035e-5,16.6,216.424,84,0,2,15,1013.25,340.389,0.01,0.007
0.66,0.002,0.146,6.543,0.146,6.579,2.111e-4,0,2.111e-4,0,0.015,0.688,28.61,-80.6,9.792,79.866,0,0,0,2.713e4,1.343e4,19.735,0.099,NaN,183.157,NaN,0.006,3.665e5,442.735,4.932e-4,0.731,0.009,0.398,0.213,0.12,NaN,NaN,NaN,NaN,NaN,NaN,NaN,NaN,1.878e-5,16.6,216.424,84,0,2,15,1013.25,340.389,0.01,0.007
0.67,0.004,0.238,9.264,0.24,9.315,4.128e-4,0,4.128e-4,0,0.025,0.974,28.61,-80.6,9.792,77.29,0,0,0,2.712e4,1.342e4,19.732,0.099,NaN,183.138,NaN,0.006,3.698e5,516.791,9.608e-4,0.731,0.017,0.397,0.213,0.12,NaN,NaN,NaN,NaN,NaN,NaN,NaN,NaN,3.072e-5,16.6,216.424,84,0,2,15,1013.25,340.389,0.01,0.007
0.68,0.007,0.365,12.649,0.367,12.719,7.297e-4,0,7.297e-4,0,0.038,1.329,28.61,-80.6,9.792,73.856,0,0,0,2.711e4,1.341e4,19.728,0.099,NaN,183.115,NaN,0.006,3.756e5,608.866,0.002,0.729,0.034,0.396,0.213,0.12,NaN,NaN,NaN,NaN,NaN,NaN,NaN,NaN,4.703e-5,16.6,216.424,84,0,2,15,1013.249,340.389,0.01,0.008
0.69,0.011,0.533,16.826,0.536,16.919,0.001,0,0.001,0,0.056,1.769,28.61,-80.6,9.792,69.469,0,0,0,2.71e4,1.339e4,19.724,0.099,NaN,183.087,NaN,0.006,3.852e5,722.382,0.004,0.727,0.066,0.394,0.213,0.12,NaN,NaN,NaN,NaN,NaN,NaN,NaN,NaN,6.872e-5,16.6,216.424,84,0,2,15,1013.249,340.389,0.01,0.008
0.7,0.018,0.749,21.576,0.753,21.695,0.002,0,0.002,0,0.079,2.268,28.61,-80.6,9.792,64.195,0,0,0,2.708e4,1.338e4,19.718,0.099,NaN,183.055,NaN,0.006,4.007e5,851.314,0.008,0.724,0.122,0.39,0.213,0.12,NaN,NaN,NaN,NaN,NaN,NaN,NaN,NaN,9.653e-5,16.6,216.424,84,0,2,15,1013.248,340.389,0.01,0.008
# Event LIFTOFF occurred at t=0.71 seconds
0.71,0.027,1.013,26.482,1.019,26.628,0.003,0,0.003,0,0.106,2.783,28.61,-80.6,9.792,58.312,0,0,0,2.706e4,1.336e4,19.712,0.099,NaN,183.017,NaN,0.007,4.24e5,984.251,0.015,0.719,0.206,0.386,0.213,0.12,NaN,NaN,NaN,NaN,NaN,NaN,NaN,NaN,1.307e-4,16.6,216.424,84,0,2,15,1013.247,340.389,0.01,0.008
0.72,0.038,1.325,31.141,1.332,31.313,0.004,0,0.004,0,0.139,3.273,28.61,-80.6,9.792,52.236,0,0,0,2.704e4,1.334e4,19.705,0.099,NaN,182.975,NaN,0.007,4.564e5,1110.231,0.026,0.713,0.314,0.38,0.213,0.12,NaN,NaN,NaN,NaN,NaN,NaN,NaN,NaN,1.708e-4,16.6,216.424,84,0,2,15,1013.246,340.389,0.01,0.008
0.73,0.053,1.678,35.343,1.687,35.537,0.006,0,0.006,0,0.176,3.715,28.61,-80.6,9.792,46.371,0,0,0,2.702e4,1.332e4,19.697,0.099,NaN,182.928,NaN,0.008,4.984e5,1223.466,0.043,0.706,0.432,0.372,0.213,0.12,NaN,NaN,NaN,NaN,NaN,NaN,NaN,NaN,2.163e-4,16.6,216.424,84,0,2,15,1013.244,340.389,0.01,0.008
0.74,0.072,2.067,38.939,2.078,39.154,0.008,0,0.008,0,0.217,4.093,28.61,-80.6,9.792,41.009,0,0,0,2.7e4,1.329e4,19.689,0.099,NaN,182.878,NaN,0.009,5.498e5,1320.018,0.066,0.698,0.545,0.365,0.213,0.12,NaN,NaN,NaN,NaN,NaN,NaN,NaN,NaN,2.665e-4,16.6,216.424,84,0,2,15,1013.242,340.389,0.01,0.008
0.75,0.095,2.487,41.999,2.5,42.23,0.01,0,0.01,0,0.261,4.414,28.61,-80.6,9.792,36.283,0,0,0,2.697e4,1.327e4,19.68,0.099,NaN,182.824,NaN,0.01,6.096e5,1401.763,0.096,0.69,0.641,0.357,0.213,0.12,NaN,NaN,NaN,NaN,NaN,NaN,NaN,NaN,3.207e-4,16.6,216.424,84,0,2,14.999,1013.239,340.389,0.01,0.008
0.76,0.122,2.931,44.429,2.947,44.673,0.013,0,0.013,0,0.308,4.67,28.61,-80.6,9.792,32.222,0,0,0,2.694e4,1.324e4,19.671,0.099,NaN,182.768,NaN,0.011,6.766e5,1466.216,0.132,0.683,0.715,0.349,0.213,0.12,NaN,NaN,NaN,NaN,NaN,NaN,NaN,NaN,3.779e-4,16.6,216.424,84,0,2,14.999,1013.236,340.388,0.01,0.008
0.77,0.154,3.393,46.27,3.412,46.525,0.016,0,0.016,0,0.357,4.863,28.61,-80.6,9.792,28.781,0,0,0,2.692e4,1.321e4,19.661,0.099,NaN,182.71,NaN,0.012,7.493e5,1514.584,0.174,0.675,0.768,0.342,0.213,0.12,NaN,NaN,NaN,NaN,NaN,NaN,NaN,NaN,4.375e-4,16.6,216.424,84,0,2,14.999,1013.232,340.388,0.01,0.008
0.78,0.19,3.867,47.375,3.888,47.636,0.02,0,0.02,0,0.406,4.979,28.61,-80.6,9.792,25.896,0,0,0,2.689e4,1.318e4,19.651,0.099,NaN,182.65,NaN,0.013,8.26e5,1542.902,0.221,0.669,0.804,0.335,0.213,0.12,NaN,NaN,NaN,NaN,NaN,NaN,NaN,NaN,4.986e-4,16.6,216.424,84,0,2,14.999,1013.228,340.388,0.01,0.009
0.79,0.231,4.346,47.979,4.37,48.243,0.024,0,0.024,0,0.457,5.043,28.61,-80.6,9.792,23.479,0,0,0,2.686e4,1.315e4,19.641,0.099,NaN,182.59,NaN,0.015,9.055e5,1557.611,0.273,0.662,0.825,0.329,0.213,0.12,NaN,NaN,NaN,NaN,NaN,NaN,NaN,NaN,5.604e-4,16.6,216.424,84,0,2,14.998,1013.223,340.388,0.01,0.009
0.8,0.277,4.828,48.213,4.854,48.479,0.029,0,0.029,0,0.507,5.067,28.61,-80.6,9.792,21.446,0,0,0,2.683e4,1.312e4,19.631,0.099,NaN,182.53,NaN,0.016,9.867e5,1562.308,0.328,0.657,0.836,0.324,0.213,0.12,NaN,NaN,NaN,NaN,NaN,NaN,NaN,NaN,6.226e-4,16.6,216.424,84,0,2,14.998,1013.218,340.388,0.01,0.009
0.81,0.327,5.309,48.189,5.339,48.455,0.034,0,0.034,0,0.558,5.065,28.61,-80.6,9.792,19.724,0,0,0,2.68e4,1.31e4,19.621,0.099,NaN,182.469,NaN,0.017,1.069e6,1560.041,0.387,0.652,0.841,0.319,0.213,0.12,NaN,NaN,NaN,NaN,NaN,NaN,NaN,NaN,6.847e-4,16.6,216.424,84,0,2,14.998,1013.212,340.388,0.01,0.009
0.82,0.383,5.79,48.117,5.822,48.383,0.04,0,0.04,0,0.609,5.057,28.61,-80.6,9.792,18.252,0,0,0,2.677e4,1.307e4,19.611,0.099,NaN,182.409,NaN,0.019,1.152e6,1556.501,0.449,0.647,0.84,0.314,0.213,0.12,NaN,NaN,NaN,NaN,NaN,NaN,NaN,NaN,7.467e-4,16.6,216.424,84,0,2,14.998,1013.205,340.387,0.01,0.009
0.83,0.443,6.269,47.934,6.304,48.198,0.047,0,0.047,0,0.659,5.038,28.61,-80.6,9.792,16.982,0,0,0,2.674e4,1.304e4,19.602,0.099,NaN,182.348,NaN,0.02,1.235e6,1549.967,0.514,0.643,0.836,0.31,0.213,0.12,NaN,NaN,NaN,NaN,NaN,NaN,NaN,NaN,8.084e-4,16.6,216.424,84,0,2,14.997,1013.198,340.387,0.01,0.009
0.84,0.508,6.748,47.869,6.785,48.133,0.053,0,0.053,0,0.709,5.031,28.61,-80.6,9.792,15.875,0,0,0,2.672e4,1.301e4,19.592,0.099,NaN,182.288,NaN,0.021,1.319e6,1546.637,0.581,0.639,0.828,0.306,0.213,0.12,NaN,NaN,NaN,NaN,NaN,NaN,NaN,NaN,8.701e-4,16.6,216.424,84,0,2,14.997,1013.19,340.387,0.01,0.009
0.85,0.578,7.226,47.849,7.266,48.112,0.061,0,0.061,0,0.759,5.029,28.61,-80.6,9.792,14.901,0,0,0,2.669e4,1.298e4,19.582,0.099,NaN,182.227,NaN,0.023,1.403e6,1544.509,0.649,0.635,0.818,0.302,0.213,0.12,NaN,NaN,NaN,NaN,NaN,NaN,NaN,NaN,9.318e-4,16.6,216.424,84,0,2,14.996,1013.182,340.387,0.01,0.009
0.86,0.653,7.705,47.974,7.748,48.239,0.069,0,0.069,0,0.81,5.042,28.61,-80.6,9.792,14.035,0,0,0,2.666e4,1.295e4,19.572,0.099,NaN,182.167,NaN,0.024,1.488e6,1546.294,0.719,0.632,0.806,0.299,0.213,0.12,NaN,NaN,NaN,NaN,NaN,NaN,NaN,NaN,9.936e-4,16.6,216.424,84,0,2,14.996,1013.173,340.386,0.01,0.009
0.87,0.732,8.187,48.176,8.232,48.441,0.077,0,0.077,0,0.86,5.063,28.61,-80.6,9.792,13.259,0,0,0,2.663e4,1.292e4,19.562,0.099,NaN,182.106,NaN,0.025,1.573e6,1550.1,0.792,0.629,0.794,0.296,0.213,0.12,NaN,NaN,NaN,NaN,NaN,NaN,NaN,NaN,0.001,16.6,216.424,84,0,2,14.995,1013.164,340.386,0.01,0.01
0.88,0.817,8.67,48.376,8.718,48.643,0.086,0,0.086,0,0.911,5.085,28.61,-80.6,9.792,12.561,0,0,0,2.66e4,1.29e4,19.551,0.099,NaN,182.045,NaN,0.027,1.659e6,1553.871,0.867,0.626,0.782,0.293,0.213,0.12,NaN,NaN,NaN,NaN,NaN,NaN,NaN,NaN,0.001,16.6,216.424,84,0,2,14.995,1013.154,340.386,0.01,0.01
0.89,0.906,9.156,48.586,9.206,48.854,0.095,0,0.095,0,0.962,5.107,28.61,-80.6,9.792,11.929,0,0,0,2.657e4,1.287e4,19.541,0.098,NaN,181.983,NaN,0.028,1.745e6,1557.877,0.945,0.623,0.77,0.29,0.213,0.12,NaN,NaN,NaN,NaN,NaN,NaN,NaN,NaN,0.001,16.6,216.424,84,0,2,14.994,1013.144,340.385,0.01,0.01
0.9,1,9.643,48.768,9.696,49.037,0.105,0,0.105,0,1.014,5.126,28.61,-80.6,9.792,11.354,0,0,0,2.654e4,1.284e4,19.531,0.098,NaN,181.922,NaN,0.03,1.832e6,1561.121,1.027,0.621,0.759,0.287,0.213,0.12,NaN,NaN,NaN,NaN,NaN,NaN,NaN,NaN,0.001,16.6,216.424,84,0,2,14.994,1013.133,340.385,0.01,0.01
0.91,1.099,10.132,48.949,10.188,49.218,0.115,0,0.115,0,1.065,5.145,28.61,-80.6,9.792,10.83,0,0,0,2.651e4,1.281e4,19.521,0.098,NaN,181.86,NaN,0.031,1.92e6,1564.323,1.111,0.618,0.748,0.285,0.213,0.12,NaN,NaN,NaN,NaN,NaN,NaN,NaN,NaN,0.001,16.6,216.424,84,0,2,14.993,1013.121,340.385,0.01,0.01
0.92,1.202,10.623,49.033,10.681,49.303,0.126,0,0.126,0,1.116,5.154,28.61,-80.6,9.792,10.351,0,0,0,2.649e4,1.278e4,19.511,0.098,NaN,181.797,NaN,0.033,2.008e6,1564.942,1.198,0.616,0.738,0.282,0.213,0.12,NaN,NaN,NaN,NaN,NaN,NaN,NaN,NaN,0.001,16.6,216.424,84,0,2,14.992,1013.109,340.384,0.01,0.01
0.93,1.311,11.113,49.112,11.175,49.382,0.138,0,0.138,0,1.168,5.162,28.61,-80.6,9.792,9.911,0,0,0,2.646e4,1.275e4,19.5,0.098,NaN,181.735,NaN,0.034,2.096e6,1565.433,1.289,0.614,0.728,0.28,0.213,0.12,NaN,NaN,NaN,NaN,NaN,NaN,NaN,NaN,0.001,16.6,216.424,84,0,2,14.991,1013.096,340.384,0.01,0.01
0.94,1.425,11.605,49.242,11.669,49.514,0.15,0,0.15,0,1.22,5.176,28.61,-80.6,9.792,9.506,0,0,0,2.643e4,1.272e4,19.49,0.098,NaN,181.673,NaN,0.035,2.184e6,1567.286,1.383,0.611,0.719,0.278,0.213,0.12,NaN,NaN,NaN,NaN,NaN,NaN,NaN,NaN,0.001,16.6,216.424,84,0,2,14.991,1013.083,340.383,0.01,0.01
0.95,1.543,12.099,49.412,12.166,49.684,0.162,0,0.162,0,1.272,5.193,28.61,-80.6,9.792,9.131,0,0,0,2.64e4,1.269e4,19.48,0.098,NaN,181.61,NaN,0.037,2.273e6,1570.156,1.484,0.611,0.713,0.277,0.213,0.12,NaN,NaN,NaN,NaN,NaN,NaN,NaN,NaN,0.002,16.6,216.424,84,0,2,14.99,1013.069,340.383,0.01,0.01
0.96,1.667,12.596,49.753,12.666,50.027,0.175,0,0.175,0,1.324,5.229,28.61,-80.6,9.792,8.782,0,0,0,2.637e4,1.266e4,19.469,0.098,NaN,181.547,NaN,0.038,2.363e6,1577.574,1.591,0.611,0.707,0.277,0.213,0.12,NaN,NaN,NaN,NaN,NaN,NaN,NaN,NaN,0.002,16.6,216.424,84,0,2,14.989,1013.055,340.382,0.01,0.01
0.97,1.795,13.098,50.179,13.17,50.455,0.189,0,0.189,0,1.377,5.274,28.61,-80.6,9.792,8.456,0,0,0,2.634e4,1.263e4,19.459,0.098,NaN,181.483,NaN,0.04,2.453e6,1587.223,1.702,0.611,0.702,0.277,0.213,0.12,NaN,NaN,NaN,NaN,NaN,NaN,NaN,NaN,0.002,16.6,216.424,84,0,2,14.988,1013.039,340.382,0.01,0.01
0.98,1.929,13.603,50.557,13.678,50.836,0.203,0,0.203,0,1.43,5.314,28.61,-80.6,9.792,8.151,0,0,0,2.631e4,1.26e4,19.448,0.098,NaN,181.419,NaN,0.041,2.544e6,1595.578,1.818,0.611,0.697,0.277,0.213,0.12,NaN,NaN,NaN,NaN,NaN,NaN,NaN,NaN,0.002,16.6,216.424,84,0,2,14.987,1013.024,340.381,0.01,0.011
0.99,2.067,14.112,50.863,14.189,51.143,0.217,0,0.217,0,1.483,5.346,28.61,-80.6,9.792,7.865,0,0,0,2.628e4,1.258e4,19.438,0.098,NaN,181.354,NaN,0.043,2.636e6,1601.988,1.939,0.611,0.692,0.277,0.213,0.12,NaN,NaN,NaN,NaN,NaN,NaN,NaN,NaN,0.002,16.6,216.424,84,0,2,14.987,1013.008,340.381,0.01,0.011
1,2.211,14.624,51.255,14.704,51.537,0.232,0,0.232,0,1.537,5.387,28.61,-80.6,9.792,7.597,0,0,0,2.625e4,1.255e4,19.427,0.098,NaN,181.289,NaN,0.044,2.728e6,1610.65,2.064,0.611,0.688,0.277,0.213,0.12,NaN,NaN,NaN,NaN,NaN,NaN,NaN,NaN,0.002,16.6,216.424,84,0,2,14.986,1012.991,340.38,0.01,0.011
1.01,2.36,15.139,51.595,15.223,51.88,0.248,0,0.248,0,1.591,5.423,28.61,-80.6,9.792,7.344,0,0,0,2.622e4,1.252e4,19.416,0.098,NaN,181.223,NaN,0.046,2.822e6,1617.92,2.195,0.611,0.684,0.277,0.213,0.12,NaN,NaN,NaN,NaN,NaN,NaN,NaN,NaN,0.002,16.6,216.424,84,0,2,14.985,1012.973,340.38,0.01,0.011
1.02,2.514,15.658,51.866,15.744,52.152,0.264,0,0.264,0,1.646,5.451,28.61,-80.6,9.792,7.107,0,0,0,2.619e4,1.249e4,19.405,0.098,NaN,181.157,NaN,0.047,2.915e6,1623.343,2.331,0.611,0.68,0.277,0.213,0.12,NaN,NaN,NaN,NaN,NaN,NaN,NaN,NaN,0.002,16.6,216.424,84,0,2,14.984,1012.955,340.379,0.01,0.011
1.03,2.673,16.177,51.987,16.266,52.273,0.281,0,0.281,0,1.7,5.464,28.61,-80.6,9.792,6.884,0,0,0,2.616e4,1.246e4,19.394,0.098,NaN,181.091,NaN,0.049,3.009e6,1624.801,2.471,0.611,0.677,0.277,0.213,0.12,NaN,NaN,NaN,NaN,NaN,NaN,NaN,NaN,0.002,16.6,216.424,84,0,2,14.983,1012.937,340.378,0.01,0.011
1.04,2.837,16.699,52.177,16.791,52.464,0.298,0,0.298,0,1.755,5.484,28.61,-80.6,9.792,6.674,0,0,0,2.613e4,1.243e4,19.384,0.098,NaN,181.025,NaN,0.05,3.104e6,1628.07,2.616,0.611,0.674,0.277,0.213,0.12,NaN,NaN,NaN,NaN,NaN,NaN,NaN,NaN,0.002,16.6,216.424,84,0,2,14.982,1012.917,340.378,0.01,0.011
1.05,3.007,17.221,52.276,17.316,52.564,0.316,0,0.316,0,1.81,5.494,28.61,-80.6,9.792,6.475,0,0,0,2.61e4,1.24e4,19.373,0.098,NaN,180.958,NaN,0.052,3.198e6,1628.945,2.765,0.611,0.671,0.277,0.213,0.12,NaN,NaN,NaN,NaN,NaN,NaN,NaN,NaN,0.002,16.6,216.424,84,0,2,14.98,1012.897,340.377,0.01,0.011
1.06,3.182,17.745,52.434,17.843,52.723,0.334,0,0.334,0,1.865,5.511,28.61,-80.6,9.792,6.288,0,0,0,2.607e4,1.237e4,19.362,0.098,NaN,180.891,NaN,0.053,3.293e6,1631.37,2.919,0.611,0.668,0.277,0.213,0.12,NaN,NaN,NaN,NaN,NaN,NaN,NaN,NaN,0.002,16.6,216.424,84,0,2,14.979,1012.877,340.376,0.01,0.011
1.07,3.362,18.271,52.613,18.372,52.903,0.353,0,0.353,0,1.92,5.53,28.61,-80.6,9.792,6.11,0,0,0,2.604e4,1.234e4,19.351,0.098,NaN,180.824,NaN,0.055,3.389e6,1634.322,3.079,0.611,0.665,0.277,0.213,0.12,NaN,NaN,NaN,NaN,NaN,NaN,NaN,NaN,0.002,16.6,216.424,84,0,2,14.978,1012.856,340.376,0.01,0.011
1.08,3.547,18.799,52.86,18.903,53.151,0.373,0,0.373,0,1.976,5.556,28.61,-80.6,9.792,5.942,0,0,0,2.601e4,1.23e4,19.339,0.098,NaN,180.757,NaN,0.056,3.484e6,1639.044,3.243,0.611,0.663,0.277,0.213,0.12,NaN,NaN,NaN,NaN,NaN,NaN,NaN,NaN,0.002,16.6,216.424,84,0,2,14.977,1012.834,340.375,0.01,0.012
1.09,3.738,19.331,53.193,19.437,53.486,0.393,0,0.393,0,2.032,5.591,28.61,-80.6,9.792,5.781,0,0,0,2.598e4,1.227e4,19.328,0.098,NaN,180.689,NaN,0.058,3.581e6,1646.023,3.413,0.611,0.66,0.277,0.213,0.12,NaN,NaN,NaN,NaN,NaN,NaN,NaN,NaN,0.002,16.6,216.424,84,0,2,14.976,1012.812,340.374,0.01,0.012
1.1,3.934,19.865,53.492,19.975,53.787,0.413,0,0.413,0,2.088,5.622,28.61,-80.6,9.792,5.628,0,0,0,2.595e4,1.224e4,19.317,0.098,NaN,180.621,NaN,0.06,3.678e6,1652.065,3.588,0.611,0.658,0.277,0.213,0.12,NaN,NaN,NaN,NaN,NaN,NaN,NaN,NaN,0.003,16.6,216.424,84,0,2,14.974,1012.789,340.373,0.01,0.012
# Event LAUNCHROD occurred at t=1.11 seconds
1.11,4.135,20.402,53.706,20.515,54.002,0.435,0,0.435,0,2.144,5.645,28.61,-80.6,9.792,5.482,0,0,0,2.592e4,1.221e4,19.306,0.097,NaN,180.552,NaN,0.061,3.775e6,1655.882,3.769,0.611,0.656,0.277,0.213,0.12,NaN,NaN,NaN,NaN,NaN,NaN,NaN,NaN,0.003,16.6,216.424,84,0,2,14.973,1012.765,340.373,0.01,0.012
1.125,4.447,21.21,53.9,21.328,54.281,0.468,1.709e-8,0.468,2.094e-6,2.241,6.415,28.61,-80.6,9.792,5.306,0,0.053,1.332e-5,2.587e4,1.217e4,19.289,0.097,197.753,180.448,1.042,0.064,3.922e6,1660.314,4.053,0.611,0.654,0.277,0.214,0.121,1.15,1.199,1.549e-4,0,0,0,0,5.245e-6,0.003,16.6,216.424,84,-1.243e-7,2,14.971,1012.728,340.371,0.015,0.012
1.148,4.938,22.427,54.197,22.554,54.577,0.52,1.09e-7,0.52,1.203e-5,2.385,6.432,28.61,-80.6,9.792,5.061,0,0.14,2.543e-5,2.58e4,1.21e4,19.263,0.097,198.178,180.292,1.078,0.067,4.143e6,1663.989,4.502,0.611,0.651,0.277,0.214,0.121,1.089,1.174,-2.316e-4,0,0,0,0,3.226e-5,0.003,16.6,216.424,83.997,2.952e-7,2,14.968,1012.671,340.369,0.023,0.012
1.181,5.726,24.273,54.825,24.412,55.207,0.604,4.058e-7,0.604,3.851e-5,2.604,6.481,28.61,-80.6,9.792,4.73,0,0.284,-1.973e-5,2.57e4,1.199e4,19.224,0.097,198.765,180.054,1.127,0.073,4.479e6,1674.193,5.227,0.612,0.646,0.277,0.214,0.121,1.008,1.136,4.321e-4,0,0,0,0,1.141e-4,0.003,16.6,216.424,83.99,-1.914e-6,2,14.963,1012.578,340.366,0.034,0.012
1.231,7.009,27.061,55.951,27.219,56.337,0.742,1.226e-6,0.742,9.466e-5,2.932,6.584,28.61,-80.6,9.792,4.3,0,0.532,9.561e-5,2.554e4,1.184e4,19.165,0.097,199.548,179.694,1.196,0.081,4.987e6,1694.094,6.427,0.612,0.641,0.277,0.214,0.121,0.904,1.081,4.904e-5,0,0,0,0,3.228e-4,0.003,16.6,216.424,83.97,-2.409e-5,2,14.954,1012.428,340.361,0.05,0.012
1.281,8.433,29.906,57.096,30.084,57.488,0.897,2.541e-6,0.897,1.623e-4,3.266,6.707,28.61,-80.6,9.792,3.924,0,0.822,-2.871e-5,2.538e4,1.168e4,19.105,0.097,200.251,179.326,1.261,0.089,5.504e6,1714.222,7.78,0.612,0.637,0.277,0.214,0.121,0.816,1.027,3.748e-4,0,0,0,0,6.332e-4,0.004,16.6,216.424,83.936,-6.41e-5,2,14.945,1012.261,340.356,0.05,0.012
1.331,10.001,32.797,57.997,32.995,58.397,1.069,4.388e-6,1.069,2.352e-4,3.606,6.825,28.61,-80.6,9.792,3.587,0,1.157,-1.046e-5,2.523e4,1.152e4,19.043,0.096,200.898,178.949,1.322,0.098,6.03e6,1727.906,9.288,0.612,0.633,0.277,0.214,0.121,0.738,0.975,2.495e-5,0,0,0,0,0.001,0.004,16.6,216.424,83.887,-8.896e-5,2,14.935,1012.077,340.35,0.05,0.013
1.381,11.714,35.735,58.949,35.953,59.36,1.258,6.811e-6,1.258,3.103e-4,3.952,6.974,28.61,-80.6,9.792,3.277,0,1.536,5.053e-5,2.506e4,1.136e4,18.98,0.096,201.509,178.565,1.382,0.106,6.565e6,1742.723,10.959,0.613,0.631,0.277,0.214,0.121,0.667,0.921,1.501e-4,0,0,0,0,0.002,0.005,16.6,216.424,83.82,-1.033e-4,2,14.924,1011.876,340.343,0.05,0.013
1.431,13.576,38.74,60.287,38.979,60.715,1.464,9.856e-6,1.464,3.857e-4,4.309,7.195,28.61,-80.6,9.792,2.983,0,1.959,4.407e-5,2.49e4,1.12e4,18.916,0.096,202.102,178.17,1.442,0.115,7.112e6,1767.008,12.81,0.613,0.628,0.277,0.214,0.122,0.602,0.865,-7.619e-8,0,0,0,0,0.002,0.005,16.6,216.424,83.733,-1.205e-4,2,14.912,1011.658,340.335,0.05,0.013
1.481,15.589,41.803,61.451,42.064,61.899,1.689,1.357e-5,1.689,4.602e-4,4.677,7.436,28.61,-80.6,9.792,2.698,0,2.423,5.775e-5,2.474e4,1.103e4,18.85,0.096,202.687,177.766,1.501,0.124,7.669e6,1786.669,14.847,0.613,0.626,0.277,0.214,0.122,0.54,0.807,-1.496e-4,0,0,0,0,0.003,0.005,16.6,216.424,83.623,-1.08e-4,2,14.899,1011.422,340.327,0.05,0.013
1.531,17.758,44.937,62.876,45.221,63.351,1.932,1.8e-5,1.932,5.336e-4,5.059,7.749,28.61,-80.6,9.792,2.418,0,2.923,-2.191e-4,2.457e4,1.086e4,18.782,0.095,203.277,177.35,1.562,0.134,8.24e6,1812.535,17.088,0.614,0.624,0.277,0.215,0.122,0.479,0.745,1.524e-5,0,0,0,0,0.004,0.006,16.6,216.424,83.49,-4.316e-5,2,14.885,1011.167,340.319,0.05,0.013
1.581,20.085,48.155,64.548,48.464,65.06,2.195,2.323e-5,2.195,6.063e-4,5.46,8.143,28.61,-80.6,9.792,2.137,0,3.452,-7.673e-5,2.44e4,1.069e4,18.712,0.095,203.88,176.921,1.624,0.143,8.825e6,1844.161,19.553,0.614,0.622,0.277,0.215,0.123,0.42,0.677,-8.435e-5,0,0,0,0,0.004,0.006,16.6,216.424,83.331,8.727e-5,2,14.869,1010.894,340.31,0.05,0.013
1.631,22.576,51.471,66.512,51.806,67.07,2.479,2.937e-5,2.479,6.789e-4,5.884,8.63,28.61,-80.6,9.792,1.853,0,4,-2.422e-4,2.422e4,1.052e4,18.64,0.095,204.502,176.477,1.688,0.153,9.428e6,1882.472,22.272,0.615,0.621,0.277,0.215,0.123,0.361,0.603,4.3e-4,0,0,0,0,0.005,0.007,16.6,216.424,83.144,2.426e-4,2,14.853,1010.602,340.3,0.05,0.013
1.681,25.234,54.861,68.022,55.225,68.632,2.784,3.656e-5,2.784,7.524e-4,6.331,9.128,28.61,-80.6,9.792,1.565,0,4.552,-3.143e-4,2.405e4,1.034e4,18.566,0.095,205.147,176.02,1.755,0.163,1.005e7,1909.35,25.241,0.615,0.62,0.277,0.215,0.123,0.302,0.523,-3.165e-6,0,0,0,0,0.006,0.007,16.6,216.424,82.931,4.782e-4,2,14.836,1010.29,340.29,0.05,0.013
1.731,28.063,58.291,68.793,58.686,69.46,3.112,4.498e-5,3.112,8.281e-4,6.8,9.602,28.61,-80.6,9.792,1.275,-1.098e-6,5.085,-7.719e-4,2.387e4,1.016e4,18.49,0.094,205.811,175.554,1.823,0.173,1.067e7,1918.283,28.443,0.616,0.619,0.277,0.216,0.124,0.243,0.437,1.93e-4,0,0,0,0,0.006,0.008,16.6,216.424,82.69,7.819e-4,2,14.818,1009.959,340.278,0.05,0.013
1.781,31.064,61.758,69.526,62.187,70.261,3.464,5.486e-5,3.464,9.072e-4,7.294,10.135,28.61,-80.6,9.792,0.982,-1.234e-6,5.575,-8.361e-4,2.369e4,9987.04,18.413,0.094,206.496,175.079,1.893,0.184,1.13e7,1926.46,31.886,0.617,0.618,0.277,0.216,0.124,0.186,0.344,-2.391e-4,0,0,0,0,0.007,0.008,16.6,216.424,82.423,0.001,2,14.798,1009.607,340.267,0.05,0.014
1.831,34.238,65.198,68.982,65.663,69.786,3.842,6.644e-5,3.842,9.909e-4,7.808,10.557,28.61,-80.6,9.792,0.689,2.145e-6,5.992,-9.279e-5,2.352e4,9811.118,18.336,0.094,207.195,174.602,1.963,0.194,1.193e7,1904.644,35.514,0.617,0.618,0.276,0.216,0.125,0.129,0.246,3.058e-4,0,0,0,0,0.007,0.008,16.6,216.424,82.133,0.001,2,14.777,1009.234,340.254,0.05,0.014
1.881,37.58,68.509,66.39,69.014,67.252,4.245,7.999e-5,4.245,0.001,8.33,10.73,28.61,-80.6,9.792,0.401,-9.352e-7,6.297,-0.001,2.335e4,9641.582,18.261,0.094,207.898,174.136,2.034,0.204,1.253e7,1835.474,39.213,0.618,0.618,0.276,0.216,0.125,0.074,0.144,1.373e-4,0,0,0,0,0.007,0.009,16.6,216.424,81.826,0.002,2,14.756,1008.842,340.241,0.05,0.014
1.931,41.088,71.804,66.045,72.351,66.996,4.675,9.578e-5,4.675,0.001,8.877,11.248,28.61,-80.6,9.792,0.121,3.768e-7,6.455,-0.001,2.318e4,9473.455,18.185,0.093,208.597,173.667,2.104,0.213,1.313e7,1820.229,43.102,0.619,0.619,0.276,0.217,0.126,0.022,0.04,-2.291e-5,0,0,0,0,0.007,0.009,16.6,216.424,81.506,0.002,2,14.733,1008.431,340.227,0.05,0.014
1.981,44.763,75.201,68.09,75.795,69.167,5.134,1.141e-4,5.134,0.001,9.469,12.158,28.61,-80.6,9.792,0.144,9.758e-7,-6.431,-0.001,2.301e4,9301.568,18.106,0.093,208.562,173.18,2.131,0.224,1.375e7,1860.956,47.336,0.62,0.62,0.276,0.217,0.126,0.027,0.062,-4.946e-4,0,0,0,0,-0.006,0.01,16.6,216.424,81.184,0.002,2,14.709,1008,340.213,0.05,0.014
2.031,48.61,78.696,70.06,79.342,71.272,5.623,1.354e-4,5.623,0.001,10.107,13.092,28.61,-80.6,9.792,0.386,-2.384e-6,-6.195,8.425e-4,2.283e4,9126.117,18.025,0.093,208.001,172.676,2.128,0.234,1.439e7,1899.496,51.932,0.62,0.621,0.276,0.217,0.127,0.072,0.158,-3.084e-5,0,0,0,0,-0.005,0.01,16.6,216.424,80.867,0.003,2,14.684,1007.549,340.197,0.05,0.014
2.081,52.635,82.298,72.216,83.003,73.573,6.145,1.601e-4,6.145,0.001,10.793,14.067,28.61,-80.6,9.792,0.595,3.783e-6,-5.731,-7.602e-4,2.265e4,8946.761,17.94,0.093,207.529,172.152,2.131,0.245,1.505e7,1941.791,56.922,0.621,0.622,0.276,0.218,0.128,0.111,0.242,3.242e-4,0,0,0,0,-0.004,0.011,16.6,216.424,80.568,0.003,2,14.658,1007.077,340.182,0.05,0.014
2.131,56.841,85.933,72.861,86.701,74.341,6.703,1.888e-4,6.703,0.002,11.515,14.764,28.61,-80.6,9.792,0.762,-3.561e-6,-5.025,9.905e-4,2.247e4,8766.738,17.855,0.092,207.165,171.618,2.141,0.256,1.571e7,1949.047,62.211,0.622,0.623,0.276,0.218,0.129,0.144,0.31,-3.651e-4,0,0,0,0,-0.003,0.011,16.6,216.424,80.299,0.003,2,14.631,1006.584,340.165,0.05,0.014
2.181,61.228,89.564,72.785,90.4,74.369,7.297,2.218e-4,7.297,0.002,12.265,15.265,28.61,-80.6,9.792,0.879,8.043e-7,-4.088,-2.131e-4,2.229e4,8587.562,17.768,0.092,206.922,171.078,2.159,0.267,1.637e7,1939.854,67.742,0.623,0.625,0.276,0.219,0.129,0.166,0.361,-2.975e-4,0,0,0,0,-0.002,0.012,16.6,216.424,80.07,0.004,2,14.602,1006.069,340.148,0.05,0.014
2.231,65.798,93.224,73.375,94.132,75.051,7.93,2.595e-4,7.93,0.002,13.043,15.771,28.61,-80.6,9.792,0.939,0,-2.943,8.66e-4,2.211e4,8407.87,17.679,0.092,206.815,170.528,2.186,0.278,1.704e7,1945.437,73.558,0.624,0.626,0.275,0.219,0.13,0.178,0.39,1.466e-4,0,0,0,0,-8.391e-4,0.012,16.6,216.424,79.894,0.004,2,14.572,1005.533,340.13,0.05,0.014
2.281,70.552,96.927,74.234,97.91,75.977,8.602,3.025e-4,8.602,0.002,13.844,16.182,28.61,-80.6,9.792,0.936,-7.935e-7,-1.643,0.002,2.193e4,8227.163,17.589,0.092,206.853,169.966,2.222,0.289,1.772e7,1956.429,79.677,0.626,0.627,0.275,0.22,0.131,0.178,0.395,4.109e-4,0,0,0,0,-2.419e-4,0.013,16.6,216.424,79.779,0.004,2,14.541,1004.975,340.111,0.05,0.015
2.331,75.49,100.629,74.247,101.691,76.008,9.315,3.512e-4,9.315,0.002,14.655,16.265,28.61,-80.6,9.792,0.87,-4.628e-7,-0.258,0.001,2.175e4,8047.232,17.498,0.091,207.039,169.396,2.268,0.3,1.839e7,1948.014,86.028,0.627,0.628,0.275,0.22,0.132,0.165,0.374,4.165e-4,0,0,0,0,-5.534e-6,0.013,16.6,216.424,79.732,0.004,2,14.509,1004.396,340.092,0.05,0.015
2.381,80.615,104.368,74.994,105.508,76.742,10.068,4.059e-4,10.068,0.002,15.471,16.287,28.61,-80.6,9.792,0.743,-4.733e-7,1.102,0.002,2.157e4,7866.644,17.405,0.091,207.369,168.815,2.323,0.311,1.908e7,1955.138,92.678,0.628,0.629,0.275,0.221,0.133,0.14,0.326,-1.645e-4,0,0,0,0,9.373e-5,0.014,16.6,216.424,79.754,0.005,2,14.476,1003.795,340.071,0.05,0.015
2.431,85.928,108.16,76.079,109.38,77.778,10.862,4.67e-4,10.862,0.002,16.286,16.171,28.61,-80.6,9.792,0.564,-1.186e-6,2.32,-3.562e-5,2.139e4,7684.795,17.309,0.091,207.827,168.22,2.386,0.323,1.977e7,1968.808,99.676,0.629,0.63,0.275,0.221,0.134,0.106,0.252,2.078e-4,0,0,0,0,3.866e-4,0.014,16.6,216.424,79.841,0.005,2,14.441,1003.172,340.05,0.05,0.015
2.481,91.433,112.015,77.351,113.312,78.97,11.696,5.348e-4,11.696,0.003,17.092,15.908,28.61,-80.6,9.792,0.347,3.818e-6,3.25,0.003,2.121e4,7501.381,17.212,0.091,208.383,167.61,2.456,0.334,2.047e7,1985.734,107.07,0.631,0.631,0.274,0.222,0.135,0.065,0.158,3.725e-4,0,0,0,0,7.069e-4,0.015,16.6,216.424,79.982,0.005,2,14.406,1002.526,340.029,0.05,0.015
2.531,97.131,115.908,78.106,117.278,79.613,12.57,6.094e-4,12.57,0.003,17.876,15.417,28.61,-80.6,9.792,0.112,6.745e-7,3.762,3.717e-4,2.102e4,7317.476,17.112,0.09,208.992,166.987,2.53,0.346,2.117e7,1991.05,114.84,0.632,0.632,0.274,0.222,0.136,0.021,0.052,-6.177e-5,0,0,0,0,8.843e-4,0.015,16.6,216.424,80.159,0.005,2,14.369,1001.858,340.006,0.05,0.015
2.581,103.024,119.823,78.54,121.262,79.923,13.483,6.905e-4,13.483,0.003,18.631,14.806,28.61,-80.6,9.792,0.116,2.641e-6,-3.741,-0.002,2.084e4,7133.711,17.011,0.09,209.024,166.354,2.57,0.358,2.188e7,1989.537,122.977,0.634,0.634,0.274,0.223,0.137,0.022,0.056,-2.358e-4,0,0,0,0,-8.178e-4,0.016,16.6,216.424,80.349,0.005,2,14.33,1001.167,339.983,0.05,0.015
2.631,109.113,123.742,78.618,125.246,79.882,14.433,7.778e-4,14.433,0.003,19.353,14.155,28.61,-80.6,9.792,0.311,6.263e-6,-3.149,-0.003,2.066e4,6950.733,16.909,0.09,208.595,165.712,2.583,0.369,2.259e7,1981.005,131.446,0.635,0.635,0.274,0.224,0.138,0.058,0.151,-3.258e-4,0,0,0,0,-5.434e-4,0.016,16.6,216.424,80.524,0.004,2,14.291,1000.453,339.959,0.05,0.015
2.681,115.398,127.662,78.623,129.226,79.794,15.418,8.707e-4,15.418,0.003,20.044,13.621,28.61,-80.6,9.792,0.449,-6.114e-7,-2.01,9.218e-4,2.047e4,6768.605,16.805,0.089,208.313,165.062,2.605,0.381,2.329e7,1971.826,140.222,0.637,0.637,0.273,0.224,0.139,0.084,0.22,-1.228e-4,0,0,0,0,-2.081e-4,0.017,16.6,216.424,80.654,0.004,2,14.25,999.716,339.934,0.05,0.016
2.731,121.879,131.572,78.397,133.193,79.515,16.437,9.689e-4,16.437,0.003,20.713,13.284,28.61,-80.6,9.792,0.509,0,-0.466,-0.001,2.029e4,6587.653,16.701,0.089,208.217,164.405,2.639,0.393,2.399e7,1959.073,149.257,0.638,0.639,0.273,0.225,0.14,0.096,0.253,-1.833e-4,0,0,0,0,-1.054e-5,0.017,16.6,216.424,80.717,0.004,2,14.208,998.956,339.909,0.05,0.016
2.781,128.555,135.479,78.284,137.154,79.402,17.489,0.001,17.489,0.004,21.373,13.279,28.61,-80.6,9.792,0.483,0,1.266,-3.472e-4,2.011e4,6407.538,16.595,0.089,208.326,163.738,2.686,0.404,2.469e7,1950.026,158.55,0.64,0.641,0.273,0.226,0.141,0.091,0.244,4.21e-4,0,0,0,0,7.329e-5,0.018,16.6,216.424,80.696,0.004,2,14.164,998.173,339.883,0.05,0.016
2.831,135.425,139.342,77.389,141.074,78.556,18.574,0.001,18.574,0.004,22.036,13.49,28.61,-80.6,9.792,0.377,4.231e-6,2.896,-0.002,1.994e4,6229.576,16.488,0.089,208.629,163.068,2.745,0.416,2.538e7,1926.697,168.013,0.642,0.642,0.273,0.227,0.143,0.071,0.195,-2.169e-5,0,0,0,0,3.625e-4,0.018,16.6,216.424,80.589,0.004,2,14.12,997.367,339.855,0.05,0.016
2.881,142.486,143.08,74.828,144.87,76.075,19.693,0.001,19.693,0.004,22.705,13.721,28.61,-80.6,9.792,0.209,-3.838e-6,4.087,-0.004,1.976e4,6056.698,16.383,0.088,209.081,162.406,2.812,0.427,2.605e7,1871.671,177.455,0.643,0.644,0.272,0.227,0.144,0.039,0.109,1.082e-4,0,0,0,0,6.847e-4,0.019,16.6,216.424,80.411,0.005,2,14.074,996.539,339.828,0.05,0.016
2.931,149.73,146.703,72.502,148.556,73.873,20.845,0.001,20.845,0.004,23.392,14.168,28.61,-80.6,9.792,0.014,8.963e-6,4.561,-0.078,1.959e4,5888.294,16.279,0.088,209.606,161.749,2.883,0.438,2.67e7,1823.229,186.92,0.645,0.645,0.272,0.228,0.145,0.003,0.007,-4.478e-4,0,0,0,0,8.107e-4,0.019,16.6,216.424,80.191,0.007,2,14.027,995.689,339.799,0.05,0.016
2.981,157.153,150.213,70.224,152.134,71.733,22.032,0.002,22.032,0.004,24.103,14.634,28.61,-80.6,9.792,0.17,4.775e-6,-4.171,-0.005,1.943e4,5724.161,16.176,0.088,209.275,161.098,2.902,0.449,2.732e7,1776.994,196.41,0.647,0.647,0.272,0.229,0.146,0.032,0.093,-2.43e-4,0,0,0,0,-6.467e-4,0.02,16.6,216.424,79.968,0.008,2,13.979,994.819,339.77,0.05,0.016
3.031,164.748,153.565,67.072,155.559,68.678,23.255,0.002,23.255,0.004,24.826,14.764,28.61,-80.6,9.792,0.299,-1.585e-6,-2.957,-0.002,1.927e4,5565.832,16.075,0.088,209.011,160.46,2.925,0.459,2.792e7,1714.157,205.755,0.649,0.649,0.272,0.229,0.147,0.056,0.165,4.72e-4,0,0,0,0,-3.109e-4,0.02,16.6,216.424,79.788,0.009,2,13.929,993.928,339.74,0.05,0.016
3.081,172.505,156.734,63.409,158.802,65.034,24.514,0.002,24.514,0.004,25.542,14.448,28.61,-80.6,9.792,0.346,-9.121e-7,-1.19,-0.003,1.912e4,5414.226,15.976,0.087,208.945,159.839,2.958,0.468,2.849e7,1641.368,214.802,0.65,0.65,0.271,0.23,0.149,0.065,0.193,-1.659e-4,0,0,0,0,-4.831e-5,0.02,16.6,216.424,79.684,0.008,2,13.879,993.018,339.709,0.05,0.016
3.131,180.416,159.696,59.282,161.835,60.823,25.808,0.002,25.808,0.004,26.226,13.607,28.61,-80.6,9.792,0.301,6.514e-7,0.687,-0.007,1.898e4,5270.198,15.882,0.087,209.097,159.239,3.003,0.477,2.901e7,1559.33,223.412,0.652,0.652,0.271,0.231,0.15,0.057,0.171,-3.37e-4,0,0,0,0,1.548e-5,0.021,16.6,216.424,79.674,0.008,2,13.827,992.09,339.678,0.05,0.016
3.181,188.467,162.364,53.424,164.568,54.767,27.135,0.002,27.135,0.005,26.842,12.054,28.61,-80.6,9.792,0.179,-1.485e-6,2.138,-0.008,1.884e4,5136.823,15.793,0.087,209.434,158.676,3.058,0.486,2.948e7,1443.981,231.29,0.653,0.653,0.271,0.231,0.151,0.034,0.102,-6.102e-5,0,0,0,0,1.452e-4,0.021,16.6,216.424,79.75,0.007,2,13.775,991.146,339.647,0.05,0.017
3.231,196.643,164.657,45.921,166.914,46.994,28.49,0.002,28.49,0.005,27.358,9.987,28.61,-80.6,9.792,0.016,2.988e-6,2.751,-0.075,1.872e4,5016.93,15.712,0.087,209.866,158.163,3.115,0.492,2.988e7,1298.007,238.163,0.654,0.654,0.271,0.232,0.152,0.003,0.009,-3.145e-4,0,0,0,0,2.337e-4,0.021,16.6,216.424,79.878,0.005,2,13.722,990.187,339.614,0.05,0.017
3.281,204.923,166.563,38.154,168.862,38.963,29.869,0.003,29.869,0.005,27.769,7.9,28.61,-80.6,9.792,0.138,1.637e-6,-2.325,-0.007,1.862e4,4910.835,15.639,0.087,209.598,157.704,3.126,0.498,3.021e7,1148.651,243.951,0.655,0.655,0.271,0.232,0.152,0.026,0.082,-2.693e-4,0,0,0,0,-1.631e-4,0.022,16.6,216.424,80.01,0.004,2,13.668,989.216,339.582,0.05,0.017
3.331,213.288,168.036,29.471,170.365,30.057,31.265,0.003,31.265,0.005,28.073,5.905,28.61,-80.6,9.792,0.238,-2.547e-6,-1.008,3.824e-5,1.853e4,4819.954,15.576,0.087,209.381,157.306,3.137,0.503,3.046e7,983.929,248.443,0.656,0.656,0.27,0.233,0.153,0.045,0.141,6.866e-5,0,0,0,0,-3.013e-5,0.022,16.6,216.424,80.096,0.004,2,13.614,988.235,339.549,0.05,0.017
3.381,221.716,169.06,20.44,171.409,20.875,32.674,0.003,32.674,0.005,28.285,4.242,28.61,-80.6,9.792,0.255,-5.62e-7,0.748,-0.009,1.845e4,4744.715,15.524,0.086,209.358,156.974,3.156,0.506,3.063e7,814.576,251.514,0.657,0.657,0.27,0.233,0.153,0.048,0.152,-2.052e-4,0,0,0,0,1.639e-5,0.022,16.6,216.424,80.101,0.005,2,13.559,987.246,339.516,0.05,0.017
3.431,230.185,169.696,12.695,172.062,13.088,34.092,0.003,34.092,0.005,28.436,3.184,28.61,-80.6,9.791,0.187,-6.344e-6,2.35,-0.006,1.839e4,4682.75,15.48,0.086,209.531,156.698,3.183,0.508,3.072e7,670.862,253.342,0.657,0.657,0.27,0.233,0.154,0.035,0.113,-1.637e-4,0,0,0,0,1.605e-4,0.022,16.6,216.424,80.019,0.007,2,13.504,986.253,339.482,0.05,0.017
3.481,238.676,169.97,5.43,172.35,5.954,35.516,0.003,35.516,0.005,28.545,2.443,28.61,-80.6,9.791,0.063,-3.963e-6,3.261,-0.007,1.834e4,4633.166,15.445,0.086,209.838,156.476,3.215,0.509,3.075e7,536.827,254.023,0.657,0.657,0.27,0.233,0.154,0.012,0.038,-4.771e-5,0,0,0,0,3.08e-4,0.022,16.6,216.424,79.873,0.008,2,13.449,985.257,339.449,0.05,0.017
3.531,247.173,169.896,-1.522,172.289,2.339,36.945,0.004,36.945,0.005,28.62,1.776,28.61,-80.6,9.791,0.074,-2.713e-6,-3.204,-7.031e-4,1.83e4,4595.435,15.419,0.086,209.812,156.306,3.223,0.509,3.072e7,408.489,253.63,0.657,0.657,0.27,0.233,0.154,0.014,0.045,-2.759e-4,0,0,0,0,-2.976e-4,0.022,16.6,216.424,79.705,0.009,2,13.393,984.261,339.415,0.05,0.017
3.581,255.659,169.56,-6.716,171.967,6.833,38.377,0.004,38.377,0.006,28.674,1.255,28.61,-80.6,9.791,0.176,-3.992e-6,-2.265,0.002,1.827e4,4566.618,15.398,0.086,209.558,156.176,3.216,0.508,3.065e7,311.985,252.438,0.657,0.657,0.27,0.233,0.154,0.033,0.107,-4.898e-4,0,0,0,0,-1.493e-4,0.022,16.6,216.424,79.565,0.01,2,13.338,983.265,339.382,0.05,0.017
3.631,264.124,169.023,-10.684,171.444,10.705,39.812,0.004,39.812,0.006,28.706,0.667,28.61,-80.6,9.791,0.213,-3.159e-6,-0.827,0.005,1.825e4,4544.733,15.383,0.086,209.462,156.077,3.216,0.506,3.053e7,236.943,250.611,0.657,0.657,0.27,0.233,0.153,0.04,0.129,-4.123e-4,0,0,0,0,-2.001e-5,0.022,16.6,216.424,79.488,0.01,2,13.283,982.273,339.349,0.05,0.018
3.681,272.558,168.325,-13.883,170.755,13.884,41.247,0.004,41.247,0.006,28.706,0.083,28.61,-80.6,9.791,0.175,5.101e-7,0.6,0.006,1.823e4,4528.591,15.371,0.086,209.541,156.004,3.225,0.504,3.039e7,174.76,248.261,0.656,0.656,0.27,0.233,0.153,0.033,0.107,-4.718e-5,0,0,0,0,1.063e-5,0.022,16.6,216.424,79.486,0.011,2,13.228,981.284,339.315,0.05,0.018
3.731,280.953,167.49,-16.587,169.926,16.615,42.682,0.004,42.682,0.006,28.667,0.955,28.61,-80.6,9.791,0.082,-1.728e-6,1.535,0.005,1.822e4,4517.445,15.363,0.086,209.755,155.953,3.241,0.502,3.022e7,120.672,245.482,0.656,0.656,0.27,0.233,0.153,0.015,0.05,-4.968e-4,0,0,0,0,7.025e-5,0.022,16.6,216.424,79.544,0.01,2,13.174,980.299,339.282,0.05,0.018
3.781,289.304,166.543,-18.826,168.979,18.912,44.113,0.005,44.113,0.006,28.586,1.804,28.61,-80.6,9.791,0.034,-1.531e-6,-1.704,0.014,1.822e4,4510.545,15.358,0.086,209.857,155.922,3.249,0.499,3.003e7,74.706,242.377,0.655,0.655,0.271,0.233,0.152,0.006,0.021,-4.249e-4,0,0,0,0,-8.754e-5,0.022,16.6,216.424,79.63,0.01,2,13.12,979.32,339.249,0.05,0.018
3.831,297.606,165.53,-20.138,167.961,20.281,45.54,0.005,45.54,0.006,28.473,2.403,28.61,-80.6,9.791,0.131,1.311e-6,-1.108,0.007,1.821e4,4506.296,15.355,0.086,209.605,155.902,3.235,0.496,2.983e7,46.005,239.101,0.655,0.655,0.271,0.232,0.152,0.025,0.08,5.779e-5,0,0,0,0,-3.745e-5,0.022,16.6,216.424,79.704,0.009,2,13.066,978.346,339.217,0.05,0.018
3.881,305.856,164.483,-20.848,166.907,21.023,46.96,0.005,46.96,0.006,28.339,2.708,28.61,-80.6,9.791,0.181,1.883e-6,-0.017,0.009,1.821e4,4503.619,15.353,0.086,209.468,155.89,3.228,0.493,2.963e7,28.976,235.74,0.654,0.654,0.271,0.232,0.152,0.034,0.11,-4.428e-4,0,0,0,0,-8.954e-9,0.021,16.6,216.424,79.733,0.007,2,13.012,977.378,339.184,0.05,0.018
3.931,314.053,163.421,-21.165,165.836,21.339,48.373,0.005,48.373,0.006,28.2,2.722,28.61,-80.6,9.791,0.17,2.48e-6,1.206,0.008,1.821e4,4501.783,15.352,0.086,209.478,155.882,3.229,0.49,2.942e7,19.875,232.348,0.654,0.654,0.271,0.232,0.151,0.032,0.104,3.329e-4,0,0,0,0,4.547e-5,0.021,16.6,216.424,79.701,0.005,2,12.959,976.417,339.152,0.05,0.018
3.981,322.198,162.352,-21.296,164.761,21.444,49.78,0.006,49.78,0.007,28.067,2.52,28.61,-80.599,9.791,0.107,-4.18e-7,2.145,0.015,1.821e4,4500.416,15.351,0.086,209.616,155.876,3.237,0.487,2.921e7,14.809,228.966,0.653,0.653,0.271,0.232,0.151,0.02,0.064,-2.012e-5,0,0,0,0,1.458e-4,0.021,16.6,216.424,79.614,0.004,2,12.906,975.462,339.12,0.05,0.018
# Event BURNOUT occurred at t=4 seconds
# Event EJECTION_CHARGE occurred at t=4 seconds
4,325.238,161.951,-21.401,164.357,21.537,50.306,0.006,50.306,0.007,28.021,2.421,28.61,-80.599,9.791,0.072,1.679e-6,2.4,0.025,1.821e4,4500,15.351,0.086,209.693,155.874,3.242,0.486,2.913e7,11.991,227.704,0.653,0.653,0.271,0.231,0.151,0.014,0.044,7.808e-5,0,0,0,0,1.834e-4,0.021,16.6,216.424,79.571,0.005,2,12.886,975.105,339.108,0.019,0.018
4.028,329.784,161.332,-21.977,163.735,22.101,51.093,0.006,51.093,0.007,27.952,2.344,28.61,-80.599,9.791,0.018,6.192e-7,2.565,0.094,1.821e4,4500,15.351,0.086,209.816,155.874,3.25,0.484,2.901e7,0,225.777,0.653,0.653,0.271,0.231,0.15,0.003,0.011,2.825e-4,0,0,0,0,2.111e-4,0.021,16.6,216.424,79.5,0.005,2,12.856,974.572,339.09,0.028,0.019
4.07,336.571,160.407,-21.87,162.808,21.967,52.27,0.006,52.27,0.007,27.859,2.065,28.61,-80.599,9.791,0.061,-3.88e-6,-2.437,0.029,1.821e4,4500,15.351,0.086,209.699,155.874,3.242,0.481,2.883e7,0,222.928,0.652,0.652,0.271,0.231,0.15,0.011,0.037,-4.234e-4,0,0,0,0,-1.927e-4,0.021,16.6,216.424,79.393,0.008,2,12.812,973.776,339.063,0.042,0.019
4.12,344.564,159.317,-21.731,161.717,21.807,53.661,0.006,53.661,0.007,27.763,1.818,28.61,-80.599,9.791,0.13,6.477e-6,-1.809,0.004,1.821e4,4500,15.351,0.086,209.513,155.874,3.231,0.478,2.862e7,0,219.614,0.652,0.652,0.271,0.231,0.15,0.024,0.08,-3.387e-4,0,0,0,0,-1.076e-4,0.021,16.6,216.424,79.285,0.011,2,12.76,972.838,339.032,0.05,0.019
4.17,352.503,158.234,-21.57,160.636,21.638,55.047,0.007,55.047,0.007,27.676,1.711,28.61,-80.599,9.791,0.158,1.268e-6,-0.874,0.007,1.821e4,4500,15.351,0.086,209.43,155.874,3.226,0.475,2.841e7,0,216.353,0.651,0.651,0.271,0.231,0.149,0.03,0.095,-2.976e-4,0,0,0,0,-2.545e-5,0.021,16.6,216.424,79.218,0.014,2,12.709,971.907,339,0.05,0.019
4.22,360.387,157.16,-21.381,159.563,21.453,56.428,0.007,56.428,0.007,27.59,1.759,28.61,-80.599,9.791,0.137,2.413e-6,0.064,0.003,1.821e4,4500,15.351,0.086,209.465,155.874,3.228,0.472,2.821e7,0,213.14,0.651,0.651,0.271,0.23,0.149,0.026,0.083,-9.042e-5,0,0,0,0,1.365e-7,0.021,16.6,216.424,79.2,0.016,2,12.657,970.983,338.969,0.05,0.019
4.27,368.219,156.096,-21.173,158.5,21.26,57.806,0.007,57.806,0.007,27.498,1.925,28.61,-80.599,9.791,0.077,3.562e-6,0.733,0.012,1.821e4,4500,15.351,0.086,209.595,155.874,3.236,0.469,2.8e7,0,209.977,0.65,0.65,0.271,0.23,0.149,0.014,0.047,-3.317e-4,0,0,0,0,1.84e-5,0.02,16.6,216.424,79.222,0.016,2,12.607,970.064,338.938,0.05,0.019
4.32,375.997,155.043,-20.958,157.445,21.067,59.178,0.007,59.178,0.007,27.396,2.142,28.61,-80.599,9.791,0.002,-1.721e-6,-0.855,0.436,1.821e4,4500,15.351,0.086,209.764,155.874,3.246,0.466,2.78e7,0,206.874,0.65,0.65,0.271,0.23,0.148,3.686e-4,0.001,1.993e-4,0,0,0,0,-2.535e-5,0.02,16.6,216.424,79.268,0.015,2,12.556,969.152,338.908,0.05,0.019
4.37,383.723,154,-20.75,156.398,20.882,60.545,0.008,60.545,0.007,27.284,2.339,28.61,-80.599,9.791,0.076,2.899e-6,-0.722,0.008,1.821e4,4500,15.351,0.086,209.568,155.874,3.235,0.463,2.76e7,0,203.831,0.649,0.649,0.272,0.23,0.148,0.014,0.047,-3.417e-5,0,0,0,0,-1.834e-5,0.02,16.6,216.424,79.312,0.013,2,12.506,968.246,338.877,0.05,0.019
4.42,391.397,152.968,-20.561,155.361,20.707,61.906,0.008,61.906,0.007,27.163,2.456,28.61,-80.599,9.791,0.126,2.735e-6,-0.115,0.005,1.821e4,4500,15.351,0.086,209.432,155.874,3.226,0.46,2.74e7,0,200.842,0.649,0.649,0.272,0.23,0.147,0.024,0.076,3.039e-4,0,0,0,0,-4.736e-7,0.02,16.6,216.424,79.334,0.011,2,12.456,967.346,338.847,0.05,0.019
4.47,399.02,151.944,-20.395,154.331,20.544,63.261,0.008,63.261,0.008,27.039,2.462,28.61,-80.599,9.791,0.139,1.555e-6,0.661,0.003,1.821e4,4500,15.351,0.086,209.387,155.874,3.224,0.457,2.72e7,0,197.899,0.648,0.648,0.272,0.229,0.147,0.026,0.084,-3.819e-6,0,0,0,0,1.577e-5,0.02,16.6,216.424,79.32,0.009,2,12.406,966.452,338.817,0.05,0.019
4.52,406.592,150.928,-20.252,153.309,20.389,64.61,0.009,64.61,0.008,26.918,2.359,28.61,-80.599,9.791,0.113,4.22e-6,1.39,0.008,1.821e4,4500,15.351,0.086,209.434,155.874,3.227,0.454,2.7e7,0,194.999,0.648,0.648,0.272,0.229,0.147,0.021,0.068,-2.371e-4,0,0,0,0,7.072e-5,0.02,16.6,216.424,79.267,0.008,2,12.357,965.564,338.787,0.05,0.02
4.57,414.113,149.918,-20.127,152.296,20.244,65.953,0.009,65.953,0.008,26.805,2.178,28.61,-80.599,9.791,0.059,4.333e-6,1.888,0.016,1.821e4,4500,15.351,0.086,209.552,155.874,3.234,0.451,2.681e7,0,192.146,0.647,0.647,0.272,0.229,0.146,0.011,0.036,-1.07e-4,0,0,0,0,1.321e-4,0.02,16.6,216.424,79.183,0.009,2,12.308,964.681,338.758,0.05,0.02
4.62,421.584,148.915,-20.01,151.29,20.107,67.291,0.009,67.291,0.008,26.701,1.968,28.61,-80.599,9.791,0.007,7.573e-6,-2.03,0.104,1.821e4,4500,15.351,0.086,209.666,155.874,3.241,0.448,2.662e7,0,189.343,0.647,0.647,0.272,0.229,0.146,0.001,0.004,4.873e-4,0,0,0,0,-1.549e-4,0.019,16.6,216.424,79.082,0.01,2,12.26,963.805,338.728,0.05,0.02
4.67,429.005,147.917,-19.893,150.291,19.972,68.623,0.01,68.623,0.008,26.608,1.78,28.61,-80.599,9.791,0.068,0,-1.82,0.014,1.821e4,4500,15.351,0.086,209.504,155.874,3.231,0.445,2.643e7,0,186.592,0.646,0.646,0.272,0.229,0.146,0.013,0.041,3.63e-5,0,0,0,0,-1.261e-4,0.019,16.6,216.424,78.984,0.011,2,12.211,962.935,338.699,0.05,0.02
